latitude,longitude,altitude(feet),ascent(feet),speed(mph),distance(feet),max_altitude(feet),max_ascent(feet),max_speed(mph),max_distance(feet),time(millisecond),datetime(utc),datetime(local),satellites,pressure(Pa),temperature(F),voltage(v),home_latitude,home_longitude,velocityX(mph),velocityY(mph),velocityZ(mph),pitch(deg),roll(deg),yaw(deg),powerlevel,isflying,istakingphoto,remainPowerPercent,remainLifePercent,currentCurrent,currentElectricity,currentVoltage,batteryTemperature,dischargeCount,flightmode,isMotorsOn,isTakingVideo,Rc_elevator,Rc_aileron,Rc_throttle,Rc_rudder,Rc_gyro,timestamp,Battery_Cell1,Battery_Cell2,Battery_Cell3,Battery_Cell4,Battery_Cell5,Battery_Cell6,Dronetype,AppVersion,Planename,FlyControllerSerialNumber,RemoteSerialNumber,BatterySerialNumber,CENTER_BATTERY.productDate,CENTER_BATTERY.serialNo,CENTER_BATTERY.fullCapacity,CENTER_BATTERY.productDateRaw,pitchRaw,rollRaw,yawRaw,gimbalPitchRaw,gimbalRollRaw,gimbalYawRaw,flyState,altitudeRaw,speedRaw,distanceRaw,velocityXRaw,velocityYRaw,velocityZRaw,data_reuse,App_Tip,App_Warning,downlinkSignalQuality,uplinkSignalQuality,transmissionChannel,rcModeSwitch,rcHome,rcPause,rcTransform,rcJoystickMode,appMode,FlyControllerSerialNumber_legacy,RemoteSerialNumber_legacy,BatterySerialNumber_legacy,Battery2SerialNumber,frontAvoidDist,backAvoidDist,isBrakingToAvoid
51.405597,-2.818365,15,15,0,222,15,15,20.92,228,0,55:22.1,55:22.1,21,0,0,11.81,51.405514,-2.819333,0,0,0,-3,2,-5,0,1,0,79,99,-7832,3000,11810,3123.5,16,P_GPS,1,0,0,0,0,0,0,1.5314E+12,3925,3911,3903,0,0,0,13,,,,,,,0,0,0,32,21,-57,-30,0,-55,6,45,0,679.42,0,0,0,0,,,100,100,0,1,0,0,0,2,0,,,,,0,0,0
51.405597,-2.818365,15,15,0,222,15,15,20.92,228,98,55:22.2,55:22.2,21,0,0,11.81,51.405514,-2.819333,0,0,0,-3,2,-5,0,1,0,79,99,-7832,3000,11810,3123.5,16,P_GPS,1,0,0,0,0,0,0,1.5314E+12,3925,3911,3903,0,0,0,13,,,,,,,0,0,0,32,21,-57,-30,0,-55,6,45,0,679.4,0,0,0,0,,,100,100,0,1,0,0,0,2,0,,,,,0,0,0
51.405597,-2.818365,15,15,0,222,15,15,20.92,228,214,55:22.3,55:22.3,21,0,0,11.81,51.405514,-2.819333,0,0,0,-3,2,-5,0,1,0,79,99,-7832,3000,11810,3123.5,16,P_GPS,1,0,0,0,0,0,0,1.5314E+12,3925,3911,3903,0,0,0,13,,,,,,,0,0,0,34,21,-57,-30,0,-55,6,45,0,679.38,0,0,0,0,,,100,100,0,1,0,0,0,2,0,,,,,0,0,0
51.405597,-2.818365,15,15,0,222,15,15,20.92,228,308,55:22.4,55:22.4,21,0,0,11.81,51.405514,-2.819333,0,0,0,-3,2,-5,0,1,0,79,99,-7832,3000,11810,3123.5,16,P_GPS,1,0,0,0,0,0,0,1.5314E+12,3925,3911,3903,0,0,0,13,,,,,,,0,0,0,34,22,-57,-30,0,-55,6,45,0,679.35,0,0,0,0,,,100,100,0,1,0,0,0,2,0,,,,,0,0,0
51.405597,-2.818365,15,15,0,222,15,15,20.92,228,399,55:22.5,55:22.5,21,0,0,11.81,51.405514,-2.819333,0,0,0,-3,2,-5,0,1,0,79,99,-7832,2994,11810,3123.5,16,P_GPS,1,0,0,0,0,0,0,1.5314E+12,3925,3911,3903,0,0,0,13,,,,,,,0,0,0,32,22,-57,-30,0,-55,6,45,0,679.32,0,0,0,0,,,100,100,0,1,0,0,0,2,0,,,,,0,0,0
51.405597,-2.818365,15,15,0,222,15,15,20.92,228,520,55:22.8,55:22.8,21,0,0,11.81,51.405514,-2.819333,0,0,0,-3,2,-5,0,1,0,79,99,-7832,2994,11810,3123.5,16,P_GPS,1,0,0,0,0,0,0,1.5314E+12,3925,3911,3903,0,0,0,13,,,,,,,0,0,0,32,22,-55,-30,0,-55,6,45,0,679.3,0,0,0,0,,,100,100,0,1,0,0,0,2,0,,,,,0,0,0
51.405597,-2.818365,15,15,0,222,15,15,20.92,228,596,55:22.8,55:22.8,21,0,0,11.81,51.405514,-2.819333,0,0,0,-3,2,-5,0,1,0,79,99,-7832,2994,11810,3123.5,16,P_GPS,1,0,0,0,0,0,0,1.5314E+12,3925,3911,3903,0,0,0,13,,,,,,,0,0,0,32,21,-57,-30,0,-55,6,45,0,679.29,0,0,0,0,,,100,100,0,1,0,0,0,2,0,,,,,0,0,0
51.405597,-2.818365,15,15,0,222,15,15,20.92,228,713,55:22.8,55:22.8,21,0,0,11.81,51.405514,-2.819333,0,0,0,-3,2,-5,0,1,0,79,99,-7832,2994,11810,3123.5,16,P_GPS,1,0,0,0,0,0,0,1.5314E+12,3925,3911,3903,0,0,0,13,,,,,,,0,0,0,32,21,-57,-30,0,-55,6,45,0,679.29,0,0,0,0,,,100,100,0,1,0,0,0,2,0,,,,,0,0,0
51.405597,-2.818365,15,15,0,222,15,15,20.92,228,796,55:22.9,55:22.9,21,0,0,11.81,51.405514,-2.819333,0,0,0,-3,2,-5,0,1,0,79,99,-7832,2994,11810,3123.5,16,P_GPS,1,0,0,0,0,0,0,1.5314E+12,3925,3911,3903,0,0,0,13,,,,,,,0,0,0,31,21,-57,-30,0,-55,6,45,0,679.29,0,0,0,0,,,100,100,0,1,0,0,0,2,0,,,,,0,0,0
51.405597,-2.818365,15,15,0,222,15,15,20.92,228,906,55:23.0,55:23.0,21,0,0,11.81,51.405514,-2.819333,0,0,0,-3,2,-5,0,1,0,79,99,-7832,2994,11810,3123.5,16,P_GPS,1,0,0,0,0,0,0,1.5314E+12,3925,3911,3903,0,0,0,13,,,,,,,0,0,0,30,22,-55,-30,0,-55,6,45,0,679.3,0,0,0,0,,,100,100,0,1,0,0,0,2,0,,,,,0,0,0
51.405597,-2.818365,15,15,0,222,15,15,20.92,228,996,55:23.1,55:23.1,21,0,0,11.81,51.405514,-2.819333,0,0,0,-3,2,-5,0,1,0,79,99,-7832,2994,11810,3123.5,16,P_GPS,1,0,0,0,0,0,0,1.5314E+12,3925,3911,3903,0,0,0,13,,,,,,,0,0,0,30,22,-55,-30,0,-55,6,45,0,679.31,0,0,0,0,,,100,100,0,1,0,0,0,2,0,,,,,0,0,0
51.405597,-2.818365,15,15,0,222,15,15,20.92,228,1087,55:23.2,55:23.2,21,0,0,11.81,51.405514,-2.819333,0,0,0,-3,2,-5,0,1,0,79,99,-7832,2994,11810,3123.5,16,P_GPS,1,1,0,0,0,0,0,1.5314E+12,3925,3911,3903,0,0,0,13,,,,,,,0,0,0,31,21,-55,-30,0,-55,6,45,0,679.3,0,0,0,0,,,100,100,0,1,0,0,0,2,0,,,,,0,0,0
51.405597,-2.818365,15,15,0,222,15,15,20.92,228,1187,55:23.3,55:23.3,21,0,0,11.81,51.405514,-2.819333,0,0,0,-3,2,-5,0,1,0,79,99,-7832,2994,11810,3123.5,16,P_GPS,1,1,0,0,0,0,0,1.5314E+12,3925,3911,3903,0,0,0,13,,,,,,,0,0,0,30,20,-55,-30,0,-55,6,45,0,679.29,0,0,0,0,,,100,100,0,1,0,0,0,2,0,,,,,0,0,0
51.405597,-2.818365,15,15,0,222,15,15,20.92,228,1296,55:23.4,55:23.4,21,0,0,11.81,51.405514,-2.819333,0,0,0,-3,2,-5,0,1,0,79,99,-7832,2994,11810,3123.5,16,P_GPS,1,1,0,0,0,0,0,1.5314E+12,3925,3911,3903,0,0,0,13,,,,,,,0,0,0,30,21,-55,-30,0,-55,6,45,0,679.28,0,0,0,0,,,100,100,0,1,0,0,0,2,0,,,,,0,0,0
51.405597,-2.818365,15,15,0,222,15,15,20.92,228,1397,55:23.5,55:23.5,21,0,0,11.941,51.405514,-2.819333,0,0,0,-3,2,-5,0,1,0,79,99,-7884,2994,11941,3123.5,16,P_GPS,1,1,0,0,0,0,0,1.5314E+12,3925,3911,3903,0,0,0,13,,,,,,,0,0,0,30,20,-55,-30,0,-55,6,45,0,679.28,0,0,0,0,,,100,100,0,1,0,0,0,2,0,,,,,0,0,0
51.405597,-2.818365,15,15,0,222,15,15,20.92,228,1512,55:23.6,55:23.6,21,0,0,11.941,51.405514,-2.819333,0,0,0,-3,2,-5,0,1,0,79,99,-7884,2994,11941,3123.5,16,P_GPS,1,1,0,0,0,0,0,1.5314E+12,3925,3911,3903,0,0,0,13,,,,,,,0,0,0,30,21,-55,-30,0,-55,6,45,0,679.27,0,0,0,0,,,100,100,0,1,0,0,0,2,0,,,,,0,0,0
51.405597,-2.818365,15,15,0,222,15,15,20.92,228,1626,55:23.8,55:23.8,21,0,0,11.941,51.405514,-2.819333,0,0,0,-3,2,-5,0,1,0,79,99,-7884,2994,11941,3123.5,16,P_GPS,1,1,0,0,0,0,0,1.5314E+12,3925,3911,3903,0,0,0,13,,,,,,,0,0,0,30,21,-55,-30,0,-55,6,45,0,679.26,0,0,0,0,,,100,100,0,1,0,0,0,2,0,,,,,0,0,0
51.405597,-2.818365,15,15,0,222,15,15,20.92,228,1698,55:23.8,55:23.8,21,0,0,11.941,51.405514,-2.819333,0,0,0,-3,2,-5,0,1,0,79,99,-7884,2994,11941,3123.5,16,P_GPS,1,1,0,0,0,0,0,1.5314E+12,3925,3911,3903,0,0,0,13,,,,,,,0,0,0,30,21,-55,-30,0,-55,6,45,0,679.25,0,0,0,0,,,100,100,0,1,0,0,0,2,0,,,,,0,0,0
51.405597,-2.818365,15,15,0,222,15,15,20.92,228,1793,55:23.9,55:23.9,21,0,0,11.941,51.405514,-2.819333,0,0,0,-3,2,-5,0,1,0,79,99,-7884,2994,11941,3123.5,16,P_GPS,1,1,0,0,0,0,0,1.5314E+12,3925,3911,3903,0,0,0,13,,,,,,,0,0,0,31,20,-55,-30,0,-55,6,45,0,679.25,0,0,0,0,,,100,100,0,1,0,0,0,2,0,,,,,0,0,0
51.405596,-2.818365,15,15,0,222,15,15,20.92,228,1898,55:24.0,55:24.0,21,0,0,11.941,51.405514,-2.819333,0,0,0,-3,2,-5,0,1,0,79,99,-7884,2994,11941,3123.5,16,P_GPS,1,1,0,0,0,0,0,1.5314E+12,3925,3911,3903,0,0,0,13,,,,,,,0,0,0,32,20,-55,-30,0,-55,6,45,0,679.25,0,0,0,0,,,100,100,0,1,0,0,0,2,0,,,,,0,0,0
51.405596,-2.818365,15,15,0,222,15,15,20.92,228,1995,55:24.1,55:24.1,21,0,0,11.941,51.405514,-2.819333,0,0,0,-3,2,-5,0,1,0,79,99,-7884,2994,11941,3123.5,16,P_GPS,1,1,0,0,0,0,0,1.5314E+12,3925,3911,3903,0,0,0,13,,,,,,,0,0,0,31,21,-55,-30,0,-55,6,45,0,679.25,0,0,0,0,,,100,100,0,1,0,0,0,2,0,,,,,0,0,0
51.405596,-2.818365,15,15,0,222,15,15,20.92,228,2089,55:24.2,55:24.2,21,0,0,11.941,51.405514,-2.819333,0,0,0,-3,2,-5,0,1,0,79,99,-7884,2994,11941,3123.5,16,P_GPS,1,1,0,0,0,0,0,1.5314E+12,3925,3911,3903,0,0,0,13,,,,,,,0,0,0,31,20,-55,-30,0,-55,6,45,0,679.24,0,0,0,0,,,100,100,0,1,0,0,0,2,0,,,,,0,0,0
51.405596,-2.818365,15,15,0,222,15,15,20.92,228,2192,55:24.3,55:24.3,21,0,0,11.941,51.405514,-2.819333,0,0,0,-3,2,-5,0,1,0,79,99,-7884,2994,11941,3123.5,16,P_GPS,1,1,0,0,0,0,0,1.5314E+12,3925,3911,3903,0,0,0,13,,,,,,,0,0,0,31,20,-55,-30,0,-55,6,45,0,679.25,0,0,0,0,,,100,100,0,1,0,0,0,2,0,,,,,0,0,0
51.405596,-2.818365,15,15,0,222,15,15,20.92,228,2300,55:24.4,55:24.4,21,0,0,11.941,51.405514,-2.819333,0,0,0,-3,2,-5,0,1,0,79,99,-7884,2994,11941,3123.5,16,P_GPS,1,1,0,0,0,0,0,1.5314E+12,3925,3911,3903,0,0,0,13,,,,,,,0,0,0,30,20,-55,-30,0,-55,6,45,0,679.24,0,0,0,0,,,100,100,0,1,0,0,0,2,0,,,,,0,0,0
51.405596,-2.818365,15,15,0,222,15,15,20.92,228,2395,55:24.5,55:24.5,21,0,0,11.941,51.405514,-2.819333,0,0,0,-3,1,-5,0,1,0,79,99,-7824,2989,11941,3123.5,16,P_GPS,1,1,0,0,0,0,0,1.5314E+12,3925,3911,3903,0,0,0,13,,,,,,,0,0,0,31,18,-55,-30,0,-55,6,45,0,679.25,0,0,0,0,,,100,100,0,1,0,0,0,2,0,,,,,0,0,0
51.405596,-2.818365,15,15,0,222,15,15,20.92,228,2553,55:24.6,55:24.6,21,0,0,11.941,51.405514,-2.819333,0,0,0,-3,1,-5,0,1,0,79,99,-7824,2989,11941,3123.5,16,P_GPS,1,1,0,0,0,0,0,1.5314E+12,3925,3911,3903,0,0,0,13,,,,,,,0,0,0,32,18,-55,-30,0,-55,6,45,0,679.24,0,0,0,0,,,100,100,0,1,0,0,0,2,0,,,,,0,0,0
51.405596,-2.818365,15,15,0,222,15,15,20.92,228,2656,55:24.7,55:24.7,21,0,0,11.941,51.405514,-2.819333,0,0,0,-3,1,-5,0,1,0,79,99,-7824,2989,11941,3123.5,16,P_GPS,1,1,0,0,0,0,0,1.5314E+12,3925,3911,3903,0,0,0,13,,,,,,,0,0,0,32,18,-55,-30,0,-55,6,45,0,679.24,0,0,0,0,,,100,100,0,1,0,0,0,2,0,,,,,0,0,0
51.405596,-2.818365,15,15,0,222,15,15,20.92,228,2751,55:24.9,55:24.9,21,0,0,11.941,51.405514,-2.819333,0,0,0,-3,1,-5,0,1,0,79,99,-7824,2989,11941,3123.5,16,P_GPS,1,1,0,0,0,0,0,1.5314E+12,3925,3911,3903,0,0,0,13,,,,,,,0,0,0,32,18,-55,-30,0,-55,6,45,0,679.26,0,0,0,0,,,100,100,0,1,0,0,0,2,0,,,,,0,0,0
51.405596,-2.818365,15,15,0,222,15,15,20.92,228,2795,55:24.9,55:24.9,21,0,0,11.941,51.405514,-2.819333,0,0,0,-3,1,-5,0,1,0,79,99,-7824,2989,11941,3123.5,16,P_GPS,1,1,0,0,0,0,0,1.5314E+12,3925,3911,3903,0,0,0,13,,,,,,,0,0,0,32,18,-55,-30,0,-55,6,45,0,679.27,0,0,0,0,,,100,100,0,1,0,0,0,2,0,,,,,0,0,0
51.405596,-2.818365,15,15,0,222,15,15,20.92,228,2899,55:25.0,55:25.0,21,0,0,11.941,51.405514,-2.819333,0,0,0,-3,2,-5,0,1,0,79,99,-7824,2989,11941,3123.5,16,P_GPS,1,1,0,0,0,0,0,1.5314E+12,3925,3911,3903,0,0,0,13,,,,,,,0,0,0,31,20,-55,-30,0,-55,6,45,0,679.27,0,0,0,0,,,100,100,0,1,0,0,0,2,0,,,,,0,0,0
51.405596,-2.818365,15,15,0,222,15,15,20.92,228,2993,55:25.1,55:25.1,21,0,0,11.941,51.405514,-2.819333,0,0,0,-3,2,-5,0,1,0,79,99,-7824,2989,11941,3123.5,16,P_GPS,1,1,0,0,0,0,0,1.5314E+12,3925,3911,3903,0,0,0,13,,,,,,,0,0,0,31,20,-55,-30,0,-55,6,45,0,679.27,0,0,0,0,,,100,100,0,1,0,0,0,2,0,,,,,0,0,0
51.405596,-2.818365,15,15,0,222,15,15,20.92,228,3106,55:25.2,55:25.2,21,0,0,11.941,51.405514,-2.819333,0,0,0,-3,2,-5,0,1,0,79,99,-7824,2989,11941,3123.5,16,P_GPS,1,1,0,0,0,0,0,1.5314E+12,3925,3911,3903,0,0,0,13,,,,,,,0,0,0,31,20,-55,-30,0,-55,6,45,0,679.27,0,0,0,0,,,100,100,0,1,0,0,0,2,0,,,,,0,0,0
51.405596,-2.818365,15,15,0,222,15,15,20.92,228,3194,55:25.3,55:25.3,21,0,0,11.941,51.405514,-2.819333,0,0,0,-3,1,-5,0,1,0,79,99,-7824,2989,11941,3123.5,16,P_GPS,1,1,0,0,0,0,0,1.5314E+12,3925,3911,3903,0,0,0,13,,,,,,,0,0,0,31,18,-55,-30,0,-55,6,45,0,679.26,0,0,0,0,,,100,100,0,1,0,0,0,2,0,,,,,0,0,0
51.405596,-2.818365,15,15,0,222,15,15,20.92,228,3306,55:25.5,55:25.5,21,0,0,11.941,51.405514,-2.819333,0,0,0,-3,1,-5,0,1,0,79,99,-7824,2989,11941,3123.5,16,P_GPS,1,1,0,0,0,0,0,1.5314E+12,3925,3911,3903,0,0,0,13,,,,,,,0,0,0,32,18,-55,-30,0,-55,6,45,0,679.28,0,0,0,0,,,100,100,0,1,0,0,0,2,0,,,,,0,0,0
51.405596,-2.818365,15,15,0,222,15,15,20.92,228,3392,55:25.5,55:25.5,21,0,0,11.745,51.405514,-2.819333,0,0,0,-3,2,-5,0,1,0,79,99,-7824,2989,11745,3123.5,16,P_GPS,1,1,0,0,0,0,0,1.5314E+12,3925,3911,3903,0,0,0,13,,,,,,,0,0,0,32,20,-55,-30,0,-55,6,45,0,679.29,0,0,0,0,,,100,100,0,1,0,0,0,2,0,,,,,0,0,0
51.405596,-2.818365,15,15,0,222,15,15,20.92,228,3491,55:25.6,55:25.6,21,0,0,11.745,51.405514,-2.819333,0,0,0,-3,2,-5,0,1,0,79,99,-7824,2989,11745,3123.5,16,P_GPS,1,1,0,0,0,0,0,1.5314E+12,3925,3911,3903,0,0,0,13,,,,,,,0,0,0,32,20,-55,-30,0,-55,6,45,0,679.3,0,0,0,0,,,100,100,0,1,0,0,0,2,0,,,,,0,0,0
51.405596,-2.818365,15,15,0,222,15,15,20.92,228,3593,55:25.7,55:25.7,21,0,0,11.745,51.405514,-2.819333,0,0,0,-3,1,-5,0,1,0,79,99,-7824,2989,11745,3123.5,16,P_GPS,1,1,0,0,0,0,0,1.5314E+12,3925,3911,3903,0,0,0,13,,,,,,,0,0,0,35,18,-57,-30,0,-55,6,45,0,679.31,0,0,0,0,,,100,100,0,1,0,0,0,2,0,,,,,0,0,0
51.405596,-2.818365,15,15,0,222,15,15,20.92,228,3695,55:26.0,55:26.0,21,0,0,11.745,51.405514,-2.819333,0,0,0,-3,1,-5,0,1,0,79,99,-7824,2989,11745,3123.5,16,P_GPS,1,1,0,0,0,0,0,1.5314E+12,3925,3911,3903,0,0,0,13,,,,,,,0,0,0,35,18,-55,-30,0,-55,6,45,0,679.31,0,0,0,0,,,100,100,0,1,0,0,0,2,0,,,,,0,0,0
51.405596,-2.818365,15,15,0,222,15,15,20.92,228,3828,55:26.0,55:26.0,21,0,0,11.745,51.405514,-2.819333,0,0,0,-3,2,-5,0,1,0,79,99,-7824,2989,11745,3123.5,16,P_GPS,1,1,0,0,0,0,0,1.5314E+12,3925,3911,3903,0,0,0,13,,,,,,,0,0,0,34,20,-55,-30,0,-55,6,45,0,679.3,0,0,0,0,,,100,100,0,1,0,0,0,2,0,,,,,0,0,0
51.405596,-2.818365,15,15,0,222,15,15,20.92,228,3906,55:26.0,55:26.0,21,0,0,11.745,51.405514,-2.819333,0,0,0,-3,2,-5,0,1,0,79,99,-7824,2989,11745,3123.5,16,P_GPS,1,1,0,0,0,0,0,1.5314E+12,3925,3911,3903,0,0,0,13,,,,,,,0,0,0,34,21,-55,-30,0,-55,6,45,0,679.3,0,0,0,0,,,100,100,0,1,0,0,0,2,0,,,,,0,0,0
51.405596,-2.818365,15,15,0,222,15,15,20.92,228,3999,55:26.1,55:26.1,21,0,0,11.745,51.405514,-2.819333,0,0,0,-3,1,-5,0,1,0,79,99,-7824,2989,11745,3123.5,16,P_GPS,1,1,0,0,0,0,0,1.5314E+12,3925,3911,3903,0,0,0,13,,,,,,,0,0,0,34,18,-55,-30,0,-55,6,45,0,679.3,0,0,0,0,,,100,100,0,1,0,0,0,2,0,,,,,0,0,0
51.405596,-2.818365,15,15,0,222,15,15,20.92,228,4097,55:26.2,55:26.2,21,0,0,11.745,51.405514,-2.819333,0,0,0,-3,1,-5,0,1,0,79,99,-7824,2989,11745,3123.5,16,P_GPS,1,1,0,0,0,0,0,1.5314E+12,3925,3911,3903,0,0,0,13,,,,,,,0,0,0,35,18,-55,-30,0,-55,6,45,0,679.31,0,0,0,0,,,100,100,0,1,0,0,0,2,0,,,,,0,0,0
51.405596,-2.818365,15,15,0,222,15,15,20.92,228,4202,55:26.3,55:26.3,21,0,0,11.745,51.405514,-2.819333,0,0,0,-3,2,-5,0,1,0,79,99,-7824,2989,11745,3123.5,16,P_GPS,1,1,0,0,0,0,0,1.5314E+12,3925,3911,3903,0,0,0,13,,,,,,,0,0,0,35,20,-57,-30,0,-55,6,45,0,679.33,0,0,0,0,,,100,100,0,1,0,0,0,2,0,,,,,0,0,0
51.405595,-2.818365,15,15,0,222,15,15,20.92,228,4286,55:26.4,55:26.4,21,0,0,11.745,51.405514,-2.819333,0,0,0,-3,1,-5,0,1,0,79,99,-7824,2989,11745,3123.5,16,P_GPS,1,1,0,0,0,0,0,1.5314E+12,3925,3911,3903,0,0,0,13,,,,,,,0,0,0,34,18,-57,-30,0,-55,6,45,0,679.34,0,0,0,0,,,100,100,0,1,0,0,0,2,0,,,,,0,0,0
51.405595,-2.818365,15,15,0,222,15,15,20.92,228,4396,55:26.5,55:26.5,21,0,0,11.615,51.405514,-2.819333,0,0,0,-3,1,-5,0,1,0,79,99,-7754,2983,11615,3122.5,16,P_GPS,1,1,0,0,0,0,0,1.5314E+12,3925,3911,3903,0,0,0,13,,,,,,,0,0,0,34,17,-57,-30,0,-55,6,45,0,679.35,0,0,0,0,,,100,100,0,1,0,0,0,2,0,,,,,0,0,0
51.405595,-2.818365,15,15,0,222,15,15,20.92,228,4507,55:26.6,55:26.6,21,0,0,11.615,51.405514,-2.819333,0,0,0,-3,1,-5,0,1,0,79,99,-7754,2983,11615,3122.5,16,P_GPS,1,1,0,0,0,0,0,1.5314E+12,3925,3911,3903,0,0,0,13,,,,,,,0,0,0,32,18,-57,-30,0,-55,6,45,0,679.38,0,0,0,0,,,100,100,0,1,0,0,0,2,0,,,,,0,0,0
51.405595,-2.818365,15,15,0,222,15,15,20.92,228,4590,55:26.7,55:26.7,21,0,0,11.615,51.405514,-2.819333,0,0,0,-3,1,-5,0,1,0,79,99,-7754,2983,11615,3122.5,16,P_GPS,1,1,0,0,0,0,0,1.5314E+12,3925,3911,3903,0,0,0,13,,,,,,,0,0,0,34,16,-57,-30,0,-55,6,45,0,679.4,0,0,0,0,,,100,100,0,1,0,0,0,2,0,,,,,0,0,0
51.405595,-2.818365,15,15,0,222,15,15,20.92,228,4700,55:26.8,55:26.8,21,0,0,11.615,51.405514,-2.819333,0,0,0,-3,1,-5,0,1,0,79,99,-7754,2983,11615,3122.5,16,P_GPS,1,1,23,0,0,0,0,1.5314E+12,3925,3911,3903,0,0,0,13,,,,,,,0,0,0,34,17,-57,-30,0,-55,6,45,0,679.41,0,0,0,0,,,100,100,0,1,0,0,0,2,0,,,,,0,0,0
51.405595,-2.818365,15,15,0,222,15,15,20.92,228,4810,55:27.0,55:27.0,21,0,0,11.615,51.405514,-2.819333,0,0,0,-3,1,-5,0,1,0,79,99,-7754,2983,11615,3122.5,16,P_GPS,1,1,53,0,0,0,0,1.5314E+12,3925,3911,3903,0,0,0,13,,,,,,,0,0,0,35,18,-57,-30,0,-55,6,45,0,679.41,0,0,0,0,,,100,100,0,1,0,0,0,2,0,,,,,0,0,0
51.405595,-2.818365,15,15,0,222,15,15,20.92,228,4897,55:27.1,55:27.1,21,0,0,11.615,51.405514,-2.819333,0,0,0,-3,1,-5,0,1,0,79,99,-7754,2983,11615,3122.5,16,P_GPS,1,1,70,0,0,0,0,1.5314E+12,3925,3911,3903,0,0,0,13,,,,,,,0,0,0,35,18,-57,-30,0,-55,6,45,0,679.41,0,0,0,0,,,100,100,0,1,0,0,0,2,0,,,,,0,0,0
51.405595,-2.818365,15,15,0,222,15,15,20.92,228,4994,55:27.1,55:27.1,21,0,0,11.615,51.405514,-2.819333,0,0,0,-3,1,-5,0,1,0,79,99,-7754,2983,11615,3122.5,16,P_GPS,1,1,70,0,0,0,0,1.5314E+12,3925,3911,3903,0,0,0,13,,,,,,,0,0,0,36,18,-57,-30,0,-55,6,45,0,679.41,0,0,0,0,,,100,100,0,1,0,0,0,2,0,,,,,0,0,0
51.405595,-2.818365,15,15,0,222,15,15,20.92,228,5100,55:27.2,55:27.2,21,0,0,11.615,51.405514,-2.819333,0,0,0,-3,1,-5,0,1,0,79,99,-7754,2983,11615,3122.5,16,P_GPS,1,1,115,0,0,0,0,1.5314E+12,3925,3911,3903,0,0,0,13,,,,,,,0,0,0,36,18,-57,-30,0,-55,6,45,0,679.43,0,0,0,0,,,100,100,0,1,0,0,0,2,0,,,,,0,0,0
51.405595,-2.818365,15,15,0,222,15,15,20.92,228,5194,55:27.3,55:27.3,21,0,0,11.615,51.405514,-2.819333,0,0,0,-3,1,-5,0,1,0,79,99,-7754,2983,11615,3122.5,16,P_GPS,1,1,115,0,0,0,0,1.5314E+12,3925,3911,3903,0,0,0,13,,,,,,,0,0,0,36,18,-55,-30,0,-55,6,45,0,679.45,0,0,0,0,,,100,100,0,1,0,0,0,2,0,,,,,0,0,0
51.405595,-2.818365,15,15,0,222,15,15,20.92,228,5296,55:27.4,55:27.4,21,0,0,11.615,51.405514,-2.819333,0,0,0,-3,1,-5,0,1,0,79,99,-7754,2983,11615,3122.5,16,P_GPS,1,1,135,0,0,0,0,1.5314E+12,3925,3911,3903,0,0,0,13,,,,,,,0,0,0,37,18,-55,-30,0,-55,6,45,0,679.49,0,0,0,0,,,100,100,0,1,0,0,0,2,0,,,,,0,0,0
51.405595,-2.818365,15,15,0,222,15,15,20.92,228,5396,55:27.5,55:27.5,21,0,0,11.68,51.405514,-2.819333,0,0,0,-4,1,-5,0,1,0,79,99,-7898,2983,11680,3122.5,16,P_GPS,1,1,155,0,0,0,0,1.5314E+12,3925,3911,3903,0,0,0,13,,,,,,,0,0,0,40,18,-55,-30,0,-55,6,45,0,679.52,0,0,0,0,,,100,100,0,1,0,0,0,2,0,,,,,0,0,0
51.405595,-2.818365,15,15,0,222,15,15,20.92,228,5494,55:27.6,55:27.6,21,0,0,11.68,51.405514,-2.819333,0,0,0,-4,1,-5,0,1,0,79,99,-7898,2983,11680,3122.5,16,P_GPS,1,1,155,0,0,0,0,1.5314E+12,3925,3911,3903,0,0,0,13,,,,,,,0,0,0,42,18,-55,-30,0,-55,6,45,0,679.54,0,0,0,0,,,100,100,0,1,0,0,0,2,0,,,,,0,0,0
51.405595,-2.818365,15,15,0,222,15,15,20.92,228,5606,55:27.7,55:27.7,21,0,0,11.68,51.405514,-2.819333,0,0,0,-4,1,-5,0,1,0,79,99,-7898,2983,11680,3122.5,16,P_GPS,1,1,177,0,0,0,0,1.5314E+12,3925,3911,3903,0,0,0,13,,,,,,,0,0,0,44,18,-55,-30,0,-55,6,45,0,679.56,0,0,0,0,,,100,100,0,1,0,0,0,2,0,,,,,0,0,0
51.405595,-2.818365,15,15,0,222,15,15,20.92,228,5695,55:27.8,55:27.8,21,0,0,11.68,51.405514,-2.819333,0,0,0,-4,1,-5,0,1,0,79,99,-7898,2983,11680,3122.5,16,P_GPS,1,1,177,0,0,0,0,1.5314E+12,3925,3911,3903,0,0,0,13,,,,,,,0,0,0,45,18,-55,-30,0,-55,6,45,0,679.59,0,0,0,0,,,100,100,0,1,0,0,0,2,0,,,,,0,0,0
51.405595,-2.818364,15,15,0,222,15,15,20.92,228,5798,55:28.1,55:28.1,21,0,0,11.68,51.405514,-2.819333,0,0,0,-4,1,-5,0,1,0,79,99,-7898,2983,11680,3122.5,16,P_GPS,1,1,203,0,0,0,0,1.5314E+12,3925,3911,3903,0,0,0,13,,,,,,,0,0,0,47,18,-55,-30,0,-55,6,45,0,679.62,0,0,0,0,,,100,100,0,1,0,0,0,2,0,,,,,0,0,0
51.405595,-2.818364,15,15,0.22,222,15,15,20.92,228,5939,55:28.1,55:28.1,21,0,0,11.68,51.405514,-2.819333,0.22,0,0,-5,1,-5,0,1,0,79,99,-7898,2983,11680,3122.5,16,P_GPS,1,1,206,0,0,0,0,1.5314E+12,3925,3911,3903,0,0,0,13,,,,,,,0,0,0,50,17,-57,-30,0,-55,6,45,1,679.67,1,0,0,0,,,100,100,0,1,0,0,0,2,0,,,,,0,0,0
51.405596,-2.818364,15,15,0.22,222,15,15,20.92,228,6000,55:28.1,55:28.1,21,0,0,11.68,51.405514,-2.819333,0.22,0,0,-5,1,-5,0,1,0,79,99,-7898,2983,11680,3122.5,16,P_GPS,1,1,210,0,0,0,0,1.5314E+12,3925,3911,3903,0,0,0,13,,,,,,,0,0,0,52,17,-57,-30,0,-55,6,45,1,679.71,1,0,0,0,,,100,100,0,1,0,0,0,2,0,,,,,0,0,0
51.405596,-2.818364,15,15,0.22,223,15,15,20.92,228,6099,55:28.2,55:28.2,21,0,0,11.68,51.405514,-2.819333,0.22,0,0,-5,1,-5,0,1,0,79,99,-7898,2983,11680,3122.5,16,P_GPS,1,1,213,0,0,0,0,1.5314E+12,3925,3911,3903,0,0,0,13,,,,,,,0,0,0,52,18,-57,-30,0,-55,6,45,1,679.74,1,0,0,0,,,100,100,0,1,0,0,0,2,0,,,,,0,0,0
51.405596,-2.818364,15,15,0.22,223,15,15,20.92,228,6198,55:28.3,55:28.3,21,0,0,11.68,51.405514,-2.819333,0.22,0,0,-5,1,-5,0,1,0,79,99,-7898,2983,11680,3122.5,16,P_GPS,1,1,210,0,0,0,0,1.5314E+12,3925,3911,3903,0,0,0,13,,,,,,,0,0,0,54,17,-57,-30,0,-55,6,45,1,679.76,1,0,0,0,,,100,100,0,1,0,0,0,2,0,,,,,0,0,0
51.405596,-2.818364,15,15,0.45,223,15,15,20.92,228,6296,55:28.4,55:28.4,21,0,0,11.68,51.405514,-2.819333,0.45,0,0,-5,1,-5,0,1,0,79,99,-7898,2983,11680,3122.5,16,P_GPS,1,1,207,0,0,0,0,1.5314E+12,3925,3911,3903,0,0,0,13,,,,,,,0,0,0,54,18,-57,-30,0,-55,6,45,2,679.8,2,0,0,0,,,100,100,0,1,0,0,0,2,0,,,,,0,0,0
51.405596,-2.818364,15,15,0.45,223,15,15,20.92,228,6395,55:28.5,55:28.5,21,0,0,11.68,51.405514,-2.819333,0.45,0,0,-5,1,-5,0,1,0,78,99,-7794,2981,11680,3122.5,16,P_GPS,1,1,204,0,0,0,0,1.5314E+12,3925,3911,3903,0,0,0,13,,,,,,,0,0,0,55,17,-57,-30,0,-55,6,45,2,679.84,2,0,0,0,,,100,100,0,1,0,0,0,2,0,,,,,0,0,0
51.405596,-2.818364,15,15,0.45,223,15,15,20.92,228,6520,55:28.6,55:28.6,21,0,0,11.68,51.405514,-2.819333,0.45,0,0,-5,1,-5,0,1,0,78,99,-7794,2981,11680,3122.5,16,P_GPS,1,1,203,0,0,0,0,1.5314E+12,3918,3905,3896,0,0,0,13,,,,,,,0,0,0,52,18,-57,-30,0,-55,6,45,2,679.87,2,0,0,0,,,100,100,0,1,0,0,0,2,0,,,,,0,0,0
51.405597,-2.818364,15,15,0.67,223,15,15,20.92,228,6599,55:28.7,55:28.7,21,0,0,11.68,51.405514,-2.819333,0.67,0,0,-5,1,-5,0,1,0,78,99,-7794,2981,11680,3122.5,16,P_GPS,1,1,203,0,0,0,0,1.5314E+12,3918,3905,3896,0,0,0,13,,,,,,,0,0,0,52,18,-55,-30,0,-55,6,45,3,679.9,3,0,0,0,,,100,100,0,1,0,0,0,2,0,,,,,0,0,0
51.405597,-2.818364,15,15,0.67,223,15,15,20.92,228,6701,55:28.8,55:28.8,21,0,0,11.68,51.405514,-2.819333,0.67,0,0,-5,2,-5,0,1,0,78,99,-7794,2981,11680,3122.5,16,P_GPS,1,1,196,0,0,0,0,1.5314E+12,3918,3905,3896,0,0,0,13,,,,,,,0,0,0,52,20,-57,-30,0,-55,6,45,3,679.94,3,0,0,0,,,100,100,0,1,0,0,0,2,0,,,,,0,0,0
51.405597,-2.818364,15,15,0.67,223,15,15,20.92,228,6802,55:28.9,55:28.9,21,0,0,11.68,51.405514,-2.819333,0.67,0,0,-5,1,-5,0,1,0,78,99,-7794,2981,11680,3122.5,16,P_GPS,1,1,195,0,0,0,0,1.5314E+12,3918,3905,3896,0,0,0,13,,,,,,,0,0,0,50,18,-55,-30,0,-55,6,45,3,679.98,3,0,0,0,,,100,100,0,1,0,0,0,2,0,,,,,0,0,0
51.405598,-2.818364,15,15,0.67,223,15,15,20.92,228,6932,55:29.2,55:29.2,21,0,0,11.68,51.405514,-2.819333,0.67,0,0,-5,1,-5,0,1,0,78,99,-7794,2981,11680,3122.5,16,P_GPS,1,1,189,0,0,0,0,1.5314E+12,3918,3905,3896,0,0,0,13,,,,,,,0,0,0,50,18,-57,-30,0,-55,6,45,3,680.03,3,0,0,0,,,100,100,0,1,0,0,0,2,0,,,,,0,0,0
51.405598,-2.818364,15,15,0.67,223,15,15,20.92,228,7019,55:29.2,55:29.2,21,0,0,11.68,51.405514,-2.819333,0.67,0,0,-5,1,-5,0,1,0,78,99,-7794,2981,11680,3122.5,16,P_GPS,1,1,189,0,0,0,0,1.5314E+12,3918,3905,3896,0,0,0,13,,,,,,,0,0,0,50,18,-55,-30,0,-55,6,45,3,680.08,3,0,0,0,,,100,100,0,1,0,0,0,2,0,,,,,0,0,0
51.405598,-2.818364,15,15,0.67,223,15,15,20.92,228,7102,55:29.2,55:29.2,21,0,0,11.68,51.405514,-2.819333,0.67,0,0,-5,1,-5,0,1,0,78,99,-7794,2981,11680,3122.5,16,P_GPS,1,1,189,0,0,0,0,1.5314E+12,3918,3905,3896,0,0,0,13,,,,,,,0,0,0,50,18,-57,-30,0,-55,6,45,3,680.15,3,0,0,0,,,100,100,0,1,0,0,0,2,0,,,,,0,0,0
51.405599,-2.818364,15,15,0.67,223,15,15,20.92,228,7217,55:29.3,55:29.3,21,0,0,11.68,51.405514,-2.819333,0.67,0,0,-4,1,-5,0,1,0,78,99,-7794,2981,11680,3122.5,16,P_GPS,1,1,187,0,0,0,0,1.5314E+12,3918,3905,3896,0,0,0,13,,,,,,,0,0,0,49,18,-57,-30,0,-55,6,45,3,680.23,3,0,0,0,,,100,100,0,1,0,0,0,2,0,,,,,0,0,0
51.405599,-2.818364,15,15,0.89,223,15,15,20.92,228,7313,55:29.4,55:29.4,21,0,0,11.68,51.405514,-2.819333,0.89,0,0,-4,1,-5,0,1,0,78,99,-7794,2981,11680,3122.5,16,P_GPS,1,1,189,0,0,0,0,1.5314E+12,3918,3905,3896,0,0,0,13,,,,,,,0,0,0,47,16,-55,-30,0,-55,6,45,4,680.3,4,0,0,0,,,100,100,0,1,0,0,0,2,0,,,,,0,0,0
51.405599,-2.818364,15,15,0.89,223,15,15,20.92,228,7407,55:29.5,55:29.5,21,0,0,11.854,51.405514,-2.819333,0.89,0,0,-4,1,-5,0,1,0,78,99,-7794,2981,11854,3122.5,16,P_GPS,1,1,184,0,0,0,0,1.5314E+12,3918,3905,3896,0,0,0,13,,,,,,,0,0,0,47,17,-57,-30,0,-55,6,45,4,680.37,4,0,0,0,,,100,100,0,1,0,0,0,2,0,,,,,0,0,0
51.4056,-2.818364,15,15,0.89,223,15,15,20.92,228,7525,55:29.7,55:29.7,21,0,0,11.854,51.405514,-2.819333,0.89,0,0,-4,1,-5,0,1,0,78,99,-7794,2981,11854,3122.5,16,P_GPS,1,1,180,0,0,0,0,1.5314E+12,3918,3905,3896,0,0,0,13,,,,,,,0,0,0,47,16,-57,-30,0,-55,6,45,4,680.43,4,0,0,0,,,100,100,0,1,0,0,0,2,0,,,,,0,0,0
51.4056,-2.818364,15,15,0.89,223,15,15,20.92,228,7600,55:29.7,55:29.7,21,0,0,11.854,51.405514,-2.819333,0.89,0,0,-4,1,-5,0,1,0,78,99,-7794,2981,11854,3122.5,16,P_GPS,1,1,186,0,0,0,0,1.5314E+12,3918,3905,3896,0,0,0,13,,,,,,,0,0,0,47,17,-55,-30,0,-55,6,45,4,680.49,4,0,0,0,,,100,100,0,1,0,0,0,2,0,,,,,0,0,0
51.405601,-2.818364,15,15,1.12,223,15,15,20.92,228,7700,55:29.8,55:29.8,21,0,0,11.854,51.405514,-2.819333,1.12,0,0,-4,1,-5,0,1,0,78,99,-7794,2981,11854,3122.5,16,P_GPS,1,1,186,0,0,0,0,1.5314E+12,3918,3905,3896,0,0,0,13,,,,,,,0,0,0,45,18,-57,-30,0,-55,6,45,5,680.55,5,0,0,0,,,100,100,0,1,0,0,0,2,0,,,,,0,0,0
51.405601,-2.818364,15,15,1.12,223,15,15,20.92,228,7802,55:29.9,55:29.9,21,0,0,11.854,51.405514,-2.819333,1.12,0,0,-4,1,-5,0,1,0,78,99,-7794,2981,11854,3122.5,16,P_GPS,1,1,206,0,0,0,0,1.5314E+12,3918,3905,3896,0,0,0,13,,,,,,,0,0,0,45,18,-57,-30,0,-55,6,45,5,680.61,5,0,0,0,,,100,100,0,1,0,0,0,2,0,,,,,0,0,0
51.405602,-2.818364,15,15,1.12,223,15,15,20.92,228,7911,55:30.0,55:30.0,21,0,0,11.854,51.405514,-2.819333,1.12,0,0,-4,1,-5,0,1,0,78,99,-7794,2981,11854,3122.5,16,P_GPS,1,1,216,0,0,0,0,1.5314E+12,3918,3905,3896,0,0,0,13,,,,,,,0,0,0,47,18,-57,-30,0,-55,6,45,5,680.67,5,0,0,0,,,100,100,0,1,0,0,0,2,0,,,,,0,0,0
51.405602,-2.818364,15,15,1.12,223,15,15,20.92,228,8014,55:30.3,55:30.3,21,0,0,11.854,51.405514,-2.819333,1.12,0,0,-4,1,-5,0,1,0,78,99,-7794,2981,11854,3122.5,16,P_GPS,1,1,224,0,0,0,0,1.5314E+12,3918,3905,3896,0,0,0,13,,,,,,,0,0,0,49,17,-57,-30,0,-55,6,45,5,680.73,5,0,0,0,,,100,100,0,1,0,0,0,2,0,,,,,0,0,0
51.405603,-2.818364,15,15,1.12,223,15,15,20.92,228,8170,55:30.3,55:30.3,21,0,0,11.854,51.405514,-2.819333,1.12,0,0,-5,1,-5,0,1,0,78,99,-7794,2981,11854,3122.5,16,P_GPS,1,1,224,0,0,0,0,1.5314E+12,3918,3905,3896,0,0,0,13,,,,,,,0,0,0,50,18,-57,-30,0,-55,6,45,5,680.78,5,0,0,0,,,100,100,0,1,0,0,0,2,0,,,,,0,0,0
51.405603,-2.818365,15,15,1.12,223,15,15,20.92,228,8221,55:30.3,55:30.3,21,0,0,11.854,51.405514,-2.819333,1.12,0,0,-5,1,-5,0,1,0,78,99,-7794,2981,11854,3122.5,16,P_GPS,1,1,224,0,0,0,0,1.5314E+12,3918,3905,3896,0,0,0,13,,,,,,,0,0,0,50,18,-57,-30,0,-55,6,45,5,680.84,5,0,0,0,,,100,100,0,1,0,0,0,2,0,,,,,0,0,0
51.405604,-2.818365,15,15,1.12,223,15,15,20.92,228,8301,55:30.4,55:30.4,21,0,0,11.854,51.405514,-2.819333,1.12,0,0,-5,1,-5,0,1,0,78,99,-7794,2981,11854,3122.5,16,P_GPS,1,1,228,0,0,0,0,1.5314E+12,3918,3905,3896,0,0,0,13,,,,,,,0,0,0,50,17,-57,-30,0,-55,6,45,5,680.91,5,0,0,0,,,100,100,0,1,0,0,0,2,0,,,,,0,0,0
51.405604,-2.818365,15,15,1.34,223,15,15,20.92,228,8417,55:30.5,55:30.5,21,0,0,11.571,51.405514,-2.819333,1.34,0,0,-5,1,-5,0,1,0,78,99,-7784,2979,11571,3122.5,16,P_GPS,1,1,228,0,0,0,0,1.5314E+12,3918,3905,3896,0,0,0,13,,,,,,,0,0,0,52,18,-57,-30,0,-55,6,45,6,680.98,6,0,0,0,,,100,100,0,1,0,0,0,2,0,,,,,0,0,0
51.405605,-2.818365,15,15,1.34,223,15,15,20.92,228,8532,55:30.6,55:30.6,21,0,0,11.571,51.405514,-2.819333,1.34,0,0,-5,1,-5,0,1,0,78,99,-7784,2979,11571,3122.5,16,P_GPS,1,1,249,0,0,0,0,1.5314E+12,3918,3905,3896,0,0,0,13,,,,,,,0,0,0,52,18,-57,-30,0,-55,6,45,6,681.07,6,0,0,0,,,100,100,0,1,0,0,0,2,0,,,,,0,0,0
51.405606,-2.818365,15,15,1.34,223,15,15,20.92,228,8597,55:30.8,55:30.8,21,0,0,11.571,51.405514,-2.819333,1.34,0,0,-5,1,-5,0,1,0,78,99,-7784,2979,11571,3122.5,16,P_GPS,1,1,256,0,0,0,0,1.5314E+12,3918,3905,3896,0,0,0,13,,,,,,,0,0,0,54,17,-57,-30,0,-55,6,45,6,681.15,6,0,0,0,,,100,100,0,1,0,0,0,2,0,,,,,0,0,0
51.405606,-2.818365,15,15,1.34,223,15,15,20.92,228,8699,55:30.8,55:30.8,21,0,0,11.571,51.405514,-2.819333,1.34,0,0,-5,1,-5,0,1,0,78,99,-7784,2979,11571,3122.5,16,P_GPS,1,1,257,0,0,0,0,1.5314E+12,3918,3905,3896,0,0,0,13,,,,,,,0,0,0,55,18,-57,-30,0,-55,6,45,6,681.22,6,0,0,0,,,100,100,0,1,0,0,0,2,0,,,,,0,0,0
51.405607,-2.818365,15,15,1.34,223,15,15,20.92,228,8793,55:30.9,55:30.9,21,0,0,11.571,51.405514,-2.819333,1.34,0,0,-5,1,-5,0,1,0,78,99,-7784,2979,11571,3122.5,16,P_GPS,1,1,257,0,0,0,0,1.5314E+12,3918,3905,3896,0,0,0,13,,,,,,,0,0,0,57,18,-57,-30,0,-55,6,45,6,681.3,6,0,0,0,,,100,100,0,1,0,0,0,2,0,,,,,0,0,0
51.405607,-2.818365,15,15,1.57,223,15,15,20.92,228,8896,55:31.0,55:31.0,21,0,0,11.571,51.405514,-2.819333,1.57,0,0,-5,1,-5,0,1,0,78,99,-7784,2979,11571,3122.5,16,P_GPS,1,1,288,0,0,0,0,1.5314E+12,3918,3905,3896,0,0,0,13,,,,,,,0,0,0,57,18,-57,-30,0,-55,6,45,7,681.37,6,0,0,0,,,100,100,0,1,0,0,0,2,0,,,,,0,0,0
51.405608,-2.818365,15,15,1.57,223,15,15,20.92,228,8999,55:31.3,55:31.3,21,0,0,11.571,51.405514,-2.819333,1.57,0,0,-6,1,-5,0,1,0,78,99,-7784,2979,11571,3122.5,16,P_GPS,1,1,293,0,0,0,0,1.5314E+12,3918,3905,3896,0,0,0,13,,,,,,,0,0,0,60,18,-57,-30,0,-55,6,45,7,681.45,6,0,0,0,,,100,100,0,1,0,0,0,2,0,,,,,0,0,0
51.405609,-2.818365,15,15,1.57,223,15,15,20.92,228,9126,55:31.3,55:31.3,21,0,0,11.571,51.405514,-2.819333,1.57,0,0,-6,1,-5,0,1,0,78,99,-7784,2979,11571,3122.5,16,P_GPS,1,1,293,0,0,0,0,1.5314E+12,3918,3905,3896,0,0,0,13,,,,,,,0,0,0,65,18,-57,-30,0,-55,6,45,7,681.51,6,0,0,0,,,100,100,0,1,0,0,0,2,0,,,,,0,0,0
51.40561,-2.818365,15,15,1.57,223,15,15,20.92,228,9223,55:31.3,55:31.3,21,0,0,11.571,51.405514,-2.819333,1.57,0,0,-6,1,-5,0,1,0,78,99,-7784,2979,11571,3122.5,16,P_GPS,1,1,293,0,0,0,0,1.5314E+12,3918,3905,3896,0,0,0,13,,,,,,,0,0,0,68,18,-57,-30,0,-55,6,45,7,681.58,6,0,0,0,,,100,100,0,1,0,0,0,2,0,,,,,0,0,0
51.40561,-2.818365,15,15,1.79,223,15,15,20.92,228,9354,55:31.4,55:31.4,21,0,0,11.571,51.405514,-2.819333,1.79,0,0,-6,1,-5,0,1,0,78,99,-7784,2979,11571,3122.5,16,P_GPS,1,1,293,0,0,0,0,1.5314E+12,3918,3905,3896,0,0,0,13,,,,,,,0,0,0,68,17,-57,-30,0,-55,6,45,8,681.65,8,0,0,0,,,100,100,0,1,0,0,0,2,0,,,,,0,0,0
51.405611,-2.818365,15,15,2.01,223,15,15,20.92,228,9408,55:31.5,55:31.5,21,0,0,11.615,51.405514,-2.819333,2.01,0,0,-6,1,-5,0,1,0,78,99,-7778,2975,11615,3122.5,16,P_GPS,1,1,293,0,0,0,0,1.5314E+12,3918,3905,3896,0,0,0,13,,,,,,,0,0,0,67,16,-57,-30,0,-55,6,45,9,681.74,8,0,0,0,,,100,100,0,1,0,0,0,2,0,,,,,0,0,0
51.405612,-2.818365,15,15,2.24,223,15,15,20.92,228,9511,55:31.6,55:31.6,21,0,0,11.615,51.405514,-2.819333,2.24,0,0,-6,1,-5,0,1,0,78,99,-7778,2975,11615,3122.5,16,P_GPS,1,1,293,0,0,0,0,1.5314E+12,3918,3905,3896,0,0,0,13,,,,,,,0,0,0,65,16,-57,-30,0,-55,6,45,10,681.83,10,0,0,0,,,100,100,0,1,0,0,0,2,0,,,,,0,0,0
51.405613,-2.818365,15,15,2.24,223,15,15,20.92,228,9598,55:31.7,55:31.7,21,0,0,11.615,51.405514,-2.819333,2.24,0,0,-6,1,-5,0,1,0,78,99,-7778,2975,11615,3122.5,16,P_GPS,1,1,293,0,0,0,0,1.5314E+12,3918,3905,3896,0,0,0,13,,,,,,,0,0,0,65,17,-57,-30,0,-55,6,45,10,681.92,10,0,0,0,,,100,100,0,1,0,0,0,2,0,,,,,0,0,0
51.405614,-2.818365,15,15,2.24,223,15,15,20.92,228,9702,55:31.8,55:31.8,21,0,0,11.615,51.405514,-2.819333,2.24,0,0,-6,1,-5,0,1,0,78,99,-7778,2975,11615,3122.5,16,P_GPS,1,1,307,0,0,0,0,1.5314E+12,3918,3905,3896,0,0,0,13,,,,,,,0,0,0,65,16,-57,-30,0,-55,6,45,10,682.01,10,0,0,0,,,100,100,0,1,0,0,0,2,0,,,,,0,0,0
51.405615,-2.818366,15,15,2.24,223,15,15,20.92,228,9801,55:31.9,55:31.9,21,0,0,11.615,51.405514,-2.819333,2.24,0,0,-5,1,-5,0,1,0,78,99,-7778,2975,11615,3122.5,16,P_GPS,1,1,315,0,0,0,0,1.5314E+12,3918,3905,3896,0,0,0,13,,,,,,,0,0,0,57,15,-57,-30,0,-55,6,45,10,682.1,10,0,0,0,,,100,100,0,1,0,0,0,2,0,,,,,0,0,0
51.405616,-2.818366,15,15,2.24,223,15,15,20.92,228,9908,55:32.0,55:32.0,21,0,0,11.615,51.405514,-2.819333,2.24,0,0,-5,1,-5,0,1,0,78,99,-7778,2975,11615,3122.5,16,P_GPS,1,1,315,0,0,0,0,1.5314E+12,3918,3905,3896,0,0,0,13,,,,,,,0,0,0,55,16,-57,-30,0,-55,6,45,10,682.22,10,0,0,0,,,100,100,0,1,0,0,0,2,0,,,,,0,0,0
51.405617,-2.818366,15,15,2.24,223,15,15,20.92,228,10003,55:32.1,55:32.1,21,0,0,11.615,51.405514,-2.819333,2.24,0,0,-5,1,-5,0,1,0,78,99,-7778,2975,11615,3122.5,16,P_GPS,1,1,316,0,0,0,0,1.5314E+12,3918,3905,3896,0,0,0,13,,,,,,,0,0,0,54,17,-57,-30,0,-55,6,45,10,682.33,10,0,0,0,,,100,100,0,1,0,0,0,2,0,,,,,0,0,0
51.405618,-2.818366,15,15,2.24,223,15,15,20.92,228,10109,55:32.4,55:32.4,21,0,0,11.615,51.405514,-2.819333,2.24,0,0,-5,1,-5,0,1,0,78,99,-7778,2975,11615,3122.5,16,P_GPS,1,1,315,0,0,0,0,1.5314E+12,3918,3905,3896,0,0,0,13,,,,,,,0,0,0,55,18,-57,-30,0,-55,6,45,10,682.45,10,0,0,0,,,100,100,0,1,0,0,0,2,0,,,,,0,0,0
51.405619,-2.818366,15,15,2.24,223,15,15,20.92,228,10199,55:32.4,55:32.4,21,0,0,11.615,51.405514,-2.819333,2.24,0,0,-5,1,-5,0,1,0,78,99,-7778,2975,11615,3122.5,16,P_GPS,1,1,315,0,0,0,0,1.5314E+12,3918,3905,3896,0,0,0,13,,,,,,,0,0,0,54,18,-57,-30,0,-55,6,45,10,682.57,10,0,0,0,,,100,100,0,1,0,0,0,2,0,,,,,0,0,0
51.40562,-2.818366,15,15,2.46,223,15,15,20.92,228,10300,55:32.4,55:32.4,21,0,0,11.615,51.405514,-2.819333,2.46,0,0,-5,1,-5,0,1,0,78,99,-7778,2975,11615,3122.5,16,P_GPS,1,1,315,0,0,0,0,1.5314E+12,3918,3905,3896,0,0,0,13,,,,,,,0,0,0,54,18,-57,-30,0,-55,6,45,11,682.7,11,0,0,0,,,100,100,0,1,0,0,0,2,0,,,,,0,0,0
51.405621,-2.818366,15,15,2.46,224,15,15,20.92,228,10443,55:32.5,55:32.5,21,0,0,11.549,51.405514,-2.819333,2.46,0,0,-5,1,-5,0,1,0,78,99,-7808,2975,11549,3122.5,16,P_GPS,1,1,315,0,0,0,0,1.5314E+12,3918,3905,3896,0,0,0,13,,,,,,,0,0,0,54,18,-57,-30,0,-55,6,45,11,682.83,11,0,0,0,,,100,100,0,1,0,0,0,2,0,,,,,0,0,0
51.405622,-2.818366,15,15,2.46,224,15,15,20.92,228,10503,55:32.6,55:32.6,21,0,0,11.549,51.405514,-2.819333,2.46,0,0,-5,1,-5,0,1,0,78,99,-7808,2975,11549,3122.5,16,P_GPS,1,1,314,0,0,0,0,1.5314E+12,3918,3905,3896,0,0,0,13,,,,,,,0,0,0,52,18,-57,-30,0,-55,6,45,11,682.96,11,0,0,0,,,100,100,0,1,0,0,0,2,0,,,,,0,0,0
51.405624,-2.818367,15,15,2.46,224,15,15,20.92,228,10589,55:32.7,55:32.7,21,0,0,11.549,51.405514,-2.819333,2.46,0,0,-5,1,-5,0,1,0,78,99,-7808,2975,11549,3122.5,16,P_GPS,1,1,314,0,0,0,0,1.5314E+12,3918,3905,3896,0,0,0,13,,,,,,,0,0,0,52,18,-57,-30,0,-55,6,45,11,683.08,11,0,0,0,,,100,100,0,1,0,0,0,2,0,,,,,0,0,0
51.405625,-2.818367,15,15,2.46,224,15,15,20.92,228,10725,55:32.8,55:32.8,21,0,0,11.549,51.405514,-2.819333,2.46,0,0,-5,1,-5,0,1,0,78,99,-7808,2975,11549,3122.5,16,P_GPS,1,1,314,0,0,0,0,1.5314E+12,3918,3905,3896,0,0,0,13,,,,,,,0,0,0,52,18,-57,-30,0,-55,6,45,11,683.22,11,0,0,0,,,100,100,0,1,0,0,0,2,0,,,,,0,0,0
51.405626,-2.818367,15,15,2.47,224,15,15,20.92,228,10907,55:32.9,55:32.9,21,0,0,11.549,51.405514,-2.819333,2.46,-0.22,0,-5,1,-5,0,1,0,78,99,-7808,2975,11549,3122.5,16,P_GPS,1,1,314,0,0,0,0,1.5314E+12,3918,3905,3896,0,0,0,13,,,,,,,0,0,0,52,17,-57,-30,0,-55,6,45,11.05,683.36,11,-1,0,0,,,100,100,0,1,0,0,0,2,0,,,,,0,0,0
51.405627,-2.818367,15,15,2.47,224,15,15,20.92,228,11011,55:33.0,55:33.0,21,0,0,11.549,51.405514,-2.819333,2.46,-0.22,0,-5,1,-5,0,1,0,78,99,-7808,2975,11549,3122.5,16,P_GPS,1,1,315,0,0,0,0,1.5314E+12,3918,3905,3896,0,0,0,13,,,,,,,0,0,0,52,18,-57,-30,0,-55,6,45,11.05,683.5,11,-1,0,0,,,100,100,0,1,0,0,0,2,0,,,,,0,0,0
51.405628,-2.818367,15,15,2.47,224,15,15,20.92,228,11102,55:33.1,55:33.1,21,0,0,11.549,51.405514,-2.819333,2.46,-0.22,0,-5,1,-5,0,1,0,78,99,-7808,2975,11549,3122.5,16,P_GPS,1,1,315,0,0,0,0,1.5314E+12,3918,3905,3896,0,0,0,13,,,,,,,0,0,0,52,18,-57,-30,0,-55,6,45,11.05,683.64,11,-1,0,0,,,100,100,0,1,0,0,0,2,0,,,,,0,0,0
51.405629,-2.818367,15,15,2.47,224,15,15,20.92,228,11197,55:33.2,55:33.2,21,0,0,11.549,51.405514,-2.819333,2.46,-0.22,0,-5,1,-5,0,1,0,78,99,-7808,2975,11549,3122.5,16,P_GPS,1,1,317,0,0,0,0,1.5314E+12,3918,3905,3896,0,0,0,13,,,,,,,0,0,0,50,17,-57,-30,0,-55,6,45,11.05,683.74,11,-1,0,0,,,100,100,0,1,0,0,0,2,0,,,,,0,0,0
51.405631,-2.818368,15,15,2.47,224,15,15,20.92,228,11301,55:33.4,55:33.4,21,0,0,11.549,51.405514,-2.819333,2.46,-0.22,0,-5,1,-5,0,1,0,78,99,-7808,2975,11549,3122.5,16,P_GPS,1,1,316,0,0,0,0,1.5314E+12,3918,3905,3896,0,0,0,13,,,,,,,0,0,0,50,17,-57,-30,0,-55,6,45,11.05,683.85,11,-1,0,0,,,100,100,0,1,0,0,0,2,0,,,,,0,0,0
51.405632,-2.818368,15,15,2.69,224,15,15,20.92,228,11402,55:33.4,55:33.4,21,0,0,11.549,51.405514,-2.819333,2.68,-0.22,0,-5,1,-5,0,1,0,78,99,-7808,2975,11549,3122.5,16,P_GPS,1,1,316,0,0,0,0,1.5314E+12,3918,3905,3896,0,0,0,13,,,,,,,0,0,0,50,18,-57,-30,0,-55,6,45,12.04,683.97,12,-1,0,0,,,100,100,0,1,0,0,0,2,0,,,,,0,0,0
51.405633,-2.818368,15,15,2.69,224,15,15,20.92,228,11498,55:33.5,55:33.5,21,0,0,11.832,51.405514,-2.819333,2.68,-0.22,0,-5,1,-5,0,1,0,78,99,-7744,2969,11832,3122.5,16,P_GPS,1,1,318,0,0,0,0,1.5314E+12,3918,3905,3896,0,0,0,13,,,,,,,0,0,0,50,18,-57,-30,0,-55,6,45,12.04,684.1,12,-1,0,0,,,100,100,0,1,0,0,0,2,0,,,,,0,0,0
51.405634,-2.818368,15,15,2.69,224,15,15,20.92,228,11602,55:33.7,55:33.7,21,0,0,11.832,51.405514,-2.819333,2.68,-0.22,0,-4,1,-5,0,1,0,78,99,-7744,2969,11832,3122.5,16,P_GPS,1,1,318,0,0,0,0,1.5314E+12,3918,3905,3896,0,0,0,13,,,,,,,0,0,0,49,18,-57,-30,0,-55,6,45,12.04,684.22,12,-1,0,0,,,100,100,0,1,0,0,0,2,0,,,,,0,0,0
51.405635,-2.818368,15,15,2.69,224,15,15,20.92,228,11696,55:33.7,55:33.7,21,0,0,11.832,51.405514,-2.819333,2.68,-0.22,0,-4,1,-5,0,1,0,78,99,-7744,2969,11832,3122.5,16,P_GPS,1,1,319,0,0,0,0,1.5314E+12,3918,3905,3896,0,0,0,13,,,,,,,0,0,0,49,18,-57,-30,0,-55,6,45,12.04,684.34,12,-1,0,0,,,100,100,0,1,0,0,0,2,0,,,,,0,0,0
51.405637,-2.818369,15,15,2.69,224,15,15,20.92,228,11797,55:33.8,55:33.8,21,0,0,11.832,51.405514,-2.819333,2.68,-0.22,0,-4,1,-5,0,1,0,78,99,-7744,2969,11832,3122.5,16,P_GPS,1,1,323,0,0,0,0,1.5314E+12,3918,3905,3896,0,0,0,13,,,,,,,0,0,0,49,18,-57,-30,0,-55,6,45,12.04,684.44,12,-1,0,0,,,100,100,0,1,0,0,0,2,0,,,,,0,0,0
51.405638,-2.818369,15,15,2.69,224,15,15,20.92,228,11899,55:33.9,55:33.9,21,0,0,11.832,51.405514,-2.819333,2.68,-0.22,0,-4,1,-5,0,1,0,78,99,-7744,2969,11832,3122.5,16,P_GPS,1,1,323,0,0,0,0,1.5314E+12,3918,3905,3896,0,0,0,13,,,,,,,0,0,0,47,18,-57,-30,0,-55,6,45,12.04,684.55,12,-1,0,0,,,100,100,0,1,0,0,0,2,0,,,,,0,0,0
51.405639,-2.818369,15,15,2.69,224,15,15,20.92,228,12020,55:34.0,55:34.0,21,0,0,11.832,51.405514,-2.819333,2.68,-0.22,0,-4,1,-5,0,1,0,78,99,-7744,2969,11832,3122.5,16,P_GPS,1,1,326,0,0,0,0,1.5314E+12,3918,3905,3896,0,0,0,13,,,,,,,0,0,0,45,18,-57,-30,0,-55,6,45,12.04,684.64,12,-1,0,0,,,100,100,0,1,0,0,0,2,0,,,,,0,0,0
51.40564,-2.818369,15,15,2.92,224,15,15,20.92,228,12124,55:34.1,55:34.1,21,0,0,11.832,51.405514,-2.819333,2.91,-0.22,0,-4,2,-5,0,1,0,78,99,-7744,2969,11832,3122.5,16,P_GPS,1,1,324,0,0,0,0,1.5314E+12,3918,3905,3896,0,0,0,13,,,,,,,0,0,0,47,20,-57,-30,0,-55,6,45,13.04,684.73,12,-1,0,0,,,100,100,0,1,0,0,0,2,0,,,,,0,0,0
51.405642,-2.81837,15,15,2.92,224,15,15,20.92,228,12204,55:34.2,55:34.2,21,0,0,11.832,51.405514,-2.819333,2.91,-0.22,0,-4,1,-5,0,1,0,78,99,-7744,2969,11832,3122.5,16,P_GPS,1,1,324,0,0,0,0,1.5314E+12,3918,3905,3896,0,0,0,13,,,,,,,0,0,0,47,18,-57,-30,0,-55,6,45,13.04,684.82,12,-1,0,0,,,100,100,0,1,0,0,0,2,0,,,,,0,0,0
51.405643,-2.81837,15,15,2.92,224,15,15,20.92,228,12302,55:34.5,55:34.5,21,0,0,11.832,51.405514,-2.819333,2.91,-0.22,0,-4,2,-5,0,1,0,78,99,-7744,2969,11832,3122.5,16,P_GPS,1,1,329,0,0,68,0,1.5314E+12,3918,3905,3896,0,0,0,13,,,,,,,0,0,0,47,21,-55,-30,0,-55,6,45,13.04,684.92,12,-1,0,0,,,100,100,0,1,0,0,0,2,0,,,,,0,0,0
51.405644,-2.81837,15,15,2.92,224,15,15,20.92,228,12400,55:34.5,55:34.5,21,0,0,11.832,51.405514,-2.819333,2.91,-0.22,0,-4,2,-5,0,1,0,78,99,-7744,2969,11832,3122.5,16,P_GPS,1,1,329,0,0,68,0,1.5314E+12,3918,3905,3896,0,0,0,13,,,,,,,0,0,0,47,22,-55,-30,0,-55,6,45,13.04,685.02,12,-1,0,0,,,100,100,0,1,0,0,0,2,0,,,,,0,0,0
51.405646,-2.818371,15,15,2.69,224,15,15,20.92,228,12534,55:34.5,55:34.5,21,0,0,11.832,51.405514,-2.819333,2.68,-0.22,0,-4,2,-5,0,1,0,78,99,-7744,2969,11832,3122.5,16,P_GPS,1,1,330,0,0,133,0,1.5314E+12,3918,3905,3896,0,0,0,13,,,,,,,0,0,0,47,22,-55,-30,0,-55,6,45,12.04,685.12,12,-1,0,0,,,100,100,0,1,0,0,0,2,0,,,,,0,0,0
51.405647,-2.818371,15,15,2.69,224,15,15,20.92,228,12599,55:34.6,55:34.6,21,0,0,11.832,51.405514,-2.819333,2.68,-0.22,0,-4,2,-5,0,1,0,78,99,-7744,2969,11832,3122.5,16,P_GPS,1,1,329,0,0,180,0,1.5314E+12,3918,3905,3896,0,0,0,13,,,,,,,0,0,0,47,21,-55,-30,0,-55,6,45,12.04,685.21,12,-1,0,0,,,100,100,0,1,0,0,0,2,0,,,,,0,0,0
51.405648,-2.818371,15,15,2.69,224,15,15,20.92,228,12691,55:34.8,55:34.8,21,0,0,11.832,51.405514,-2.819333,2.68,-0.22,0,-4,2,-5,0,1,0,78,99,-7744,2969,11832,3122.5,16,P_GPS,1,1,329,0,0,200,0,1.5314E+12,3918,3905,3896,0,0,0,13,,,,,,,0,0,0,47,21,-55,-30,0,-53,6,45,12.04,685.31,12,-1,0,0,,,100,100,0,1,0,0,0,2,0,,,,,0,0,0
51.405649,-2.818372,15,15,2.69,224,15,15,20.92,228,12810,55:34.8,55:34.8,21,0,0,11.832,51.405514,-2.819333,2.68,-0.22,0,-4,2,-5,0,1,0,78,99,-7744,2969,11832,3122.5,16,P_GPS,1,1,329,0,0,200,0,1.5314E+12,3918,3905,3896,0,0,0,13,,,,,,,0,0,0,49,20,-52,-30,0,-46,6,45,12.04,685.41,12,-1,0,0,,,100,100,0,1,0,0,0,2,0,,,,,0,0,0
51.405651,-2.818372,15,15,2.69,224,15,15,20.92,228,12905,55:34.9,55:34.9,21,0,0,11.832,51.405514,-2.819333,2.68,-0.22,0,-4,2,-4,0,1,0,78,99,-7744,2969,11832,3122.5,16,P_GPS,1,1,332,0,0,201,0,1.5314E+12,3918,3905,3896,0,0,0,13,,,,,,,0,0,0,49,21,-47,-30,0,-40,6,45,12.04,685.51,12,-1,0,0,,,100,100,0,1,0,0,0,2,0,,,,,0,0,0
51.405652,-2.818372,15,15,2.92,224,15,15,20.92,228,13024,55:35.0,55:35.0,21,0,0,11.832,51.405514,-2.819333,2.91,-0.22,0,-5,2,-4,0,1,0,78,99,-7744,2969,11832,3122.5,16,P_GPS,1,1,339,0,0,238,0,1.5314E+12,3918,3905,3896,0,0,0,13,,,,,,,0,0,0,50,22,-40,-30,0,-32,6,45,13.04,685.63,12,-1,0,0,,,100,100,0,1,0,0,0,2,0,,,,,0,0,0
51.405653,-2.818372,15,15,2.94,224,15,15,20.92,228,13113,55:35.1,55:35.1,21,0,0,11.832,51.405514,-2.819333,2.91,-0.45,0,-5,2,-3,0,1,0,78,99,-7744,2969,11832,3122.5,16,P_GPS,1,1,339,0,0,238,0,1.5314E+12,3918,3905,3896,0,0,0,13,,,,,,,0,0,0,50,22,-32,-30,0,-22,6,45,13.15,685.75,12,-2,0,0,,,100,100,0,1,0,0,0,2,0,,,,,0,0,0
51.405655,-2.818373,15,15,2.94,225,15,15,20.92,228,13196,55:35.2,55:35.2,21,0,0,11.832,51.405514,-2.819333,2.91,-0.45,0,-5,2,-2,0,1,0,78,99,-7744,2969,11832,3122.5,16,P_GPS,1,1,339,0,0,0,0,1.5314E+12,3918,3905,3896,0,0,0,13,,,,,,,0,0,0,50,21,-22,-30,0,-12,6,45,13.15,685.86,12,-2,0,0,,,100,100,0,1,0,0,0,2,0,,,,,0,0,0
51.405656,-2.818373,15,15,2.94,225,15,15,20.92,228,13295,55:35.3,55:35.3,21,0,0,11.832,51.405514,-2.819333,2.91,-0.45,0,-5,2,-1,0,1,0,78,99,-7744,2969,11832,3122.5,16,P_GPS,1,1,338,0,0,0,0,1.5314E+12,3918,3905,3896,0,0,0,13,,,,,,,0,0,0,50,22,-16,-30,0,-10,6,45,13.15,685.98,12,-2,0,0,,,100,100,0,1,0,0,0,2,0,,,,,0,0,0
51.405657,-2.818373,15,15,2.94,225,15,15,20.92,228,13395,55:35.5,55:35.5,21,0,0,11.723,51.405514,-2.819333,3.13,-0.45,0,-5,2,-1,0,1,0,78,99,-7638,2967,11723,3122.5,16,P_GPS,1,1,341,0,0,0,0,1.5314E+12,3918,3905,3896,0,0,0,13,,,,,,,0,0,0,52,21,-13,-30,0,-10,6,45,13.15,686.12,13,-2,0,0,,,100,100,0,1,0,0,0,2,0,,,,,0,0,0
51.405659,-2.818374,15,15,3.16,225,15,15,20.92,228,13523,55:35.5,55:35.5,21,0,0,11.723,51.405514,-2.819333,3.13,-0.45,0,-5,2,-1,0,1,0,78,99,-7638,2967,11723,3122.5,16,P_GPS,1,1,341,0,0,0,0,1.5314E+12,3918,3905,3896,0,0,0,13,,,,,,,0,0,0,50,22,-11,-30,0,-10,6,45,14.14,686.27,13,-2,0,0,,,100,100,0,1,0,0,0,2,0,,,,,0,0,0
51.40566,-2.818374,15,15,3.14,225,15,15,20.92,228,13610,55:35.6,55:35.6,21,0,0,11.723,51.405514,-2.819333,3.13,-0.22,0,-5,2,-1,0,1,0,78,99,-7638,2967,11723,3122.5,16,P_GPS,1,1,349,0,0,0,0,1.5314E+12,3918,3905,3896,0,0,0,13,,,,,,,0,0,0,52,22,-11,-30,0,-10,6,45,14.04,686.43,13,-1,0,0,,,100,100,0,1,0,0,0,2,0,,,,,0,0,0
51.405661,-2.818374,15,15,3.14,225,15,15,20.92,228,13724,55:35.7,55:35.7,21,0,0,11.723,51.405514,-2.819333,3.13,-0.22,0,-5,2,-1,0,1,0,78,99,-7638,2967,11723,3122.5,16,P_GPS,1,1,349,0,0,0,0,1.5314E+12,3918,3905,3896,0,0,0,13,,,,,,,0,0,0,52,22,-11,-30,0,-10,6,45,14.04,686.59,13,-1,0,0,,,100,100,0,1,0,0,0,2,0,,,,,0,0,0
51.405663,-2.818375,15,15,2.92,225,15,15,20.92,228,13793,55:35.8,55:35.8,21,0,0,11.723,51.405514,-2.819333,2.91,-0.22,0,-5,2,-1,0,1,0,78,99,-7638,2967,11723,3122.5,16,P_GPS,1,1,350,0,0,0,0,1.5314E+12,3918,3905,3896,0,0,0,13,,,,,,,0,0,0,52,22,-11,-30,0,-10,6,45,13.04,686.76,12,-1,0,0,,,100,100,0,1,0,0,0,2,0,,,,,0,0,0
51.405664,-2.818375,15,15,2.92,225,15,15,20.92,228,13896,55:35.9,55:35.9,21,0,0,11.723,51.405514,-2.819333,2.91,-0.22,0,-5,2,-1,0,1,0,78,99,-7638,2967,11723,3122.5,16,P_GPS,1,1,361,0,0,0,0,1.5314E+12,3918,3905,3896,0,0,0,13,,,,,,,0,0,0,52,22,-11,-30,0,-10,6,45,13.04,686.94,12,-1,0,0,,,100,100,0,1,0,0,0,2,0,,,,,0,0,0
51.405665,-2.818375,15,15,2.92,225,15,15,20.92,228,13997,55:36.0,55:36.0,21,0,0,11.723,51.405514,-2.819333,2.91,-0.22,0,-5,2,-1,0,1,0,78,99,-7638,2967,11723,3122.5,16,P_GPS,1,1,361,0,0,0,0,1.5314E+12,3918,3905,3896,0,0,0,13,,,,,,,0,0,0,55,22,-11,-30,0,-10,6,45,13.04,687.15,12,-1,0,0,,,100,100,0,1,0,0,0,2,0,,,,,0,0,0
51.405667,-2.818375,15,15,3.14,225,15,15,20.92,228,14095,55:36.1,55:36.1,21,0,0,11.723,51.405514,-2.819333,3.13,-0.22,0,-5,2,-1,0,1,0,78,99,-7638,2967,11723,3122.5,16,P_GPS,1,1,379,0,0,0,0,1.5314E+12,3918,3905,3896,0,0,0,13,,,,,,,0,0,0,55,22,-11,-30,0,-10,6,45,14.04,687.36,13,-1,0,0,,,100,100,0,1,0,0,0,2,0,,,,,0,0,0
51.405668,-2.818376,15,15,3.14,225,15,15,20.92,228,14192,55:36.2,55:36.2,21,0,0,11.723,51.405514,-2.819333,3.13,-0.22,0,-5,2,-1,0,1,0,78,99,-7638,2967,11723,3122.5,16,P_GPS,1,1,379,0,0,0,0,1.5314E+12,3918,3905,3896,0,0,0,13,,,,,,,0,0,0,57,22,-11,-30,0,-10,6,45,14.04,687.58,13,-1,0,0,,,100,100,0,1,0,0,0,2,0,,,,,0,0,0
51.405669,-2.818376,15,15,3.14,225,15,15,20.92,228,14295,55:36.3,55:36.3,21,0,0,11.723,51.405514,-2.819333,3.13,-0.22,0,-5,2,-1,0,1,0,78,99,-7638,2967,11723,3122.5,16,P_GPS,1,1,368,0,0,0,0,1.5314E+12,3918,3905,3896,0,0,0,13,,,,,,,0,0,0,57,21,-11,-30,0,-10,6,45,14.04,687.8,13,-1,0,0,,,100,100,0,1,0,0,0,2,0,,,,,0,0,0
51.405671,-2.818376,15,15,3.14,225,15,15,20.92,228,14394,55:36.4,55:36.4,21,0,0,11.723,51.405514,-2.819333,3.13,-0.22,0,-5,2,-1,0,1,0,78,99,-7638,2967,11723,3122.5,16,P_GPS,1,1,364,0,0,0,0,1.5314E+12,3918,3905,3896,0,0,0,13,,,,,,,0,0,0,57,22,-11,-30,0,-10,6,45,14.04,688.03,13,-1,0,0,,,100,100,0,1,0,0,0,2,0,,,,,0,0,0
51.405672,-2.818376,15,15,3.14,225,15,15,20.92,228,14504,55:36.6,55:36.6,21,0,0,11.81,51.405514,-2.819333,3.13,-0.22,0,-5,2,-1,0,1,0,78,99,-7638,2967,11810,3122.5,16,P_GPS,1,1,359,0,0,-127,0,1.5314E+12,3918,3905,3896,0,0,0,13,,,,,,,0,0,0,55,21,-11,-30,0,-10,6,45,14.04,688.28,13,-1,0,0,,,100,100,0,1,0,0,0,2,0,,,,,0,0,0
51.405674,-2.818376,15,15,3.14,225,15,15,20.92,228,14604,55:36.6,55:36.6,21,0,0,11.81,51.405514,-2.819333,3.13,-0.22,0,-5,2,-1,0,1,0,78,99,-7638,2967,11810,3122.5,16,P_GPS,1,1,359,0,0,-128,0,1.5314E+12,3918,3905,3896,0,0,0,13,,,,,,,0,0,0,55,21,-11,-30,0,-12,6,45,14.04,688.56,13,-1,0,0,,,100,100,0,1,0,0,0,2,0,,,,,0,0,0
51.405675,-2.818377,15,15,3.14,225,15,15,20.92,228,14694,55:36.7,55:36.7,21,0,0,11.81,51.405514,-2.819333,3.13,-0.22,0,-5,2,-1,0,1,0,78,99,-7638,2967,11810,3122.5,16,P_GPS,1,1,359,0,0,-128,0,1.5314E+12,3918,3905,3896,0,0,0,13,,,,,,,0,0,0,55,22,-13,-30,0,-15,6,45,14.04,688.85,13,-1,0,0,,,100,100,0,1,0,0,0,2,0,,,,,0,0,0
51.405677,-2.818377,15,15,2.92,226,15,15,20.92,228,14821,55:36.8,55:36.8,21,0,0,11.81,51.405514,-2.819333,2.91,-0.22,0,-5,2,-1,0,1,0,78,99,-7638,2967,11810,3122.5,16,P_GPS,1,1,359,0,0,-140,0,1.5314E+12,3918,3905,3896,0,0,0,13,,,,,,,0,0,0,55,21,-15,-30,0,-17,6,45,13.04,689.16,12,-1,0,0,,,100,100,0,1,0,0,0,2,0,,,,,0,0,0
51.405678,-2.818377,15,15,2.91,226,15,15,20.92,228,14895,55:37.0,55:37.0,21,0,0,11.81,51.405514,-2.819333,2.91,0,0,-5,2,-1,0,1,0,78,99,-7638,2967,11810,3122.5,16,P_GPS,1,1,360,0,0,-175,0,1.5314E+12,3918,3905,3896,0,0,0,13,,,,,,,0,0,0,55,21,-17,-30,0,-20,6,45,13,689.47,12,0,0,0,,,100,100,0,1,0,0,0,2,0,,,,,0,0,0
51.405679,-2.818377,15,15,2.91,226,15,15,20.92,228,14995,55:37.1,55:37.1,21,0,0,11.81,51.405514,-2.819333,2.91,0,0,-5,2,-2,0,1,0,78,99,-7638,2967,11810,3122.5,16,P_GPS,1,1,360,0,0,-175,0,1.5314E+12,3918,3905,3896,0,0,0,13,,,,,,,0,0,0,57,20,-20,-30,0,-25,6,45,13,689.8,12,0,0,0,,,100,100,0,1,0,0,0,2,0,,,,,0,0,0
51.405681,-2.818377,15,15,2.91,226,15,15,20.92,228,15098,55:37.1,55:37.1,21,0,0,11.81,51.405514,-2.819333,2.91,0,0,-5,2,-2,0,1,0,78,99,-7638,2967,11810,3122.5,16,P_GPS,1,1,360,0,0,-174,0,1.5314E+12,3918,3905,3896,0,0,0,13,,,,,,,0,0,0,57,20,-25,-30,0,-32,6,45,13,690.13,12,0,0,0,,,100,100,0,1,0,0,0,2,0,,,,,0,0,0
51.405682,-2.818377,15,15,2.68,226,15,15,20.92,228,15194,55:37.3,55:37.3,21,0,0,11.81,51.405514,-2.819333,2.68,0,0,-5,2,-3,0,1,0,78,99,-7638,2967,11810,3122.5,16,P_GPS,1,1,361,0,0,-128,0,1.5314E+12,3918,3905,3896,0,0,0,13,,,,,,,0,0,0,57,22,-31,-30,0,-37,6,45,12,690.48,12,0,0,0,,,100,100,0,1,0,0,0,2,0,,,,,0,0,0
51.405684,-2.818377,15,15,2.68,226,15,15,20.92,228,15296,55:37.3,55:37.3,21,0,0,11.81,51.405514,-2.819333,2.68,0,0,-5,2,-3,0,1,0,78,99,-7638,2967,11810,3122.5,16,P_GPS,1,1,361,0,0,-128,0,1.5314E+12,3918,3905,3896,0,0,0,13,,,,,,,0,0,0,59,22,-36,-30,0,-43,6,45,12,690.82,12,0,0,0,,,100,100,0,1,0,0,0,2,0,,,,,0,0,0
51.405685,-2.818378,15,15,2.68,226,15,15,20.92,228,15392,55:37.4,55:37.4,21,0,0,11.81,51.405514,-2.819333,2.68,0,0,-6,2,-4,0,1,0,78,99,-7638,2967,11810,3122.5,16,P_GPS,1,1,362,0,0,-118,0,1.5314E+12,3918,3905,3896,0,0,0,13,,,,,,,0,0,0,60,20,-40,-30,0,-45,6,45,12,691.18,12,0,0,0,,,100,100,0,1,0,0,0,2,0,,,,,0,0,0
51.405687,-2.818378,15,15,2.91,226,15,15,20.92,228,15500,55:37.6,55:37.6,21,0,0,11.68,51.405514,-2.819333,2.91,0,0,-6,2,-4,0,1,0,78,99,-7662,2964,11680,3122.5,16,P_GPS,1,1,362,0,0,-106,0,1.5314E+12,3918,3905,3896,0,0,0,13,,,,,,,0,0,0,62,21,-45,-30,0,-49,6,45,13,691.53,12,0,0,0,,,100,100,0,1,0,0,0,2,0,,,,,0,0,0
51.405688,-2.818378,15,15,2.91,226,15,15,20.92,228,15599,55:37.6,55:37.6,21,0,0,11.68,51.405514,-2.819333,2.91,0,0,-6,2,-4,0,1,0,78,99,-7662,2964,11680,3122.5,16,P_GPS,1,1,362,0,0,-106,0,1.5314E+12,3918,3905,3896,0,0,0,13,,,,,,,0,0,0,62,21,-47,-30,0,-50,6,45,13,691.88,12,0,0,0,,,100,100,0,1,0,0,0,2,0,,,,,0,0,0
51.40569,-2.818378,15,15,2.91,227,15,15,20.92,228,15694,55:37.7,55:37.7,21,0,0,11.68,51.405514,-2.819333,2.91,0,0,-6,2,-5,0,1,0,78,99,-7662,2964,11680,3122.5,16,P_GPS,1,1,362,0,0,-26,0,1.5314E+12,3918,3905,3896,0,0,0,13,,,,,,,0,0,0,60,20,-50,-30,0,-51,6,45,13,692.23,12,0,0,0,,,100,100,0,1,0,0,0,2,0,,,,,0,0,0
51.405691,-2.818378,15,15,2.92,227,15,15,20.92,228,15802,55:37.8,55:37.8,21,0,0,11.68,51.405514,-2.819333,2.91,-0.22,0,-5,2,-5,0,1,0,78,99,-7662,2964,11680,3122.5,16,P_GPS,1,1,362,0,0,-26,0,1.5314E+12,3918,3905,3896,0,0,0,13,,,,,,,0,0,0,59,21,-52,-30,0,-54,6,45,13.04,692.57,12,-1,0,0,,,100,100,0,1,0,0,0,2,0,,,,,0,0,0
51.405693,-2.818379,15,15,3.14,227,15,15,20.92,228,15912,55:37.9,55:37.9,21,0,0,11.68,51.405514,-2.819333,3.13,-0.22,0,-5,2,-5,0,1,0,78,99,-7662,2964,11680,3122.5,16,P_GPS,1,1,359,0,0,0,0,1.5314E+12,3918,3905,3896,0,0,0,13,,,,,,,0,0,0,57,22,-54,-30,0,-55,6,45,14.04,692.91,13,-1,0,0,,,100,100,0,1,0,0,0,2,0,,,,,0,0,0
51.405694,-2.818379,15,15,3.14,227,15,15,20.92,228,15990,55:38.0,55:38.0,21,0,0,11.68,51.405514,-2.819333,3.13,-0.22,0,-5,2,-5,0,1,0,78,99,-7662,2964,11680,3122.5,16,P_GPS,1,1,360,0,0,0,0,1.5314E+12,3918,3905,3896,0,0,0,13,,,,,,,0,0,0,57,21,-52,-30,0,-55,6,45,14.04,693.28,13,-1,0,0,,,100,100,0,1,0,0,0,2,0,,,,,0,0,0
51.405696,-2.818379,15,15,3.36,227,15,15,20.92,228,16098,55:38.1,55:38.1,21,0,0,11.68,51.405514,-2.819333,3.36,-0.22,0,-5,2,-5,0,1,0,78,99,-7662,2964,11680,3122.5,16,P_GPS,1,1,359,0,0,0,0,1.5314E+12,3918,3905,3896,0,0,0,13,,,,,,,0,0,0,57,20,-52,-30,0,-55,6,45,15.03,693.66,15,-1,0,0,,,100,100,0,1,0,0,0,2,0,,,,,0,0,0
51.405698,-2.818379,15,15,3.59,227,15,15,20.92,228,16193,55:38.2,55:38.2,21,0,0,11.68,51.405514,-2.819333,3.58,-0.22,0,-5,2,-5,0,1,0,78,99,-7662,2964,11680,3122.5,16,P_GPS,1,1,359,0,0,0,0,1.5314E+12,3918,3905,3896,0,0,0,13,,,,,,,0,0,0,55,22,-52,-30,0,-55,6,45,16.03,694.01,16,-1,0,0,,,100,100,0,1,0,0,0,2,0,,,,,0,0,0
51.405699,-2.818379,15,15,3.36,227,15,15,20.92,228,16308,55:38.3,55:38.3,21,0,0,11.68,51.405514,-2.819333,3.36,-0.22,0,-5,2,-5,0,1,0,78,99,-7662,2964,11680,3122.5,16,P_GPS,1,1,365,0,0,0,0,1.5314E+12,3918,3905,3896,0,0,0,13,,,,,,,0,0,0,59,21,-52,-30,0,-55,6,45,15.03,694.37,15,-1,0,0,,,100,100,0,1,0,0,0,2,0,,,,,0,0,0
51.405701,-2.81838,15,15,3.59,227,15,15,20.92,228,16392,55:38.4,55:38.4,21,0,0,11.68,51.405514,-2.819333,3.58,-0.22,0,-5,2,-5,0,1,0,78,99,-7662,2964,11680,3122.5,16,P_GPS,1,1,383,0,0,0,0,1.5314E+12,3918,3905,3896,0,0,0,13,,,,,,,0,0,0,59,23,-54,-30,0,-55,6,45,16.03,694.72,16,-1,0,0,,,100,100,0,1,0,0,0,2,0,,,,,0,0,0
51.405702,-2.81838,15,15,3.59,228,15,15,20.92,228,16508,55:38.5,55:38.5,21,0,0,11.68,51.405514,-2.819333,3.58,-0.22,0,-6,2,-5,0,1,0,78,99,-7620,2958,11680,3122.5,16,P_GPS,1,1,453,0,0,0,0,1.5314E+12,3918,3905,3896,0,0,0,13,,,,,,,0,0,0,65,20,-54,-30,0,-55,6,45,16.03,695.08,16,-1,0,0,,,100,100,0,1,0,0,0,2,0,,,,,0,0,0
51.405704,-2.81838,15,15,3.59,228,15,15,20.92,228,16598,55:38.8,55:38.8,21,0,0,11.68,51.405514,-2.819333,3.58,-0.22,0,-7,2,-5,0,1,0,78,99,-7620,2958,11680,3122.5,16,P_GPS,1,1,484,0,0,0,0,1.5314E+12,3916,3904,3896,0,0,0,13,,,,,,,0,0,0,75,22,-55,-30,0,-55,6,45,16.03,695.45,16,-1,0,0,,,100,100,0,1,0,0,0,2,0,,,,,0,0,0
51.405705,-2.81838,15,15,3.59,228,15,15,20.92,228,16743,55:38.8,55:38.8,21,0,0,11.68,51.405514,-2.819333,3.58,-0.22,0,-8,2,-5,0,1,0,78,99,-7620,2958,11680,3122.5,16,P_GPS,1,1,484,0,0,0,0,1.5314E+12,3916,3904,3896,0,0,0,13,,,,,,,0,0,0,80,22,-55,-30,0,-55,6,45,16.03,695.83,16,-1,0,0,,,100,100,0,1,0,0,0,2,0,,,,,0,0,0
51.405707,-2.818381,15,15,3.81,228,15,15,20.92,228,16812,55:38.8,55:38.8,21,0,0,11.68,51.405514,-2.819333,3.8,-0.22,0,-8,2,-5,0,1,0,78,99,-7620,2958,11680,3122.5,16,P_GPS,1,1,484,0,0,0,0,1.5314E+12,3916,3904,3896,0,0,0,13,,,,,,,0,0,0,86,23,-55,-30,0,-55,6,45,17.03,696.24,17,-1,0,0,,,100,100,0,1,0,0,0,2,0,,,,,0,0,0
51.405709,-2.818381,15,15,3.81,228,15,15,20.92,228,16895,55:38.9,55:38.9,21,0,0,11.68,51.405514,-2.819333,3.8,-0.22,0,-9,2,-5,0,1,0,78,99,-7620,2958,11680,3122.5,16,P_GPS,1,1,531,35,0,0,0,1.5314E+12,3916,3904,3896,0,0,0,13,,,,,,,0,0,0,95,22,-55,-30,0,-55,6,45,17.03,696.66,17,-1,0,0,,,100,100,0,1,0,0,0,2,0,,,,,0,0,0
51.405711,-2.818381,15,15,4.03,228,15,15,20.92,228,17006,55:39.0,55:39.0,21,0,0,11.68,51.405514,-2.819333,4.03,-0.22,0,-10,2,-5,0,1,0,78,99,-7620,2958,11680,3122.5,16,P_GPS,1,1,533,36,0,0,0,1.5314E+12,3916,3904,3896,0,0,0,13,,,,,,,0,0,0,104,25,-55,-30,0,-55,6,45,18.03,697.08,17,-1,0,0,,,100,100,0,1,0,0,0,2,0,,,,,0,0,0
51.405713,-2.818382,15,15,4.27,228,15,15,20.92,228,17098,55:39.1,55:39.1,21,0,0,11.68,51.405514,-2.819333,4.25,-0.45,0,-10,2,-5,0,1,0,78,99,-7620,2958,11680,3122.5,16,P_GPS,1,1,547,36,0,0,0,1.5314E+12,3916,3904,3896,0,0,0,13,,,,,,,0,0,0,109,26,-57,-30,0,-55,6,45,19.1,697.53,18,-2,0,0,,,100,100,0,1,0,0,0,2,0,,,,,0,0,0
51.405715,-2.818382,15,15,4.5,229,15,15,20.92,229,17195,55:39.2,55:39.2,21,0,0,11.68,51.405514,-2.819333,4.47,-0.45,0,-11,2,-5,0,1,0,78,99,-7620,2958,11680,3122.5,16,P_GPS,1,1,564,37,0,0,0,1.5314E+12,3916,3904,3896,0,0,0,13,,,,,,,0,0,0,115,26,-57,-30,0,-55,6,45,20.1,698.01,20,-2,0,0,,,100,100,0,1,0,0,0,2,0,,,,,0,0,0
51.405717,-2.818382,15,15,4.72,229,15,15,20.92,229,17299,55:39.3,55:39.3,21,0,0,11.68,51.405514,-2.819333,4.7,-0.45,0,-12,2,-5,0,1,0,78,99,-7620,2958,11680,3122.5,16,P_GPS,1,1,578,66,0,0,0,1.5314E+12,3916,3904,3896,0,0,0,13,,,,,,,0,0,0,125,22,-57,-30,0,-55,6,45,21.1,698.52,20,-2,0,0,,,100,100,0,1,0,0,0,2,0,,,,,0,0,0
51.405719,-2.818383,15,15,4.94,229,15,15,20.92,229,17394,55:39.4,55:39.4,21,0,0,11.68,51.405514,-2.819333,4.92,-0.45,0,-12,2,-5,0,1,0,78,99,-7620,2958,11680,3122.5,16,P_GPS,1,1,578,66,0,0,0,1.5314E+12,3916,3904,3896,0,0,0,13,,,,,,,0,0,0,128,23,-57,-30,0,-55,6,45,22.09,699.07,22,-2,0,0,,,100,100,0,1,0,0,0,2,0,,,,,0,0,0
51.405721,-2.818383,15,15,5.16,229,15,15,20.92,229,17497,55:39.5,55:39.5,21,0,0,11.876,51.405514,-2.819333,5.14,-0.45,0,-13,2,-5,0,1,0,78,99,-7466,2956,11876,3122.5,16,P_GPS,1,1,579,70,0,0,0,1.5314E+12,3916,3904,3896,0,0,0,13,,,,,,,0,0,0,136,23,-57,-30,0,-55,6,45,23.09,699.67,22,-2,0,0,,,100,100,0,1,0,0,0,2,0,,,,,0,0,0
51.405723,-2.818383,15,15,5.39,229,15,15,20.92,229,17602,55:39.6,55:39.6,21,0,0,11.876,51.405514,-2.819333,5.37,-0.45,0,-14,2,-5,0,1,0,78,99,-7466,2956,11876,3122.5,16,P_GPS,1,1,585,79,0,0,0,1.5314E+12,3916,3904,3896,0,0,0,13,,,,,,,0,0,0,141,23,-59,-30,0,-55,6,45,24.08,700.32,24,-2,0,0,,,100,100,0,1,0,0,0,2,0,,,,,0,0,0
51.405726,-2.818384,15,15,5.61,229,15,15,20.92,229,17696,55:39.8,55:39.8,21,0,0,11.876,51.405514,-2.819333,6.04,-0.45,0,-14,2,-5,0,1,0,78,99,-7466,2956,11876,3122.5,16,P_GPS,1,1,593,127,0,0,0,1.5314E+12,3916,3904,3896,0,0,0,13,,,,,,,0,0,0,146,21,-59,-30,0,-55,6,45,25.08,701.01,27,-2,0,0,,,100,100,0,1,0,0,0,2,0,,,,,0,0,0
51.405728,-2.818384,15,15,6.06,230,15,15,20.92,230,17793,55:39.8,55:39.8,21,0,0,11.876,51.405514,-2.819333,6.04,-0.45,0,-14,2,-5,0,1,0,78,99,-7466,2956,11876,3122.5,16,P_GPS,1,1,593,127,0,0,0,1.5314E+12,3916,3904,3896,0,0,0,13,,,,,,,0,0,0,149,22,-59,-30,0,-55,6,45,27.07,701.78,27,-2,0,0,,,100,100,0,1,0,0,0,2,0,,,,,0,0,0
51.405731,-2.818384,15,15,6.28,230,15,15,20.92,230,17900,55:39.9,55:39.9,21,0,0,11.876,51.405514,-2.819333,6.26,-0.45,0,-15,2,-5,0,1,0,78,99,-7466,2956,11876,3122.5,16,P_GPS,1,1,595,131,0,0,0,1.5314E+12,3916,3904,3896,0,0,0,13,,,,,,,0,0,0,151,25,-59,-30,0,-55,6,45,28.07,702.58,27,-2,0,0,,,100,100,0,1,0,0,0,2,0,,,,,0,0,0
51.405734,-2.818385,15,15,6.5,230,15,15,20.92,230,18019,55:40.0,55:40.0,21,0,0,11.876,51.405514,-2.819333,6.49,-0.45,0,-15,2,-6,0,1,0,78,99,-7466,2956,11876,3122.5,16,P_GPS,1,1,595,131,0,0,0,1.5314E+12,3916,3904,3896,0,0,0,13,,,,,,,0,0,0,151,27,-60,-30,0,-55,6,45,29.07,703.46,29,-2,0,0,,,100,100,0,1,0,0,0,2,0,,,,,0,0,0
51.405737,-2.818385,15,15,6.95,231,15,15,20.92,231,18100,55:40.1,55:40.1,21,0,0,11.876,51.405514,-2.819333,6.93,-0.45,0,-15,2,-6,0,1,0,78,99,-7466,2956,11876,3122.5,16,P_GPS,1,1,596,131,0,0,0,1.5314E+12,3916,3904,3896,0,0,0,13,,,,,,,0,0,0,156,27,-60,-30,0,-55,6,45,31.06,704.39,30,-2,0,0,,,100,100,0,1,0,0,0,2,0,,,,,0,0,0
51.40574,-2.818385,15,15,7.17,231,15,15,20.92,231,18191,55:40.2,55:40.2,21,0,0,11.876,51.405514,-2.819333,7.16,-0.45,0,-15,2,-5,0,1,0,78,99,-7466,2956,11876,3122.5,16,P_GPS,1,1,595,136,0,0,0,1.5314E+12,3916,3904,3896,0,0,0,13,,,,,,,0,0,0,153,27,-59,-30,0,-55,6,45,32.06,705.41,32,-2,0,0,,,100,100,0,1,0,0,0,2,0,,,,,0,0,0
51.405744,-2.818386,15,15,7.62,231,15,15,20.92,231,18293,55:40.3,55:40.3,21,0,0,11.876,51.405514,-2.819333,7.61,-0.45,0,-15,2,-6,0,1,0,78,99,-7466,2956,11876,3122.5,16,P_GPS,1,1,605,157,0,0,0,1.5314E+12,3916,3904,3896,0,0,0,13,,,,,,,0,0,0,156,27,-60,-30,0,-55,6,45,34.06,706.47,34,-2,0,0,,,100,100,0,1,0,0,0,2,0,,,,,0,0,0
51.405747,-2.818386,15,15,7.84,232,15,15,20.92,232,18401,55:40.4,55:40.4,21,0,0,11.876,51.405514,-2.819333,7.83,-0.45,0,-15,2,-6,0,1,0,78,99,-7466,2956,11876,3122.5,16,P_GPS,1,1,626,206,0,0,0,1.5314E+12,3916,3904,3896,0,0,0,13,,,,,,,0,0,0,156,28,-60,-30,0,-55,6,45,35.06,707.62,35,-2,0,0,,,100,100,0,1,0,0,0,2,0,,,,,0,0,0
51.40575,-2.818387,15,15,8.29,232,15,15,20.92,232,18505,55:40.5,55:40.5,21,0,0,11.745,51.405514,-2.819333,8.28,-0.45,0,-15,3,-6,0,1,0,78,99,-7466,2956,11745,3122.5,16,P_GPS,1,1,625,206,0,0,0,1.5314E+12,3916,3904,3896,0,0,0,13,,,,,,,0,0,0,155,31,-60,-30,0,-55,6,45,37.05,708.82,37,-2,0,0,,,100,100,0,1,0,0,0,2,0,,,,,0,0,0
51.405754,-2.818387,15,15,8.51,232,15,15,20.92,232,18598,55:40.6,55:40.6,21,0,0,11.745,51.405514,-2.819333,8.5,-0.45,0,-15,3,-6,0,1,0,78,99,-7466,2956,11745,3122.5,16,P_GPS,1,1,625,202,0,0,0,1.5314E+12,3916,3904,3896,0,0,0,13,,,,,,,0,0,0,153,31,-60,-30,0,-55,6,45,38.05,710.12,37,-2,0,0,,,100,100,0,1,0,0,0,2,0,,,,,0,0,0
51.405758,-2.818387,15,15,8.74,233,15,15,20.92,233,18705,55:40.8,55:40.8,21,0,0,11.745,51.405514,-2.819333,9.17,-0.45,0,-15,3,-6,0,1,0,78,99,-7466,2956,11745,3122.5,16,P_GPS,1,1,614,174,0,0,0,1.5314E+12,3916,3904,3896,0,0,0,13,,,,,,,0,0,0,154,32,-60,-30,0,-55,6,45,39.05,711.47,40,-2,0,0,,,100,100,0,1,0,0,0,2,0,,,,,0,0,0
51.405762,-2.818388,15,15,9.18,233,15,15,20.92,233,18792,55:40.9,55:40.9,21,0,0,11.745,51.405514,-2.819333,9.17,-0.45,0,-15,3,-6,0,1,0,78,99,-7466,2956,11745,3122.5,16,P_GPS,1,1,614,174,0,0,0,1.5314E+12,3916,3904,3896,0,0,0,13,,,,,,,0,0,0,155,32,-60,-30,0,-55,6,45,41.05,712.93,40,-2,0,0,,,100,100,0,1,0,0,0,2,0,,,,,0,0,0
51.405766,-2.818388,15,15,9.41,234,15,15,20.92,234,18896,55:40.9,55:40.9,21,0,0,11.745,51.405514,-2.819333,9.4,-0.45,0,-15,3,-6,0,1,0,78,99,-7466,2956,11745,3122.5,16,P_GPS,1,1,614,174,0,0,0,1.5314E+12,3916,3904,3896,0,0,0,13,,,,,,,0,0,0,154,34,-60,-30,0,-55,6,45,42.05,714.45,41,-2,0,0,,,100,100,0,1,0,0,0,2,0,,,,,0,0,0
