latitude,longitude,altitude(feet),ascent(feet),speed(mph),distance(feet),max_altitude(feet),max_ascent(feet),max_speed(mph),max_distance(feet),time(millisecond),datetime(utc),datetime(local),satellites,pressure(Pa),temperature(F),voltage(v),home_latitude,home_longitude,velocityX(mph),velocityY(mph),velocityZ(mph),pitch(deg),roll(deg),yaw(deg),powerlevel,isflying,istakingphoto,remainPowerPercent,remainLifePercent,currentCurrent,currentElectricity,currentVoltage,batteryTemperature,dischargeCount,flightmode,isMotorsOn,isTakingVideo,Rc_elevator,Rc_aileron,Rc_throttle,Rc_rudder,Rc_gyro,timestamp,Battery_Cell1,Battery_Cell2,Battery_Cell3,Battery_Cell4,Battery_Cell5,Battery_Cell6,Dronetype,AppVersion,Planename,FlyControllerSerialNumber,RemoteSerialNumber,BatterySerialNumber,CENTER_BATTERY.productDate,CENTER_BATTERY.serialNo,CENTER_BATTERY.fullCapacity,CENTER_BATTERY.productDateRaw,pitchRaw,rollRaw,yawRaw,gimbalPitchRaw,gimbalRollRaw,gimbalYawRaw,flyState,altitudeRaw,speedRaw,distanceRaw,velocityXRaw,velocityYRaw,velocityZRaw,data_reuse,App_Tip,App_Warning,downlinkSignalQuality,uplinkSignalQuality,transmissionChannel,rcModeSwitch,rcHome,rcPause,rcTransform,rcJoystickMode,appMode,FlyControllerSerialNumber_legacy,RemoteSerialNumber_legacy,BatterySerialNumber_legacy,Battery2SerialNumber,frontAvoidDist,backAvoidDist,isBrakingToAvoid
51.405513,-2.819334,3,3,6.04,0,3,3,6.04,0,0,2018-07-12 13:54:31.546,2018-07-12 14:54:31.546,21,0,0.00,12.158000,51.405514,-2.819333,0.00,0.00,-6.04,-2,0,43,0,1,0,82,99,-3010,3112,12158,3121.50,16,P_GPS,1,0,0,0,56,0,0,1531403671534,4075,4070,4071,0,0,0,13,Litchi_4.7-g,markmavic,08RDE3400101DF,08XUE3E0013AD2,093AE2Q03102B9,,0,0,0,22,-2,438,-30,0,437,6,11,27.00,1.28,0,0,-27,0,,,100,100,0,1,0,0,0,2,0,,,,,0.0,0.0,0
51.405513,-2.819334,4,4,6.71,0,4,4,6.71,0,98,2018-07-12 13:54:31.632,2018-07-12 14:54:31.632,21,0,0.00,12.158000,51.405514,-2.819333,0.00,0.00,-6.71,-2,0,43,0,1,0,82,99,-3010,3112,12158,3121.50,16,P_GPS,1,0,0,0,0,0,0,1531403671632,4075,4070,4071,0,0,0,13,,,,,,,0,0,0,26,-4,438,-30,0,437,6,12,30.00,1.50,0,0,-30,0,,,100,100,0,1,0,0,0,2,0,,,,,0.0,0.0,0
51.405513,-2.819334,5,5,6.93,0,5,5,6.93,0,214,2018-07-12 13:54:31.749,2018-07-12 14:54:31.749,21,0,0.00,12.158000,51.405514,-2.819333,0.00,0.00,-6.93,-2,0,43,0,1,0,82,99,-3010,3112,12158,3121.50,16,P_GPS,1,0,0,0,0,0,0,1531403671748,4075,4070,4071,0,0,0,13,,,,,,,0,0,0,28,-4,437,-30,0,437,6,17,31.00,1.69,0,0,-30,0,,,100,100,0,1,0,0,0,2,0,,,,,0.0,0.0,0
51.405513,-2.819334,6,6,6.93,0,6,6,6.93,0,308,2018-07-12 13:54:31.843,2018-07-12 14:54:31.843,21,0,0.00,12.158000,51.405514,-2.819333,0.00,0.00,-6.93,-3,0,43,0,1,0,82,99,-3010,3112,12158,3121.50,16,P_GPS,1,0,0,0,0,0,0,1531403671842,4075,4070,4071,0,0,0,13,,,,,,,0,0,0,30,-2,438,-30,0,437,6,20,31.00,1.82,0,0,-30,0,,,100,100,0,1,0,0,0,2,0,,,,,4.3,0.0,0
51.405513,-2.819334,7,7,6.71,0,7,7,6.93,0,399,2018-07-12 13:54:32.017,2018-07-12 14:54:32.017,21,0,0.00,12.158000,51.405514,-2.819333,0.00,0.00,-6.71,-2,0,43,0,1,0,82,99,-3010,3112,12158,3121.50,16,P_GPS,1,0,0,0,0,0,0,1531403671933,4075,4070,4071,0,0,0,13,,,,,,,0,0,0,28,-2,437,-30,0,437,6,22,30.00,1.93,0,0,-30,0,,,100,100,0,1,0,0,0,2,0,,,,,4.3,0.0,0
51.405513,-2.819334,8,8,6.04,0,8,8,6.93,0,520,2018-07-12 13:54:32.054,2018-07-12 14:54:32.054,21,0,0.00,12.158000,51.405514,-2.819333,0.00,0.00,-6.04,-3,0,43,0,1,0,82,99,-3010,3112,12158,3121.50,16,P_GPS,1,0,0,0,0,0,0,1531403672054,4075,4070,4071,0,0,0,13,,,,,,,0,0,0,30,-1,437,-30,0,437,6,25,27.00,1.88,0,0,-27,0,,,100,100,0,1,0,0,0,2,0,,,,,6.7,0.0,0
51.405513,-2.819334,9,9,5.37,0,9,9,6.93,0,596,2018-07-12 13:54:32.130,2018-07-12 14:54:32.130,21,0,0.00,12.158000,51.405514,-2.819333,0.00,0.00,-5.37,-3,0,43,0,1,0,82,99,-3010,3112,12158,3121.50,16,P_GPS,1,0,0,0,0,0,0,1531403672130,4075,4070,4071,0,0,0,13,,,,,,,0,0,0,30,-2,437,-30,0,437,6,29,24.00,1.86,0,0,-24,0,,,100,100,0,1,0,0,0,2,0,,,,,6.7,0.0,0
51.405513,-2.819334,10,10,4.25,0,10,10,6.93,0,713,2018-07-12 13:54:32.248,2018-07-12 14:54:32.248,21,0,0.00,12.158000,51.405514,-2.819333,0.00,0.00,-4.25,-3,0,43,0,1,0,82,99,-3010,3112,12158,3121.50,16,P_GPS,1,0,0,0,0,0,0,1531403672247,4075,4070,4071,0,0,0,13,,,,,,,0,0,0,30,0,437,-30,0,437,6,30,19.00,1.83,0,0,-18,0,,,100,100,0,1,0,0,0,2,0,,,,,0.0,0.0,0
51.405513,-2.819334,10,10,3.36,0,10,10,6.93,0,796,2018-07-12 13:54:32.330,2018-07-12 14:54:32.331,21,0,0.00,12.158000,51.405514,-2.819333,0.00,0.00,-3.36,-3,0,43,0,1,0,82,99,-3010,3112,12158,3121.50,16,P_GPS,1,0,0,0,0,0,0,1531403672330,4075,4070,4071,0,0,0,13,,,,,,,0,0,0,31,-1,437,-30,0,437,6,32,15.00,1.85,0,0,-15,0,,,100,100,0,1,0,0,0,2,0,,,,,0.0,0.0,0
51.405513,-2.819334,10,10,2.24,0,10,10,6.93,0,906,2018-07-12 13:54:32.442,2018-07-12 14:54:32.442,21,0,0.00,12.158000,51.405514,-2.819333,0.00,0.00,-2.24,-3,0,43,0,1,0,82,99,-3010,3112,12158,3121.50,16,P_GPS,1,0,0,0,0,0,0,1531403672440,4075,4070,4071,0,0,0,13,,,,,,,0,0,0,32,0,437,-30,0,437,6,32,10.00,1.96,0,0,-10,0,,,100,100,0,1,0,0,0,2,0,,,,,0.0,0.0,0
51.405513,-2.819334,11,11,1.12,0,11,11,6.93,0,996,2018-07-12 13:54:32.531,2018-07-12 14:54:32.531,21,0,0.00,11.919000,51.405514,-2.819333,0.00,0.00,-1.12,-3,0,43,0,1,0,82,99,-12188,3110,11919,3120.50,16,P_GPS,1,0,0,0,0,0,0,1531403672530,4075,4070,4071,0,0,0,13,,,,,,,0,0,0,34,0,437,-30,0,437,6,34,5.00,2.09,0,0,-5,0,,,100,100,0,1,0,0,0,2,0,,,,,0.0,0.0,0
51.405513,-2.819334,11,11,0.22,0,11,11,6.93,0,1087,2018-07-12 13:54:32.621,2018-07-12 14:54:32.622,21,0,0.00,11.919000,51.405514,-2.819333,0.00,0.00,-0.22,-3,0,43,0,1,0,82,99,-12188,3110,11919,3120.50,16,P_GPS,1,0,0,0,58,0,0,1531403672621,4075,4070,4071,0,0,0,13,,,,,,,0,0,0,35,0,437,-30,0,437,6,34,1.00,2.23,0,0,-1,0,,,100,100,0,1,0,0,0,2,0,,,,,0.0,0.0,0
51.405512,-2.819335,11,11,0.22,0,11,11,6.93,0,1187,2018-07-12 13:54:32.721,2018-07-12 14:54:32.721,21,0,0.00,11.919000,51.405514,-2.819333,0.00,0.00,0.22,-3,0,43,0,1,0,82,99,-12188,3110,11919,3120.50,16,P_GPS,1,0,0,0,270,0,0,1531403672721,4075,4070,4071,0,0,0,13,,,,,,,0,0,0,34,0,437,-30,0,437,6,34,1.00,2.35,0,0,1,0,,,100,100,0,1,0,0,0,2,0,,,,,0.0,0.0,0
51.405512,-2.819335,10,10,0.00,0,11,11,6.93,0,1296,2018-07-12 13:54:32.831,2018-07-12 14:54:32.831,21,0,0.00,11.919000,51.405514,-2.819333,0.00,0.00,0.00,-3,0,43,0,1,0,82,99,-12188,3110,11919,3120.50,16,P_GPS,1,0,0,0,575,0,0,1531403672830,4075,4070,4071,0,0,0,13,,,,,,,0,0,0,32,2,437,-30,0,437,6,32,0.00,2.45,0,0,0,0,,,100,100,0,1,0,0,0,2,0,,,,,0.0,0.0,0
51.405512,-2.819335,10,10,0.45,0,11,11,6.93,0,1397,2018-07-12 13:54:32.932,2018-07-12 14:54:32.932,21,0,0.00,11.919000,51.405514,-2.819333,0.00,0.00,-0.45,-3,0,43,0,1,0,82,99,-12188,3110,11919,3120.50,16,P_GPS,1,0,0,0,575,0,0,1531403672931,4075,4070,4071,0,0,0,13,,,,,,,0,0,0,30,2,437,-30,0,437,6,32,2.00,2.52,0,0,-2,0,,,100,100,0,1,0,0,0,2,0,,,,,0.0,0.0,0
51.405512,-2.819335,11,11,1.57,0,11,11,6.93,0,1512,2018-07-12 13:54:33.158,2018-07-12 14:54:33.158,21,0,0.00,11.919000,51.405514,-2.819333,0.00,0.00,-2.46,-3,0,43,0,1,0,82,99,-12188,3110,11919,3120.50,16,P_GPS,1,0,0,0,488,0,0,1531403673046,4075,4070,4071,0,0,0,13,,,,,,,0,0,0,31,0,437,-30,0,437,6,34,7.00,2.56,0,0,-11,0,,,100,100,0,1,0,0,0,2,0,,,,,0.0,0.0,0
51.405512,-2.819335,11,11,2.46,0,11,11,6.93,0,1626,2018-07-12 13:54:33.160,2018-07-12 14:54:33.160,21,0,0.00,11.919000,51.405514,-2.819333,0.00,0.00,-2.46,-3,0,43,0,1,0,82,99,-12188,3110,11919,3120.50,16,P_GPS,1,0,0,0,488,0,0,1531403673160,4075,4070,4071,0,0,0,13,,,,,,,0,0,0,30,-2,437,-30,0,437,6,35,11.00,2.59,0,0,-11,0,,,100,100,0,1,0,0,0,2,0,,,,,0.0,0.0,0
51.405512,-2.819335,12,12,3.80,0,12,12,6.93,0,1698,2018-07-12 13:54:33.233,2018-07-12 14:54:33.233,21,0,0.00,11.919000,51.405514,-2.819333,0.00,0.00,-3.80,-2,0,43,0,1,0,82,99,-12188,3110,11919,3120.50,16,P_GPS,1,0,0,0,213,0,0,1531403673232,4075,4070,4071,0,0,0,13,,,,,,,0,0,0,27,-2,437,-30,0,437,6,37,17.00,2.60,0,0,-17,0,,,100,100,0,1,0,0,0,2,0,,,,,0.0,0.0,0
51.405512,-2.819335,12,12,4.47,0,12,12,6.93,0,1793,2018-07-12 13:54:33.327,2018-07-12 14:54:33.327,21,0,0.00,11.919000,51.405514,-2.819333,0.00,0.00,-4.47,-3,0,43,0,1,0,82,99,-12188,3110,11919,3120.50,16,P_GPS,1,0,0,0,213,0,0,1531403673327,4075,4070,4071,0,0,0,13,,,,,,,0,0,0,36,-4,437,-30,0,437,6,39,20.00,2.61,0,0,-20,0,,,100,100,0,1,0,0,0,2,0,,,,,0.0,0.0,0
51.405512,-2.819334,13,13,4.47,0,13,13,6.93,0,1898,2018-07-12 13:54:33.433,2018-07-12 14:54:33.433,21,0,0.00,11.919000,51.405514,-2.819333,0.00,0.00,-4.47,-3,0,43,0,1,0,82,99,-12188,3110,11919,3120.50,16,P_GPS,1,0,0,0,0,0,0,1531403673432,4075,4070,4071,0,0,0,13,,,,,,,0,0,0,39,0,437,-30,0,437,6,41,20.00,2.57,0,0,-20,0,,,100,100,0,1,0,0,0,2,0,,,,,0.0,0.0,0
51.405512,-2.819334,14,14,3.80,0,14,14,6.93,0,1995,2018-07-12 13:54:33.529,2018-07-12 14:54:33.529,21,0,0.00,12.028000,51.405514,-2.819333,0.00,0.00,-3.80,-3,0,43,0,1,0,82,99,-12188,3110,12028,3121.50,16,P_GPS,1,0,0,0,0,0,0,1531403673529,4075,4070,4071,0,0,0,13,,,,,,,0,0,0,37,0,437,-30,0,437,6,44,17.00,2.52,0,0,-17,0,,,100,100,0,1,0,0,0,2,0,,,,,0.0,0.0,0
51.405512,-2.819334,14,14,2.91,0,14,14,6.93,0,2089,2018-07-12 13:54:33.624,2018-07-12 14:54:33.624,21,0,0.00,12.028000,51.405514,-2.819333,0.00,0.00,-2.91,-3,0,43,0,1,0,82,99,-12188,3110,12028,3121.50,16,P_GPS,1,0,0,0,0,0,0,1531403673623,4075,4070,4071,0,0,0,13,,,,,,,0,0,0,32,1,437,-30,0,437,6,45,13.00,2.52,0,0,-12,0,,,100,100,0,1,0,0,0,2,0,,,,,0.0,0.0,0
51.405512,-2.819334,15,15,2.01,0,15,15,6.93,0,2192,2018-07-12 13:54:33.726,2018-07-12 14:54:33.726,21,0,0.00,12.028000,51.405514,-2.819333,0.00,0.00,-2.01,-2,0,43,0,1,0,82,99,-12188,3110,12028,3121.50,16,P_GPS,1,0,0,0,0,0,0,1531403673726,4075,4070,4071,0,0,0,13,,,,,,,0,0,0,28,-1,438,-30,0,437,6,46,9.00,2.52,0,0,-8,0,,,100,100,0,1,0,0,0,2,0,,,,,0.0,0.0,0
51.405512,-2.819334,15,15,0.89,0,15,15,6.93,0,2300,2018-07-12 13:54:33.834,2018-07-12 14:54:33.834,21,0,0.00,12.028000,51.405514,-2.819333,0.00,0.00,-0.89,-2,0,43,0,1,0,82,99,-12188,3110,12028,3121.50,16,P_GPS,1,0,0,0,0,379,0,1531403673834,4075,4070,4071,0,0,0,13,,,,,,,0,0,0,25,0,437,-30,0,437,6,46,4.00,2.57,0,0,-4,0,,,100,100,0,1,0,0,0,2,0,,,,,0.0,0.0,0
51.405512,-2.819334,15,15,0.22,0,15,15,6.93,0,2395,2018-07-12 13:54:33.930,2018-07-12 14:54:33.930,21,0,0.00,12.028000,51.405514,-2.819333,0.00,0.00,-0.22,-2,0,43,0,1,0,82,99,-12188,3110,12028,3121.50,16,P_GPS,1,0,0,0,0,379,0,1531403673929,4075,4070,4071,0,0,0,13,,,,,,,0,0,0,22,-2,437,-30,0,439,6,46,1.00,2.62,0,0,-1,0,,,100,100,0,1,0,0,0,2,0,,,,,0.0,0.0,0
51.405512,-2.819334,15,15,0.00,0,15,15,6.93,0,2553,2018-07-12 13:54:34.188,2018-07-12 14:54:34.188,21,0,0.00,12.028000,51.405514,-2.819333,0.00,0.00,0.22,-2,0,44,0,1,0,82,99,-12188,3110,12028,3121.50,16,P_GPS,1,0,0,0,0,660,0,1531403674087,4075,4070,4071,0,0,0,13,,,,,,,0,0,0,22,-5,445,-30,0,450,6,46,0.00,2.64,0,0,1,0,,,100,100,0,1,0,0,0,2,0,,,,,0.0,0.0,0
51.405512,-2.819334,15,15,0.22,0,15,15,6.93,0,2656,2018-07-12 13:54:34.190,2018-07-12 14:54:34.190,21,0,0.00,12.028000,51.405514,-2.819333,0.00,0.00,0.22,-2,0,47,0,1,0,82,99,-12188,3110,12028,3121.50,16,P_GPS,1,0,0,0,0,660,0,1531403674190,4075,4070,4071,0,0,0,13,,,,,,,0,0,0,23,-6,475,-30,0,572,6,45,1.00,2.66,0,0,1,0,,,100,100,0,1,0,0,0,2,0,,,,,0.0,0.0,0
51.405512,-2.819334,15,15,0.22,0,15,15,6.93,0,2751,2018-07-12 13:54:34.286,2018-07-12 14:54:34.287,21,0,0.00,12.028000,51.405514,-2.819333,0.00,0.00,0.22,-2,0,53,0,1,0,82,99,-12188,3110,12028,3121.50,16,P_GPS,1,0,0,0,0,660,0,1531403674285,4075,4070,4071,0,0,0,13,,,,,,,0,0,0,27,-8,530,-30,0,572,6,45,1.00,2.67,0,0,1,0,,,100,100,0,1,0,0,0,2,0,,,,,0.0,0.0,0
51.405512,-2.819334,15,15,0.22,0,15,15,6.93,0,2795,2018-07-12 13:54:34.330,2018-07-12 14:54:34.330,21,0,0.00,12.028000,51.405514,-2.819333,0.00,0.00,0.22,-2,0,60,0,1,0,82,99,-12188,3110,12028,3121.50,16,P_GPS,1,0,0,0,0,660,0,1531403674329,4075,4070,4071,0,0,0,13,,,,,,,0,0,0,28,-9,606,-30,0,661,6,45,1.00,2.70,0,0,1,0,,,100,100,0,1,0,0,0,2,0,,,,,0.0,0.0,0
51.405512,-2.819334,15,15,0.22,0,15,15,6.93,0,2899,2018-07-12 13:54:34.433,2018-07-12 14:54:34.433,21,0,0.00,12.028000,51.405514,-2.819333,0.00,0.00,0.22,-3,0,68,0,1,0,82,99,-12188,3110,12028,3121.50,16,P_GPS,1,0,0,0,0,427,0,1531403674433,4075,4070,4071,0,0,0,13,,,,,,,0,0,0,30,-6,687,-30,0,751,6,45,1.00,2.71,0,0,1,0,,,100,100,0,1,0,0,0,2,0,,,,,0.0,0.0,0
51.405512,-2.819335,15,15,0.00,0,15,15,6.93,0,2993,2018-07-12 13:54:34.528,2018-07-12 14:54:34.528,21,0,0.00,11.897000,51.405514,-2.819333,0.00,0.00,0.00,-3,0,77,0,1,0,82,99,-12188,3104,11897,3121.50,16,P_GPS,1,0,0,0,0,427,0,1531403674527,4075,4070,4071,0,0,0,13,,,,,,,0,0,0,32,-5,777,-30,0,841,6,45,0.00,2.73,0,0,0,0,,,100,100,0,1,0,0,0,2,0,,,,,0.0,0.0,0
51.405512,-2.819335,15,15,0.22,0,15,15,6.93,0,3106,2018-07-12 13:54:34.641,2018-07-12 14:54:34.641,21,0,0.00,11.897000,51.405514,-2.819333,0.22,0.00,0.00,-3,0,85,0,1,0,82,99,-12188,3104,11897,3121.50,16,P_GPS,1,0,0,0,0,0,0,1531403674640,4075,4070,4071,0,0,0,13,,,,,,,0,0,0,32,-5,850,-30,0,910,6,45,1.00,2.76,1,0,0,0,,,100,100,0,1,0,0,0,2,0,,,,,0.0,0.0,0
51.405512,-2.819335,15,15,0.00,0,15,15,6.93,0,3194,2018-07-12 13:54:34.728,2018-07-12 14:54:34.728,21,0,0.00,11.897000,51.405514,-2.819333,0.00,0.00,0.00,-2,0,88,0,1,0,82,99,-12188,3104,11897,3121.50,16,P_GPS,1,0,0,0,0,0,0,1531403674728,4075,4070,4071,0,0,0,13,,,,,,,0,0,0,27,-4,887,-30,0,911,6,45,0.00,2.78,0,0,0,0,,,100,100,0,1,0,0,0,2,0,,,,,0.0,0.0,0
51.405512,-2.819334,15,15,0.22,0,15,15,6.93,0,3306,2018-07-12 13:54:34.841,2018-07-12 14:54:34.841,21,0,0.00,11.897000,51.405514,-2.819333,0.00,0.00,-0.22,-2,0,90,0,1,0,82,99,-12188,3104,11897,3121.50,16,P_GPS,1,0,287,0,0,0,0,1531403674840,4075,4070,4071,0,0,0,13,,,,,,,0,0,0,20,-4,900,-30,0,911,6,45,1.00,2.78,0,0,-1,0,,,100,100,0,1,0,0,0,2,0,,,,,0.0,0.0,0
51.405512,-2.819334,15,15,0.22,0,15,15,6.93,0,3392,2018-07-12 13:54:34.927,2018-07-12 14:54:34.927,21,0,0.00,11.897000,51.405514,-2.819333,0.00,0.00,-0.22,-2,0,90,0,1,0,82,99,-12188,3104,11897,3121.50,16,P_GPS,1,0,287,0,0,0,0,1531403674926,4075,4070,4071,0,0,0,13,,,,,,,0,0,0,27,0,907,-30,0,911,6,46,1.00,2.80,0,0,-1,0,,,100,100,0,1,0,0,0,2,0,,,,,0.0,0.0,0
51.405512,-2.819334,15,15,0.32,0,15,15,6.93,0,3491,2018-07-12 13:54:35.025,2018-07-12 14:54:35.025,21,0,0.00,11.897000,51.405514,-2.819333,0.00,0.22,-0.22,-11,0,91,0,1,0,82,99,-12188,3104,11897,3121.50,16,P_GPS,1,0,660,0,0,0,0,1531403675025,4075,4070,4071,0,0,0,13,,,,,,,0,0,0,116,0,910,-30,0,911,6,46,1.41,2.88,0,1,-1,0,,,100,100,0,1,0,0,0,2,0,,,,,0.0,0.0,0
51.405512,-2.819334,15,15,0.67,0,15,15,6.93,0,3593,2018-07-12 13:54:35.226,2018-07-12 14:54:35.226,21,0,0.00,11.897000,51.405514,-2.819333,0.00,0.67,0.00,-20,0,91,0,1,0,82,99,-12188,3104,11897,3121.50,16,P_GPS,1,0,660,0,0,0,0,1531403675127,4075,4070,4071,0,0,0,13,,,,,,,0,0,0,201,-2,914,-30,0,911,6,46,3.00,2.95,0,3,0,0,,,100,100,0,1,0,0,0,2,0,,,,,0.0,0.0,0
51.405511,-2.819333,15,15,1.58,0,15,15,6.93,0,3695,2018-07-12 13:54:35.229,2018-07-12 14:54:35.229,21,0,0.00,11.897000,51.405514,-2.819333,-0.22,1.57,0.00,-22,0,91,0,1,0,82,99,-12188,3104,11897,3121.50,16,P_GPS,1,0,660,0,0,0,0,1531403675229,4075,4070,4071,0,0,0,13,,,,,,,0,0,0,226,-5,915,-30,0,911,6,46,7.07,2.99,-1,6,0,0,,,100,100,0,1,0,0,0,2,0,,,,,0.0,0.0,0
51.405511,-2.819332,15,15,2.25,1,15,15,6.93,1,3828,2018-07-12 13:54:35.362,2018-07-12 14:54:35.362,21,0,0.00,11.897000,51.405514,-2.819333,-0.22,2.24,0.00,-23,0,91,0,1,0,82,99,-12188,3104,11897,3121.50,16,P_GPS,1,0,660,0,0,0,0,1531403675362,4075,4070,4071,0,0,0,13,,,,,,,0,0,0,235,-8,915,-30,0,911,6,46,10.05,3.15,-1,10,0,0,,,100,100,0,1,0,0,0,2,0,,,,,0.0,0.0,0
51.405511,-2.819330,15,15,3.14,1,15,15,6.93,1,3906,2018-07-12 13:54:35.441,2018-07-12 14:54:35.441,21,0,0.00,11.897000,51.405514,-2.819333,-0.22,3.13,0.00,-23,0,91,0,1,0,82,99,-12188,3104,11897,3121.50,16,P_GPS,1,0,660,0,0,0,0,1531403675440,4075,4070,4071,0,0,0,13,,,,,,,0,0,0,236,-8,915,-30,0,911,6,48,14.04,3.79,-1,13,0,0,,,100,100,0,1,0,0,0,2,0,,,,,0.0,0.0,0
51.405511,-2.819328,15,15,3.83,1,15,15,6.93,1,3999,2018-07-12 13:54:35.534,2018-07-12 14:54:35.536,21,0,0.00,11.919000,51.405514,-2.819333,-0.45,3.80,0.00,-23,0,91,0,1,0,82,99,-7334,3102,11919,3121.50,16,P_GPS,1,0,660,0,0,0,0,1531403675533,4075,4070,4071,0,0,0,13,,,,,,,0,0,0,236,-9,914,-30,0,911,6,48,17.12,4.98,-2,17,0,0,,,100,100,0,1,0,0,0,2,0,,,,,0.0,0.0,0
51.405511,-2.819324,15,15,4.50,2,15,15,6.93,2,4097,2018-07-12 13:54:35.631,2018-07-12 14:54:35.632,21,0,0.00,11.919000,51.405514,-2.819333,-0.45,4.47,0.00,-22,0,91,0,1,0,82,99,-7334,3102,11919,3121.50,16,P_GPS,1,0,660,0,0,0,0,1531403675631,4075,4070,4071,0,0,0,13,,,,,,,0,0,0,221,-9,914,-30,0,911,6,48,20.10,6.88,-2,20,0,0,,,100,100,0,1,0,0,0,2,0,,,,,0.0,0.0,0
51.405510,-2.819321,15,15,5.19,3,15,15,6.93,3,4202,2018-07-12 13:54:35.736,2018-07-12 14:54:35.736,21,0,0.00,11.919000,51.405514,-2.819333,-0.67,5.14,0.00,-20,-1,91,0,1,0,82,99,-7334,3102,11919,3121.50,16,P_GPS,1,0,660,-36,0,0,0,1531403675736,4075,4070,4071,0,0,0,13,,,,,,,0,0,0,203,-11,914,-30,0,911,6,48,23.19,9.19,-3,22,0,0,,,100,100,0,1,0,0,0,2,0,,,,,0.0,0.0,0
51.405510,-2.819317,15,15,5.85,3,15,15,6.93,3,4286,2018-07-12 13:54:35.820,2018-07-12 14:54:35.821,21,0,0.00,11.919000,51.405514,-2.819333,-0.67,5.82,0.00,-18,-1,91,0,1,0,82,99,-7334,3102,11919,3121.50,16,P_GPS,1,0,660,-36,0,0,0,1531403675820,4075,4070,4071,0,0,0,13,,,,,,,0,0,0,183,-15,914,-30,0,911,6,48,26.17,12.01,-3,25,0,0,,,100,100,0,1,0,0,0,2,0,,,,,0.0,0.0,0
51.405510,-2.819312,15,15,6.52,4,15,15,6.93,4,4396,2018-07-12 13:54:35.931,2018-07-12 14:54:35.931,21,0,0.00,11.919000,51.405514,-2.819333,-0.67,6.49,0.00,-16,-1,91,0,1,0,82,99,-7334,3102,11919,3121.50,16,P_GPS,1,0,660,-73,0,0,0,1531403675930,4075,4070,4071,0,0,0,13,,,,,,,0,0,0,168,-16,914,-30,0,911,6,48,29.15,15.04,-3,29,0,0,,,100,100,0,1,0,0,0,2,0,,,,,0.0,0.0,0
51.405509,-2.819307,15,15,6.97,6,15,15,6.97,6,4507,2018-07-12 13:54:36.042,2018-07-12 14:54:36.042,21,0,0.00,11.919000,51.405514,-2.819333,-0.67,6.93,0.00,-15,-1,91,0,1,0,82,99,-7334,3102,11919,3121.50,16,P_GPS,1,0,660,-74,0,0,0,1531403676041,4075,4070,4071,0,0,0,13,,,,,,,0,0,0,156,-18,914,-30,0,911,6,46,31.14,18.34,-3,30,0,0,,,100,100,0,1,0,0,0,2,0,,,,,0.0,0.0,0
51.405509,-2.819302,15,15,7.42,7,15,15,7.42,7,4590,2018-07-12 13:54:36.124,2018-07-12 14:54:36.125,21,0,0.00,11.919000,51.405514,-2.819333,-0.67,7.38,0.22,-15,-1,91,0,1,0,82,99,-7334,3102,11919,3121.50,16,P_GPS,1,0,660,-80,0,0,0,1531403676124,4075,4070,4071,0,0,0,13,,,,,,,0,0,0,151,-13,912,-30,0,911,6,46,33.15,21.76,-3,32,1,0,,,100,100,0,1,0,0,0,2,0,,,,,0.0,0.0,0
51.405509,-2.819297,15,15,7.64,8,15,15,7.64,8,4700,2018-07-12 13:54:36.332,2018-07-12 14:54:36.333,21,0,0.00,11.919000,51.405514,-2.819333,-0.67,8.05,0.22,-15,-1,91,0,1,0,82,99,-7334,3102,11919,3121.50,16,P_GPS,1,0,660,-217,0,0,0,1531403676234,4075,4070,4071,0,0,0,13,,,,,,,0,0,0,150,-16,912,-30,0,911,6,46,34.15,25.35,-3,35,1,0,,,100,100,0,1,0,0,0,2,0,,,,,0.0,0.0,0
51.405508,-2.819292,15,15,8.08,9,15,15,8.08,9,4810,2018-07-12 13:54:36.344,2018-07-12 14:54:36.344,21,0,0.00,11.919000,51.405514,-2.819333,-0.67,8.05,0.22,-15,-1,91,0,1,0,82,99,-7334,3102,11919,3121.50,16,P_GPS,1,0,660,-217,0,0,0,1531403676344,4075,4070,4071,0,0,0,13,,,,,,,0,0,0,151,-18,912,-30,0,911,6,46,36.14,29.06,-3,35,1,0,,,100,100,0,1,0,0,0,2,0,,,,,0.0,0.0,0
51.405508,-2.819286,15,15,8.53,10,15,15,8.53,10,4897,2018-07-12 13:54:36.431,2018-07-12 14:54:36.431,20,0,0.00,11.919000,51.405514,-2.819333,-0.67,8.50,0.00,-15,-2,91,0,1,0,82,99,-7334,3102,11919,3121.50,16,P_GPS,1,0,660,-241,0,0,0,1531403676431,4075,4070,4071,0,0,0,13,,,,,,,0,0,0,151,-20,912,-30,0,911,6,46,38.12,32.90,-3,37,0,0,,,100,100,0,1,0,0,0,2,0,,,,,0.0,0.0,0
51.405508,-2.819281,15,15,8.75,12,15,15,8.75,12,4994,2018-07-12 13:54:36.529,2018-07-12 14:54:36.529,20,0,0.00,11.854000,51.405514,-2.819333,-0.67,8.72,0.00,-15,-2,91,0,1,0,81,99,-8438,3100,11854,3121.50,16,P_GPS,1,0,660,-241,0,0,0,1531403676528,4075,4070,4071,0,0,0,13,,,,,,,0,0,0,153,-23,914,-30,0,911,6,46,39.12,36.87,-3,39,0,0,,,100,100,0,1,0,0,0,2,0,,,,,0.0,0.0,0
51.405507,-2.819275,15,15,8.75,13,15,15,8.75,13,5100,2018-07-12 13:54:36.634,2018-07-12 14:54:36.635,21,0,0.00,11.854000,51.405514,-2.819333,-0.67,8.72,0.00,-15,-2,91,0,1,0,81,99,-8438,3100,11854,3121.50,16,P_GPS,1,0,660,-287,0,0,0,1531403676634,4075,4070,4071,0,0,0,13,,,,,,,0,0,0,154,-27,914,-30,0,911,6,46,39.12,40.91,-3,39,0,0,,,100,100,0,1,0,0,0,2,0,,,,,0.0,0.0,0
51.405507,-2.819269,15,15,9.20,14,15,15,9.20,14,5194,2018-07-12 13:54:36.728,2018-07-12 14:54:36.729,21,0,0.00,11.854000,51.405514,-2.819333,-0.67,9.17,0.00,-15,-2,91,0,1,0,81,99,-8438,3100,11854,3121.50,16,P_GPS,1,0,660,-287,0,0,0,1531403676728,4075,4070,4071,0,0,0,13,,,,,,,0,0,0,153,-28,915,-30,0,911,6,46,41.11,45.11,-3,40,0,0,,,100,100,0,1,0,0,0,2,0,,,,,0.0,0.0,0
51.405507,-2.819262,15,15,9.42,16,15,15,9.42,16,5296,2018-07-12 13:54:36.830,2018-07-12 14:54:36.830,21,0,0.00,11.854000,51.405514,-2.819333,-0.67,9.40,0.00,-15,-3,91,0,1,0,81,99,-8438,3100,11854,3121.50,16,P_GPS,1,0,660,-365,0,0,0,1531403676830,4075,4070,4071,0,0,0,13,,,,,,,0,0,0,154,-39,915,-30,0,911,6,46,42.11,49.41,-3,41,0,0,,,100,100,0,1,0,0,0,2,0,,,,,0.0,0.0,0
51.405507,-2.819256,15,15,9.87,17,15,15,9.87,17,5396,2018-07-12 13:54:36.930,2018-07-12 14:54:36.930,21,0,0.00,11.854000,51.405514,-2.819333,-0.67,9.84,0.00,-15,-4,91,0,1,0,81,99,-8438,3100,11854,3121.50,16,P_GPS,1,0,660,-366,0,0,0,1531403676930,4075,4070,4071,0,0,0,13,,,,,,,0,0,0,151,-40,915,-30,0,911,6,46,44.10,53.88,-3,44,0,0,,,100,100,0,1,0,0,0,2,0,,,,,0.0,0.0,0
51.405506,-2.819249,15,15,10.30,19,15,15,10.30,19,5494,2018-07-12 13:54:37.029,2018-07-12 14:54:37.029,21,0,0.00,11.854000,51.405514,-2.819333,-0.45,10.29,0.00,-14,-4,91,0,1,0,81,99,-8438,3100,11854,3121.50,16,P_GPS,1,0,660,-366,0,0,0,1531403677028,4075,4070,4071,0,0,0,13,,,,,,,0,0,0,146,-47,917,-30,0,911,6,46,46.04,58.42,-2,45,0,0,,,100,100,0,1,0,0,0,2,0,,,,,0.0,0.0,0
51.405506,-2.819243,15,15,10.52,20,15,15,10.52,20,5606,2018-07-12 13:54:37.141,2018-07-12 14:54:37.141,21,0,0.00,11.854000,51.405514,-2.819333,-0.45,10.51,0.00,-14,-5,91,0,1,0,81,99,-8438,3100,11854,3121.50,16,P_GPS,1,0,660,-368,0,0,0,1531403677140,4075,4070,4071,0,0,0,13,,,,,,,0,0,0,146,-50,917,-30,0,911,6,46,47.04,63.11,-2,46,0,0,,,100,100,0,1,0,0,0,2,0,,,,,0.0,0.0,0
51.405506,-2.819236,15,15,10.97,22,15,15,10.97,22,5695,2018-07-12 13:54:37.229,2018-07-12 14:54:37.230,21,0,0.00,11.854000,51.405514,-2.819333,-0.45,10.96,0.00,-14,-5,91,0,1,0,81,99,-8438,3100,11854,3121.50,16,P_GPS,1,0,660,-369,0,0,0,1531403677229,4075,4070,4071,0,0,0,13,,,,,,,0,0,0,148,-52,919,-30,0,911,6,46,49.04,67.84,-2,49,0,0,,,100,100,0,1,0,0,0,2,0,,,,,0.0,0.0,0
51.405506,-2.819229,15,15,11.41,23,15,15,11.41,23,5798,2018-07-12 13:54:37.419,2018-07-12 14:54:37.419,21,0,0.00,11.854000,51.405514,-2.819333,-0.22,11.41,0.00,-14,-5,91,0,1,0,81,99,-8438,3100,11854,3121.50,16,P_GPS,1,0,660,-368,0,0,0,1531403677332,4075,4070,4071,0,0,0,13,,,,,,,0,0,0,149,-52,919,-30,0,911,6,45,51.01,72.72,-1,50,0,0,,,100,100,0,1,0,0,0,2,0,,,,,0.0,0.0,0
51.405506,-2.819222,15,15,11.63,25,15,15,11.63,25,5939,2018-07-12 13:54:37.474,2018-07-12 14:54:37.474,21,0,0.00,11.854000,51.405514,-2.819333,0.00,11.63,0.00,-14,-5,91,0,1,0,81,99,-8438,3100,11854,3121.50,16,P_GPS,1,0,660,-368,0,0,0,1531403677473,4075,4070,4071,0,0,0,13,,,,,,,0,0,0,146,-54,919,-30,0,911,6,45,52.00,77.68,0,51,0,0,,,100,100,0,1,0,0,0,2,0,,,,,0.0,0.0,0
51.405506,-2.819214,15,15,12.08,27,15,15,12.08,27,6000,2018-07-12 13:54:37.534,2018-07-12 14:54:37.535,21,0,0.00,12.115000,51.405514,-2.819333,0.00,12.08,0.00,-14,-5,91,0,1,0,81,99,-8438,3100,12115,3121.50,16,P_GPS,1,0,660,-367,0,0,0,1531403677534,4075,4070,4071,0,0,0,13,,,,,,,0,0,0,148,-55,919,-30,0,911,6,45,54.00,82.78,0,54,0,0,,,100,100,0,1,0,0,0,2,0,,,,,0.0,0.0,0
51.405506,-2.819207,15,15,12.30,28,15,15,12.30,28,6099,2018-07-12 13:54:37.633,2018-07-12 14:54:37.633,21,0,0.00,12.115000,51.405514,-2.819333,0.00,12.30,0.00,-15,-5,91,0,1,0,81,99,-8438,3100,12115,3121.50,16,P_GPS,1,0,660,-367,0,0,0,1531403677633,4075,4070,4071,0,0,0,13,,,,,,,0,0,0,150,-57,919,-30,0,911,6,45,55.00,88.08,0,55,0,0,,,100,100,0,1,0,0,0,2,0,,,,,0.0,0.0,0
51.405506,-2.819199,15,15,12.75,30,15,15,12.75,30,6198,2018-07-12 13:54:37.732,2018-07-12 14:54:37.732,21,0,0.00,12.115000,51.405514,-2.819333,0.00,12.75,0.00,-14,-5,91,0,1,0,81,99,-8438,3100,12115,3121.50,16,P_GPS,1,0,660,-361,0,0,0,1531403677732,4075,4070,4071,0,0,0,13,,,,,,,0,0,0,146,-59,919,-30,0,911,6,45,57.00,93.50,0,56,0,0,,,100,100,0,1,0,0,0,2,0,,,,,0.0,0.0,0
51.405507,-2.819191,15,15,12.98,32,15,15,12.98,32,6296,2018-07-12 13:54:37.830,2018-07-12 14:54:37.831,21,0,0.00,12.115000,51.405514,-2.819333,0.22,12.97,0.00,-14,-6,91,0,1,0,81,99,-8438,3100,12115,3121.50,16,P_GPS,1,0,660,-361,0,0,0,1531403677830,4075,4070,4071,0,0,0,13,,,,,,,0,0,0,146,-62,919,-30,0,911,6,46,58.01,99.00,1,58,0,0,,,100,100,0,1,0,0,0,2,0,,,,,0.0,0.0,0
51.405507,-2.819183,15,15,13.20,34,15,15,13.20,34,6395,2018-07-12 13:54:37.930,2018-07-12 14:54:37.930,21,0,0.00,12.115000,51.405514,-2.819333,0.22,13.20,0.00,-14,-6,91,0,1,0,81,99,-8438,3100,12115,3121.50,16,P_GPS,1,0,660,-362,0,0,0,1531403677929,4075,4070,4071,0,0,0,13,,,,,,,0,0,0,146,-62,919,-30,0,911,6,46,59.01,104.58,1,59,0,0,,,100,100,0,1,0,0,0,2,0,,,,,0.0,0.0,0
51.405507,-2.819175,15,15,13.65,36,15,15,13.65,36,6520,2018-07-12 13:54:38.055,2018-07-12 14:54:38.055,21,0,0.00,12.115000,51.405514,-2.819333,0.45,13.65,0.00,-14,-6,92,0,1,0,81,99,-8438,3100,12115,3121.50,16,P_GPS,1,0,660,-360,0,0,0,1531403678054,4075,4070,4071,0,0,0,13,,,,,,,0,0,0,146,-64,920,-30,0,911,6,46,61.03,110.18,2,60,0,0,,,100,100,0,1,0,0,0,2,0,,,,,0.0,0.0,0
51.405507,-2.819166,15,15,13.88,38,15,15,13.88,38,6599,2018-07-12 13:54:38.134,2018-07-12 14:54:38.134,21,0,0.00,12.115000,51.405514,-2.819333,0.45,13.87,0.00,-14,-6,92,0,1,0,81,99,-8438,3100,12115,3121.50,16,P_GPS,1,0,660,-361,0,0,0,1531403678133,4075,4070,4071,0,0,0,13,,,,,,,0,0,0,145,-64,920,-30,0,911,6,46,62.03,115.90,2,61,0,0,,,100,100,0,1,0,0,0,2,0,,,,,0.0,0.0,0
51.405508,-2.819158,15,15,14.11,39,15,15,14.11,39,6701,2018-07-12 13:54:38.235,2018-07-12 14:54:38.236,21,0,0.00,12.115000,51.405514,-2.819333,0.67,14.09,0.00,-14,-6,92,0,1,0,81,99,-8438,3100,12115,3121.50,16,P_GPS,1,0,660,-361,0,0,0,1531403678235,4075,4070,4071,0,0,0,13,,,,,,,0,0,0,144,-65,920,-30,0,911,6,46,63.07,121.80,3,63,0,0,,,100,100,0,1,0,0,0,2,0,,,,,0.0,0.0,0
51.405508,-2.819149,15,15,14.34,41,15,15,14.34,41,6802,2018-07-12 13:54:38.412,2018-07-12 14:54:38.413,21,0,0.00,12.115000,51.405514,-2.819333,0.89,14.32,0.00,-14,-6,92,0,1,0,81,99,-8438,3100,12115,3121.50,16,P_GPS,1,0,660,-360,0,0,0,1531403678336,4075,4070,4071,0,0,0,13,,,,,,,0,0,0,146,-65,920,-30,0,911,6,46,64.12,127.80,4,64,0,0,,,100,100,0,1,0,0,0,2,0,,,,,0.0,0.0,0
51.405509,-2.819140,15,15,14.57,43,15,15,14.57,43,6932,2018-07-12 13:54:38.467,2018-07-12 14:54:38.467,21,0,0.00,12.115000,51.405514,-2.819333,0.89,14.54,0.00,-14,-6,92,0,1,0,81,99,-8438,3100,12115,3121.50,16,P_GPS,1,0,660,-357,0,0,0,1531403678466,4075,4070,4071,0,0,0,13,,,,,,,0,0,0,145,-65,920,-30,0,911,6,46,65.12,133.87,4,65,0,0,,,100,100,0,1,0,0,0,2,0,,,,,0.0,0.0,0
51.405510,-2.819131,15,15,14.58,45,15,15,14.58,45,7019,2018-07-12 13:54:38.554,2018-07-12 14:54:38.554,21,0,0.00,11.658000,51.405514,-2.819333,1.12,14.54,0.00,-14,-6,92,0,1,0,81,99,-8438,3096,11658,3122.50,16,P_GPS,1,0,660,-354,0,0,0,1531403678553,4075,4070,4071,0,0,0,13,,,,,,,0,0,0,144,-65,920,-30,0,911,6,46,65.19,140.02,5,65,0,0,,,100,100,0,1,0,0,0,2,0,,,,,0.0,0.0,0
51.405510,-2.819122,15,15,14.82,47,15,15,14.82,47,7102,2018-07-12 13:54:38.637,2018-07-12 14:54:38.637,21,0,0.00,11.658000,51.405514,-2.819333,1.34,14.76,0.00,-14,-6,92,0,1,0,81,99,-8438,3096,11658,3122.50,16,P_GPS,1,0,660,-342,0,0,0,1531403678636,3962,3950,3943,0,0,0,13,,,,,,,0,0,0,145,-65,920,-30,0,911,6,46,66.27,146.26,6,65,0,0,,,100,100,0,1,0,0,0,2,0,,,,,0.0,0.0,0
51.405511,-2.819113,15,15,14.85,50,15,15,14.85,50,7217,2018-07-12 13:54:38.753,2018-07-12 14:54:38.753,21,0,0.00,11.658000,51.405514,-2.819333,1.57,14.76,0.00,-14,-6,92,0,1,0,81,99,-8438,3096,11658,3122.50,16,P_GPS,1,0,660,-337,0,0,0,1531403678751,3962,3950,3943,0,0,0,13,,,,,,,0,0,0,145,-65,920,-30,0,911,6,45,66.37,152.57,6,65,0,0,,,100,100,0,1,0,0,0,2,0,,,,,0.0,0.0,0
51.405512,-2.819104,15,15,15.07,52,15,15,15.07,52,7313,2018-07-12 13:54:38.847,2018-07-12 14:54:38.848,21,0,0.00,11.658000,51.405514,-2.819333,1.57,14.99,0.00,-14,-6,91,0,1,0,81,99,-8438,3096,11658,3122.50,16,P_GPS,1,0,660,-332,0,0,0,1531403678847,3962,3950,3943,0,0,0,13,,,,,,,0,0,0,146,-65,919,-30,0,911,6,45,67.36,158.98,6,66,0,0,,,100,100,0,1,0,0,0,2,0,,,,,0.0,0.0,0
51.405512,-2.819095,15,15,15.09,54,15,15,15.09,54,7407,2018-07-12 13:54:38.941,2018-07-12 14:54:38.941,21,0,0.00,11.658000,51.405514,-2.819333,1.79,14.99,0.00,-14,-6,92,0,1,0,81,99,-8438,3096,11658,3122.50,16,P_GPS,1,0,660,-327,0,0,0,1531403678941,3962,3950,3943,0,0,0,13,,,,,,,0,0,0,145,-65,920,-30,0,911,6,45,67.48,165.46,8,66,0,0,,,100,100,0,1,0,0,0,2,0,,,,,0.0,0.0,0
51.405513,-2.819085,15,15,15.34,56,15,15,15.34,56,7525,2018-07-12 13:54:39.059,2018-07-12 14:54:39.059,21,0,0.00,11.658000,51.405514,-2.819333,2.01,15.21,0.00,-14,-6,91,0,1,0,81,99,-8438,3096,11658,3122.50,16,P_GPS,1,0,660,-326,0,0,0,1531403679059,3962,3950,3943,0,0,0,13,,,,,,,0,0,0,146,-62,919,-30,0,911,6,46,68.59,172.06,8,68,0,0,,,100,100,0,1,0,0,0,2,0,,,,,0.0,0.0,0
51.405514,-2.819076,15,15,15.34,58,15,15,15.34,58,7600,2018-07-12 13:54:39.134,2018-07-12 14:54:39.134,21,0,0.00,11.658000,51.405514,-2.819333,2.01,15.21,0.00,-14,-6,91,0,1,0,81,99,-8438,3096,11658,3122.50,16,P_GPS,1,0,660,-326,0,0,0,1531403679134,3962,3950,3943,0,0,0,13,,,,,,,0,0,0,146,-60,919,-30,0,911,6,46,68.59,178.74,8,68,0,0,,,100,100,0,1,0,0,0,2,0,,,,,0.0,0.0,0
51.405515,-2.819066,15,15,15.60,60,15,15,15.60,60,7700,2018-07-12 13:54:39.235,2018-07-12 14:54:39.235,21,0,0.00,11.658000,51.405514,-2.819333,2.24,15.43,0.00,-14,-6,91,0,1,0,81,99,-8438,3096,11658,3122.50,16,P_GPS,1,0,660,-325,0,0,0,1531403679234,3962,3950,3943,0,0,0,13,,,,,,,0,0,0,144,-60,919,-30,0,911,6,46,69.72,185.48,10,69,0,0,,,100,100,0,1,0,0,0,2,0,,,,,0.0,0.0,0
51.405516,-2.819056,15,15,15.60,63,15,15,15.60,63,7802,2018-07-12 13:54:39.336,2018-07-12 14:54:39.338,21,0,0.00,11.658000,51.405514,-2.819333,2.24,15.43,0.00,-14,-6,91,0,1,0,81,99,-8438,3096,11658,3122.50,16,P_GPS,1,0,660,-325,0,0,0,1531403679336,3962,3950,3943,0,0,0,13,,,,,,,0,0,0,145,-60,919,-30,0,911,6,46,69.72,192.30,10,69,0,0,,,100,100,0,1,0,0,0,2,0,,,,,0.0,0.0,0
51.405517,-2.819046,15,15,15.85,65,15,15,15.85,65,7911,2018-07-12 13:54:39.537,2018-07-12 14:54:39.537,21,0,0.00,11.810000,51.405514,-2.819333,2.46,15.66,0.00,-15,-5,91,0,1,0,81,99,-7778,3092,11810,3122.50,16,P_GPS,1,0,660,-314,0,0,0,1531403679445,3962,3950,3943,0,0,0,13,,,,,,,0,0,0,150,-55,919,-30,0,911,6,46,70.86,199.08,11,70,0,0,,,100,100,0,1,0,0,0,2,0,,,,,0.0,0.0,0
51.405518,-2.819037,15,15,15.85,67,15,15,15.85,67,8014,2018-07-12 13:54:39.549,2018-07-12 14:54:39.549,21,0,0.00,11.810000,51.405514,-2.819333,2.46,15.66,0.00,-15,-5,91,0,1,0,81,99,-7778,3092,11810,3122.50,16,P_GPS,1,0,660,-314,0,0,0,1531403679548,3962,3950,3943,0,0,0,13,,,,,,,0,0,0,150,-57,917,-30,0,911,6,46,70.86,205.96,11,70,0,0,,,100,100,0,1,0,0,0,2,0,,,,,0.0,0.0,0
51.405519,-2.819027,15,15,16.11,69,15,15,16.11,69,8170,2018-07-12 13:54:39.705,2018-07-12 14:54:39.705,21,0,0.00,11.810000,51.405514,-2.819333,2.68,15.88,0.00,-15,-5,91,0,1,0,81,99,-7778,3092,11810,3122.50,16,P_GPS,1,0,660,-311,0,0,0,1531403679704,3962,3950,3943,0,0,0,13,,,,,,,0,0,0,151,-55,919,-30,0,911,6,46,72.01,212.93,12,70,0,0,,,100,100,0,1,0,0,0,2,0,,,,,0.0,0.0,0
51.405520,-2.819016,15,15,16.33,72,15,15,16.33,72,8221,2018-07-12 13:54:39.756,2018-07-12 14:54:39.756,21,0,0.00,11.810000,51.405514,-2.819333,2.68,16.11,0.00,-15,-5,91,0,1,0,81,99,-7778,3092,11810,3122.50,16,P_GPS,1,0,660,-306,0,0,0,1531403679755,3962,3950,3943,0,0,0,13,,,,,,,0,0,0,150,-50,919,-30,0,911,6,45,72.99,220.01,12,71,0,0,,,100,100,0,1,0,0,0,2,0,,,,,0.0,0.0,0
51.405521,-2.819006,15,15,16.33,74,15,15,16.33,74,8301,2018-07-12 13:54:39.835,2018-07-12 14:54:39.835,21,0,0.00,11.810000,51.405514,-2.819333,2.68,16.11,0.00,-15,-5,91,0,1,0,81,99,-7778,3092,11810,3122.50,16,P_GPS,1,0,660,-302,0,0,0,1531403679835,3962,3950,3943,0,0,0,13,,,,,,,0,0,0,151,-52,919,-30,0,911,6,45,72.99,227.22,12,71,0,0,,,100,100,0,1,0,0,0,2,0,,,,,0.0,0.0,0
51.405522,-2.818996,15,15,16.55,76,15,15,16.55,76,8417,2018-07-12 13:54:39.952,2018-07-12 14:54:39.952,21,0,0.00,11.810000,51.405514,-2.819333,2.68,16.33,0.00,-15,-4,91,0,1,0,81,99,-7778,3092,11810,3122.50,16,P_GPS,1,0,660,-294,0,0,0,1531403679951,3962,3950,3943,0,0,0,13,,,,,,,0,0,0,151,-49,919,-30,0,911,6,45,73.98,234.52,12,73,0,0,,,100,100,0,1,0,0,0,2,0,,,,,0.0,0.0,0
51.405523,-2.818985,15,15,16.81,79,15,15,16.81,79,8532,2018-07-12 13:54:40.070,2018-07-12 14:54:40.070,21,0,0.00,11.810000,51.405514,-2.819333,2.91,16.55,0.00,-15,-5,91,0,1,0,81,99,-7778,3092,11810,3122.50,16,P_GPS,1,0,660,-289,0,0,0,1531403680066,3962,3950,3943,0,0,0,13,,,,,,,0,0,0,153,-50,917,-30,0,911,6,45,75.13,241.95,12,74,0,0,,,100,100,0,1,0,0,0,2,0,,,,,0.0,0.0,0
51.405525,-2.818974,15,15,16.81,81,15,15,16.81,81,8597,2018-07-12 13:54:40.131,2018-07-12 14:54:40.132,21,0,0.00,11.810000,51.405514,-2.819333,2.91,16.55,0.00,-15,-5,91,0,1,0,81,99,-7778,3092,11810,3122.50,16,P_GPS,1,0,660,-289,0,0,0,1531403680131,3962,3950,3943,0,0,0,13,,,,,,,0,0,0,150,-50,917,-30,0,911,6,45,75.13,249.45,12,74,0,0,,,100,100,0,1,0,0,0,2,0,,,,,0.0,0.0,0
51.405526,-2.818963,15,15,17.03,84,15,15,17.03,84,8699,2018-07-12 13:54:40.233,2018-07-12 14:54:40.234,21,0,0.00,11.810000,51.405514,-2.819333,2.91,16.78,0.00,-15,-4,91,0,1,0,81,99,-7778,3092,11810,3122.50,16,P_GPS,1,0,660,-286,0,0,0,1531403680233,3962,3950,3943,0,0,0,13,,,,,,,0,0,0,150,-47,917,-30,0,911,6,45,76.12,257.19,12,75,0,0,,,100,100,0,1,0,0,0,2,0,,,,,0.0,0.0,0
51.405527,-2.818952,15,15,17.25,86,15,15,17.25,86,8793,2018-07-12 13:54:40.328,2018-07-12 14:54:40.328,21,0,0.00,11.810000,51.405514,-2.819333,2.91,17.00,0.00,-15,-4,91,0,1,0,81,99,-7778,3092,11810,3122.50,16,P_GPS,1,0,660,-273,0,0,0,1531403680327,3962,3950,3943,0,0,0,13,,,,,,,0,0,0,153,-42,919,-30,0,911,6,45,77.10,264.97,12,75,0,0,,,100,100,0,1,0,0,0,2,0,,,,,0.0,0.0,0
51.405528,-2.818941,15,15,17.29,89,15,15,17.29,89,8896,2018-07-12 13:54:40.430,2018-07-12 14:54:40.431,21,0,0.00,11.810000,51.405514,-2.819333,3.13,17.00,0.00,-15,-4,91,0,1,0,81,99,-7778,3092,11810,3122.50,16,P_GPS,1,0,660,-266,0,0,0,1531403680430,3962,3950,3943,0,0,0,13,,,,,,,0,0,0,153,-40,917,-30,0,911,6,45,77.28,272.68,13,75,0,0,,,100,100,0,1,0,0,0,2,0,,,,,0.0,0.0,0
51.405529,-2.818930,15,15,17.51,92,15,15,17.51,92,8999,2018-07-12 13:54:40.626,2018-07-12 14:54:40.626,21,0,0.00,11.984000,51.405514,-2.819333,3.13,17.22,0.00,-15,-3,91,0,1,0,81,99,-7788,3087,11984,3122.50,16,P_GPS,1,0,660,-263,0,0,0,1531403680533,3962,3950,3943,0,0,0,13,,,,,,,0,0,0,151,-39,917,-30,0,911,6,45,78.26,280.44,13,76,0,0,,,100,100,0,1,0,0,0,2,0,,,,,0.0,0.0,0
51.405531,-2.818919,15,15,17.73,94,15,15,17.73,94,9126,2018-07-12 13:54:40.661,2018-07-12 14:54:40.662,21,0,0.00,11.984000,51.405514,-2.819333,3.13,17.45,0.00,-15,-3,91,0,1,0,81,99,-7788,3087,11984,3122.50,16,P_GPS,1,0,660,-263,0,0,0,1531403680660,3962,3950,3943,0,0,0,13,,,,,,,0,0,0,154,-39,917,-30,0,911,6,45,79.25,288.31,13,78,0,0,,,100,100,0,1,0,0,0,2,0,,,,,0.0,0.0,0
51.405532,-2.818908,15,15,17.73,97,15,15,17.73,97,9223,2018-07-12 13:54:40.757,2018-07-12 14:54:40.758,21,0,0.00,11.984000,51.405514,-2.819333,3.13,17.45,0.00,-15,-3,91,0,1,0,81,99,-7788,3087,11984,3122.50,16,P_GPS,1,0,660,-263,0,0,0,1531403680757,3962,3950,3943,0,0,0,13,,,,,,,0,0,0,155,-37,917,-30,0,911,6,45,79.25,296.25,13,78,0,0,,,100,100,0,1,0,0,0,2,0,,,,,0.0,0.0,0
51.405533,-2.818896,15,15,17.91,99,15,15,17.91,99,9354,2018-07-12 13:54:40.888,2018-07-12 14:54:40.889,21,0,0.00,11.984000,51.405514,-2.819333,2.91,17.67,0.00,-15,-3,91,0,1,0,81,99,-7788,3087,11984,3122.50,16,P_GPS,1,0,660,-261,0,0,0,1531403680888,3962,3950,3943,0,0,0,13,,,,,,,0,0,0,156,-34,915,-30,0,911,6,45,80.06,304.37,12,79,0,0,,,100,100,0,1,0,0,0,2,0,,,,,0.0,0.0,0
51.405534,-2.818885,15,15,19.24,102,15,15,19.24,102,9408,2018-07-12 13:54:40.942,2018-07-12 14:54:40.942,21,0,0.00,11.984000,51.405514,-2.819333,2.91,19.01,0.00,-15,-3,91,0,1,0,81,99,-7788,3087,11984,3122.50,16,P_GPS,1,0,660,-258,0,0,0,1531403680942,3962,3950,3943,0,0,0,13,,,,,,,0,0,0,153,-35,915,-30,0,911,6,45,85.99,312.53,12,85,0,0,,,100,100,0,1,0,0,0,2,0,,,,,0.0,0.0,0
51.405535,-2.818873,15,15,19.68,105,15,15,19.68,105,9511,2018-07-12 13:54:41.045,2018-07-12 14:54:41.046,21,0,0.00,11.984000,51.405514,-2.819333,2.91,19.46,0.00,-15,-3,91,0,1,0,81,99,-7788,3087,11984,3122.50,16,P_GPS,1,0,660,-256,0,0,0,1531403681045,3962,3950,3943,0,0,0,13,,,,,,,0,0,0,153,-37,915,-30,0,911,6,45,87.97,320.59,12,86,0,0,,,100,100,0,1,0,0,0,2,0,,,,,0.0,0.0,0
51.405537,-2.818861,15,15,19.87,107,15,15,19.87,107,9598,2018-07-12 13:54:41.133,2018-07-12 14:54:41.133,21,0,0.00,11.984000,51.405514,-2.819333,2.68,19.69,0.00,-14,-3,91,0,1,0,81,99,-7788,3087,11984,3122.50,16,P_GPS,1,0,660,-256,0,0,0,1531403681132,3962,3950,3943,0,0,0,13,,,,,,,0,0,0,148,-35,915,-30,0,911,6,45,88.81,328.70,12,88,0,0,,,100,100,0,1,0,0,0,2,0,,,,,0.0,0.0,0
51.405538,-2.818850,15,15,20.09,110,15,15,20.09,110,9702,2018-07-12 13:54:41.237,2018-07-12 14:54:41.237,21,0,0.00,11.984000,51.405514,-2.819333,2.68,19.91,0.00,-14,-3,91,0,1,0,81,99,-7788,3087,11984,3122.50,16,P_GPS,1,0,660,-255,0,0,0,1531403681236,3962,3950,3943,0,0,0,13,,,,,,,0,0,0,143,-34,915,-30,0,911,6,45,89.81,336.88,12,88,0,0,,,100,100,0,1,0,0,0,2,0,,,,,0.0,0.0,0
51.405539,-2.818838,15,15,20.31,113,15,15,20.31,113,9801,2018-07-12 13:54:41.335,2018-07-12 14:54:41.336,21,0,0.00,11.984000,51.405514,-2.819333,2.68,20.13,0.00,-13,-3,91,0,1,0,81,99,-7788,3087,11984,3122.50,16,P_GPS,1,0,660,-255,0,0,0,1531403681335,3962,3950,3943,0,0,0,13,,,,,,,0,0,0,138,-34,915,-30,0,911,6,45,90.80,345.12,12,90,0,0,,,100,100,0,1,0,0,0,2,0,,,,,0.0,0.0,0
51.405540,-2.818826,15,15,20.31,115,15,15,20.31,115,9908,2018-07-12 13:54:41.442,2018-07-12 14:54:41.443,21,0,0.00,11.984000,51.405514,-2.819333,2.68,20.13,0.00,-13,-3,91,0,1,0,81,99,-7788,3087,11984,3122.50,16,P_GPS,1,0,660,-254,0,0,0,1531403681442,3962,3950,3943,0,0,0,13,,,,,,,0,0,0,136,-32,915,-30,0,911,6,45,90.80,353.40,12,90,0,0,,,100,100,0,1,0,0,0,2,0,,,,,0.0,0.0,0
51.405541,-2.818814,15,15,20.31,118,15,15,20.31,118,10003,2018-07-12 13:54:41.639,2018-07-12 14:54:41.639,21,0,0.00,11.789000,51.405514,-2.819333,2.46,20.36,0.00,-13,-3,91,0,1,0,81,99,-7788,3087,11789,3122.50,16,P_GPS,1,0,660,-255,0,0,0,1531403681537,3962,3950,3943,0,0,0,13,,,,,,,0,0,0,131,-32,915,-30,0,911,6,45,90.80,361.70,11,91,0,0,,,100,100,0,1,0,0,0,2,0,,,,,0.0,0.0,0
51.405542,-2.818802,15,15,20.50,121,15,15,20.50,121,10109,2018-07-12 13:54:41.643,2018-07-12 14:54:41.644,21,0,0.00,11.789000,51.405514,-2.819333,2.46,20.36,0.00,-12,-3,91,0,1,0,81,99,-7788,3087,11789,3122.50,16,P_GPS,1,0,660,-255,0,0,0,1531403681643,3962,3950,3943,0,0,0,13,,,,,,,0,0,0,125,-32,914,-30,0,911,6,45,91.66,370.19,11,91,0,0,,,100,100,0,1,0,0,0,2,0,,,,,0.0,0.0,0
51.405543,-2.818790,15,15,20.50,124,15,15,20.50,124,10199,2018-07-12 13:54:41.734,2018-07-12 14:54:41.734,21,0,0.00,11.789000,51.405514,-2.819333,2.46,20.36,0.00,-12,-3,91,0,1,0,81,99,-7788,3087,11789,3122.50,16,P_GPS,1,0,660,-255,0,0,0,1531403681733,3962,3950,3943,0,0,0,13,,,,,,,0,0,0,125,-39,915,-30,0,911,6,45,91.66,378.67,11,91,0,0,,,100,100,0,1,0,0,0,2,0,,,,,0.0,0.0,0
51.405545,-2.818778,15,15,20.50,126,15,15,20.50,126,10300,2018-07-12 13:54:41.835,2018-07-12 14:54:41.835,21,0,0.00,11.789000,51.405514,-2.819333,2.46,20.36,0.00,-12,-3,91,0,1,0,81,99,-7788,3087,11789,3122.50,16,P_GPS,1,0,660,-255,0,0,0,1531403681834,3962,3950,3943,0,0,0,13,,,,,,,0,0,0,123,-34,914,-30,0,911,6,45,91.66,387.00,11,91,0,0,,,100,100,0,1,0,0,0,2,0,,,,,0.0,0.0,0
51.405546,-2.818767,15,15,20.50,129,15,15,20.50,129,10443,2018-07-12 13:54:41.978,2018-07-12 14:54:41.979,21,0,0.00,11.789000,51.405514,-2.819333,2.46,20.36,0.00,-11,-3,91,0,1,0,81,99,-7788,3087,11789,3122.50,16,P_GPS,1,0,660,-254,0,0,0,1531403681977,3962,3950,3943,0,0,0,13,,,,,,,0,0,0,116,-36,914,-30,0,911,6,45,91.66,395.34,11,91,0,0,,,100,100,0,1,0,0,0,2,0,,,,,0.0,0.0,0
51.405547,-2.818755,15,15,20.73,132,15,15,20.73,132,10503,2018-07-12 13:54:42.037,2018-07-12 14:54:42.037,21,0,0.00,11.789000,51.405514,-2.819333,2.46,20.58,0.00,-11,-3,91,0,1,0,81,99,-7788,3087,11789,3122.50,16,P_GPS,1,0,660,-254,0,0,0,1531403682037,3962,3950,3943,0,0,0,13,,,,,,,0,0,0,116,-35,915,-30,0,911,6,45,92.66,403.70,11,91,0,0,,,100,100,0,1,0,0,0,2,0,,,,,0.0,0.0,0
51.405548,-2.818743,15,15,20.73,135,15,15,20.73,135,10589,2018-07-12 13:54:42.124,2018-07-12 14:54:42.124,21,0,0.00,11.789000,51.405514,-2.819333,2.46,20.58,0.00,-11,-3,91,0,1,0,81,99,-7788,3087,11789,3122.50,16,P_GPS,1,0,660,-254,0,0,0,1531403682123,3962,3950,3943,0,0,0,13,,,,,,,0,0,0,119,-35,914,-30,0,911,6,45,92.66,412.08,11,91,0,0,,,100,100,0,1,0,0,0,2,0,,,,,0.0,0.0,0
51.405549,-2.818731,15,15,20.73,137,15,15,20.73,137,10725,2018-07-12 13:54:42.259,2018-07-12 14:54:42.259,21,0,0.00,11.789000,51.405514,-2.819333,2.46,20.58,0.00,-11,-3,91,0,1,0,81,99,-7788,3087,11789,3122.50,16,P_GPS,1,0,660,-254,0,0,0,1531403682259,3962,3950,3943,0,0,0,13,,,,,,,0,0,0,115,-32,914,-30,0,911,6,45,92.66,420.60,11,91,0,0,,,100,100,0,1,0,0,0,2,0,,,,,0.0,0.0,0
51.405551,-2.818706,15,15,20.70,143,15,15,20.73,143,10907,2018-07-12 13:54:42.441,2018-07-12 14:54:42.442,21,0,0.00,11.789000,51.405514,-2.819333,2.24,20.58,0.00,-11,-3,91,0,1,0,81,99,-7788,3087,11789,3122.50,16,P_GPS,1,0,660,-253,0,0,0,1531403682441,3962,3950,3943,0,0,0,13,,,,,,,0,0,0,113,-32,915,-30,0,911,6,45,92.54,437.65,10,91,0,0,,,100,100,0,1,0,0,0,2,0,,,,,0.0,0.0,0
51.405552,-2.818694,15,15,20.70,146,15,15,20.73,146,11011,2018-07-12 13:54:42.634,2018-07-12 14:54:42.634,21,0,0.00,11.963000,51.405514,-2.819333,2.24,20.58,0.00,-11,-3,91,0,1,0,81,99,-7788,3085,11963,3122.50,16,P_GPS,1,0,660,-252,0,0,0,1531403682545,3962,3950,3943,0,0,0,13,,,,,,,0,0,0,110,-32,914,-30,0,911,6,45,92.54,446.15,10,91,0,0,,,100,100,0,1,0,0,0,2,0,,,,,0.0,0.0,0
51.405553,-2.818682,15,15,20.70,149,15,15,20.73,149,11102,2018-07-12 13:54:42.636,2018-07-12 14:54:42.636,21,0,0.00,11.963000,51.405514,-2.819333,2.24,20.58,0.00,-11,-3,91,0,1,0,81,99,-7788,3085,11963,3122.50,16,P_GPS,1,0,660,-252,0,0,0,1531403682636,3962,3950,3943,0,0,0,13,,,,,,,0,0,0,110,-30,915,-30,0,911,6,45,92.54,454.68,10,91,0,0,,,100,100,0,1,0,0,0,2,0,,,,,0.0,0.0,0
51.405554,-2.818670,15,15,20.70,151,15,15,20.73,151,11197,2018-07-12 13:54:42.731,2018-07-12 14:54:42.732,21,0,0.00,11.963000,51.405514,-2.819333,2.24,20.58,0.00,-11,-3,91,0,1,0,81,99,-7788,3085,11963,3122.50,16,P_GPS,1,0,660,-252,0,0,0,1531403682731,3962,3950,3943,0,0,0,13,,,,,,,0,0,0,110,-32,915,-30,0,911,6,45,92.54,463.18,10,91,0,0,,,100,100,0,1,0,0,0,2,0,,,,,0.0,0.0,0
51.405555,-2.818658,15,15,20.92,154,15,15,20.92,154,11301,2018-07-12 13:54:42.835,2018-07-12 14:54:42.836,21,0,0.00,11.963000,51.405514,-2.819333,2.24,20.80,0.00,-10,-3,91,0,1,0,81,99,-7788,3085,11963,3122.50,16,P_GPS,1,0,660,-245,0,0,0,1531403682835,3962,3950,3943,0,0,0,13,,,,,,,0,0,0,105,-35,914,-30,0,911,6,45,93.54,471.69,10,93,0,0,,,100,100,0,1,0,0,0,2,0,,,,,0.0,0.0,0
51.405556,-2.818646,15,15,20.92,157,15,15,20.92,157,11402,2018-07-12 13:54:42.937,2018-07-12 14:54:42.937,21,0,0.00,11.963000,51.405514,-2.819333,2.24,20.80,0.00,-10,-3,91,0,1,0,81,99,-7788,3085,11963,3122.50,16,P_GPS,1,0,660,-236,0,0,0,1531403682936,3962,3950,3943,0,0,0,13,,,,,,,0,0,0,105,-35,914,-30,0,911,6,45,93.54,480.19,10,93,0,0,,,100,100,0,1,0,0,0,2,0,,,,,0.0,0.0,0
51.405557,-2.818634,15,15,20.92,160,15,15,20.92,160,11498,2018-07-12 13:54:43.032,2018-07-12 14:54:43.032,21,0,0.00,11.963000,51.405514,-2.819333,2.24,20.80,0.00,-10,-3,91,0,1,0,81,99,-7788,3085,11963,3122.50,16,P_GPS,1,0,660,-203,0,0,0,1531403683032,3962,3950,3943,0,0,0,13,,,,,,,0,0,0,105,-32,914,-30,0,911,6,45,93.54,488.65,10,93,0,0,,,100,100,0,1,0,0,0,2,0,,,,,0.0,0.0,0
51.405558,-2.818622,15,15,20.92,163,15,15,20.92,163,11602,2018-07-12 13:54:43.137,2018-07-12 14:54:43.137,21,0,0.00,11.963000,51.405514,-2.819333,2.24,20.80,0.00,-10,-3,91,0,1,0,81,99,-7788,3085,11963,3122.50,16,P_GPS,1,0,443,-154,0,0,0,1531403683136,3962,3950,3943,0,0,0,13,,,,,,,0,0,0,108,-32,914,-30,0,911,6,45,93.54,497.11,10,93,0,0,,,100,100,0,1,0,0,0,2,0,,,,,0.0,0.0,0
51.405559,-2.818610,15,15,20.92,165,15,15,20.92,165,11696,2018-07-12 13:54:43.230,2018-07-12 14:54:43.232,21,0,0.00,11.963000,51.405514,-2.819333,2.24,20.80,0.00,-7,-2,91,0,1,0,81,99,-7788,3085,11963,3122.50,16,P_GPS,1,0,240,-60,0,0,0,1531403683230,3962,3950,3943,0,0,0,13,,,,,,,0,0,0,78,-22,912,-30,0,911,6,45,93.54,505.41,10,93,0,0,,,100,100,0,1,0,0,0,2,0,,,,,0.0,0.0,0
51.405560,-2.818598,15,15,20.70,168,15,15,20.92,168,11797,2018-07-12 13:54:43.334,2018-07-12 14:54:43.335,21,0,0.00,11.963000,51.405514,-2.819333,2.24,20.58,0.00,-1,-2,91,0,1,0,81,99,-7788,3085,11963,3122.50,16,P_GPS,1,0,0,0,0,0,0,1531403683331,3962,3950,3943,0,0,0,13,,,,,,,0,0,0,11,-26,910,-30,0,911,6,45,92.54,513.69,10,91,0,0,,,100,100,0,1,0,0,0,2,0,,,,,0.0,0.0,0
51.405561,-2.818586,15,15,20.46,171,15,15,20.92,171,11899,2018-07-12 13:54:43.437,2018-07-12 14:54:43.437,21,0,0.00,11.963000,51.405514,-2.819333,2.01,20.36,-0.22,3,-2,90,0,1,0,81,99,-7788,3085,11963,3122.50,16,P_GPS,1,0,0,0,0,0,0,1531403683433,3962,3950,3943,0,0,0,13,,,,,,,0,0,0,-31,-22,909,-30,0,911,6,45,91.45,521.87,8,91,-1,0,,,100,100,0,1,0,0,0,2,0,,,,,0.0,0.0,0
51.405562,-2.818575,15,15,19.79,173,15,15,20.92,173,12020,2018-07-12 13:54:43.656,2018-07-12 14:54:43.656,21,0,0.00,11.876000,51.405514,-2.819333,1.79,19.01,-0.22,11,0,91,0,1,0,81,99,-7652,3085,11876,3122.50,16,P_GPS,1,0,0,0,0,0,0,1531403683554,3962,3950,3943,0,0,0,13,,,,,,,0,0,0,-116,-2,910,-30,0,911,6,46,88.46,529.89,8,85,-1,0,,,100,100,0,1,0,0,0,2,0,,,,,0.0,0.0,0
51.405563,-2.818564,15,15,19.10,176,15,15,20.92,176,12124,2018-07-12 13:54:43.658,2018-07-12 14:54:43.659,21,0,0.00,11.876000,51.405514,-2.819333,1.79,19.01,-0.22,13,1,91,0,1,0,81,99,-7652,3085,11876,3122.50,16,P_GPS,1,0,0,0,0,0,0,1531403683658,3962,3950,3943,0,0,0,13,,,,,,,0,0,0,-131,11,914,-30,0,911,6,46,85.38,537.58,8,85,-1,0,,,100,100,0,1,0,0,0,2,0,,,,,0.0,0.0,0
51.405564,-2.818553,15,15,18.43,178,15,15,20.92,178,12204,2018-07-12 13:54:43.738,2018-07-12 14:54:43.738,21,0,0.00,11.876000,51.405514,-2.819333,1.79,18.34,0.00,13,1,91,0,1,0,81,99,-7652,3085,11876,3122.50,16,P_GPS,1,0,0,0,0,0,0,1531403683738,3962,3950,3943,0,0,0,13,,,,,,,0,0,0,-136,18,915,-30,0,911,6,46,82.39,544.95,8,81,0,0,,,100,100,0,1,0,0,0,2,0,,,,,0.0,0.0,0
51.405565,-2.818543,15,15,17.52,181,15,15,20.92,181,12302,2018-07-12 13:54:43.837,2018-07-12 14:54:43.837,21,0,0.00,11.876000,51.405514,-2.819333,1.57,17.45,0.00,15,2,91,0,1,0,81,99,-7652,3085,11876,3122.50,16,P_GPS,1,0,0,0,0,0,0,1531403683836,3962,3950,3943,0,0,0,13,,,,,,,0,0,0,-151,25,917,-30,0,911,6,45,78.31,551.93,6,78,0,0,,,100,100,0,1,0,0,0,2,0,,,,,0.0,0.0,0
51.405566,-2.818534,15,15,16.63,183,15,15,20.92,183,12400,2018-07-12 13:54:43.934,2018-07-12 14:54:43.935,21,0,0.00,11.876000,51.405514,-2.819333,1.57,16.55,0.00,16,2,91,0,1,0,81,99,-7652,3085,11876,3122.50,16,P_GPS,1,0,0,0,0,0,0,1531403683934,3962,3950,3943,0,0,0,13,,,,,,,0,0,0,-161,25,917,-30,0,911,6,45,74.33,558.56,6,74,0,0,,,100,100,0,1,0,0,0,2,0,,,,,0.0,0.0,0
51.405566,-2.818525,15,15,15.74,185,15,15,20.92,185,12534,2018-07-12 13:54:44.068,2018-07-12 14:54:44.068,21,0,0.00,11.876000,51.405514,-2.819333,1.57,15.66,0.00,16,2,91,0,1,0,81,99,-7652,3085,11876,3122.50,16,P_GPS,1,0,0,0,0,0,0,1531403684068,3962,3950,3943,0,0,0,13,,,,,,,0,0,0,-163,26,917,-30,0,911,6,45,70.35,564.76,6,70,0,0,,,100,100,0,1,0,0,0,2,0,,,,,0.0,0.0,0
51.405567,-2.818517,15,15,14.82,187,15,15,20.92,187,12599,2018-07-12 13:54:44.134,2018-07-12 14:54:44.134,21,0,0.00,11.876000,51.405514,-2.819333,1.34,14.76,0.00,16,2,91,0,1,0,81,99,-7652,3085,11876,3122.50,16,P_GPS,1,0,0,0,0,0,0,1531403684133,3962,3950,3943,0,0,0,13,,,,,,,0,0,0,-160,22,917,-30,0,911,6,45,66.27,570.62,6,65,0,0,,,100,100,0,1,0,0,0,2,0,,,,,0.0,0.0,0
51.405568,-2.818509,15,15,13.93,188,15,15,20.92,188,12691,2018-07-12 13:54:44.225,2018-07-12 14:54:44.226,21,0,0.00,11.876000,51.405514,-2.819333,1.34,13.87,0.00,16,2,91,0,1,0,81,99,-7652,3085,11876,3122.50,16,P_GPS,1,0,0,0,0,0,0,1531403684225,3962,3950,3943,0,0,0,13,,,,,,,0,0,0,-161,23,915,-30,0,911,6,45,62.29,576.06,6,61,0,0,,,100,100,0,1,0,0,0,2,0,,,,,0.0,0.0,0
51.405568,-2.818502,15,15,12.80,190,15,15,20.92,190,12810,2018-07-12 13:54:44.344,2018-07-12 14:54:44.345,21,0,0.00,11.876000,51.405514,-2.819333,1.12,12.75,0.00,16,2,91,0,1,0,81,99,-7652,3085,11876,3122.50,16,P_GPS,1,0,0,0,0,0,0,1531403684344,3962,3950,3943,0,0,0,13,,,,,,,0,0,0,-163,23,915,-30,0,911,6,45,57.22,581.18,5,56,0,0,,,100,100,0,1,0,0,0,2,0,,,,,0.0,0.0,0
51.405569,-2.818495,15,15,11.91,192,15,15,20.92,192,12905,2018-07-12 13:54:44.439,2018-07-12 14:54:44.440,21,0,0.00,11.876000,51.405514,-2.819333,1.12,11.86,0.00,16,2,91,0,1,0,81,99,-7652,3085,11876,3122.50,16,P_GPS,1,0,0,0,0,0,0,1531403684439,3962,3950,3943,0,0,0,13,,,,,,,0,0,0,-163,22,915,-30,0,911,6,45,53.24,585.91,5,53,0,0,,,100,100,0,1,0,0,0,2,0,,,,,0.0,0.0,0
51.405569,-2.818489,15,15,11.00,193,15,15,20.92,193,13024,2018-07-12 13:54:44.644,2018-07-12 14:54:44.644,21,0,0.00,11.832000,51.405514,-2.819333,0.89,9.84,0.00,16,2,91,0,1,0,81,99,-7188,3083,11832,3123.50,16,P_GPS,1,0,0,0,0,0,0,1531403684558,3962,3950,3943,0,0,0,13,,,,,,,0,0,0,-163,22,915,-30,0,911,6,45,49.16,590.30,4,44,0,0,,,100,100,0,1,0,0,0,2,0,,,,,0.0,0.0,0
51.405569,-2.818483,15,15,9.88,194,15,15,20.92,194,13113,2018-07-12 13:54:44.648,2018-07-12 14:54:44.648,21,0,0.00,11.832000,51.405514,-2.819333,0.89,9.84,0.00,16,2,91,0,1,0,81,99,-7188,3083,11832,3123.50,16,P_GPS,1,0,0,0,0,0,0,1531403684647,3962,3950,3943,0,0,0,13,,,,,,,0,0,0,-163,20,915,-30,0,911,6,45,44.18,594.32,4,44,0,0,,,100,100,0,1,0,0,0,2,0,,,,,0.0,0.0,0
51.405570,-2.818478,15,15,8.99,196,15,15,20.92,196,13196,2018-07-12 13:54:44.730,2018-07-12 14:54:44.730,21,0,0.00,11.832000,51.405514,-2.819333,0.89,8.95,0.00,16,2,91,0,1,0,81,99,-7188,3083,11832,3123.50,16,P_GPS,1,0,0,0,0,0,0,1531403684730,3962,3950,3943,0,0,0,13,,,,,,,0,0,0,-166,21,915,-30,0,911,6,45,40.20,598.00,4,40,0,0,,,100,100,0,1,0,0,0,2,0,,,,,0.0,0.0,0
51.405570,-2.818473,15,15,8.08,197,15,15,20.92,197,13295,2018-07-12 13:54:44.829,2018-07-12 14:54:44.829,21,0,0.00,11.832000,51.405514,-2.819333,0.67,8.05,0.00,16,2,91,0,1,0,81,99,-7188,3083,11832,3123.50,16,P_GPS,1,0,0,0,0,0,0,1531403684829,3962,3950,3943,0,0,0,13,,,,,,,0,0,0,-168,22,915,-30,0,911,6,45,36.12,601.38,3,35,0,0,,,100,100,0,1,0,0,0,2,0,,,,,0.0,0.0,0
51.405570,-2.818469,15,15,7.17,198,15,15,20.92,198,13395,2018-07-12 13:54:44.929,2018-07-12 14:54:44.930,21,0,0.00,11.832000,51.405514,-2.819333,0.45,7.16,0.00,17,1,91,0,1,0,81,99,-7188,3083,11832,3123.50,16,P_GPS,1,0,0,0,0,0,0,1531403684929,3962,3950,3943,0,0,0,13,,,,,,,0,0,0,-171,18,914,-30,0,911,6,45,32.06,604.40,2,32,0,0,,,100,100,0,1,0,0,0,2,0,,,,,0.0,0.0,0
51.405571,-2.818465,15,15,6.06,199,15,15,20.92,199,13523,2018-07-12 13:54:45.058,2018-07-12 14:54:45.058,21,0,0.00,11.832000,51.405514,-2.819333,0.45,6.04,0.00,17,1,91,0,1,0,81,99,-7188,3083,11832,3123.50,16,P_GPS,1,0,0,0,0,0,0,1531403685057,3962,3950,3943,0,0,0,13,,,,,,,0,0,0,-176,11,910,-30,0,911,6,45,27.07,607.05,2,27,0,0,,,100,100,0,1,0,0,0,2,0,,,,,0.0,0.0,0
51.405571,-2.818462,15,15,5.15,199,15,15,20.92,199,13610,2018-07-12 13:54:45.145,2018-07-12 14:54:45.145,21,0,0.00,11.832000,51.405514,-2.819333,0.22,5.14,0.00,18,0,90,0,1,0,81,99,-7188,3083,11832,3123.50,16,P_GPS,1,0,0,0,0,0,0,1531403685144,3962,3950,3943,0,0,0,13,,,,,,,0,0,0,-181,2,907,-30,0,911,6,45,23.02,609.32,1,22,0,0,,,100,100,0,1,0,0,0,2,0,,,,,0.0,0.0,0
51.405571,-2.818459,15,15,4.26,200,15,15,20.92,200,13724,2018-07-12 13:54:45.259,2018-07-12 14:54:45.259,21,0,0.00,11.832000,51.405514,-2.819333,0.22,4.25,0.00,17,0,90,0,1,0,81,99,-7188,3083,11832,3123.50,16,P_GPS,1,0,0,0,0,0,0,1531403685258,3962,3950,3943,0,0,0,13,,,,,,,0,0,0,-171,-5,907,-30,0,911,6,45,19.03,611.15,1,18,0,0,,,100,100,0,1,0,0,0,2,0,,,,,0.0,0.0,0
51.405571,-2.818457,15,15,3.36,200,15,15,20.92,200,13793,2018-07-12 13:54:45.327,2018-07-12 14:54:45.327,21,0,0.00,11.832000,51.405514,-2.819333,0.00,3.36,0.00,15,0,90,0,1,0,81,99,-7188,3083,11832,3123.50,16,P_GPS,1,0,0,0,0,0,0,1531403685327,3962,3950,3943,0,0,0,13,,,,,,,0,0,0,-151,-1,905,-30,0,911,6,45,15.00,612.60,0,15,0,0,,,100,100,0,1,0,0,0,2,0,,,,,0.0,0.0,0
51.405571,-2.818455,15,15,2.46,201,15,15,20.92,201,13896,2018-07-12 13:54:45.431,2018-07-12 14:54:45.431,21,0,0.00,11.832000,51.405514,-2.819333,0.00,2.46,0.00,13,0,90,0,1,0,81,99,-7188,3083,11832,3123.50,16,P_GPS,1,0,0,0,0,0,0,1531403685430,3962,3950,3943,0,0,0,13,,,,,,,0,0,0,-136,8,907,-30,0,911,6,45,11.00,613.76,0,11,0,0,,,100,100,0,1,0,0,0,2,0,,,,,0.0,0.0,0
51.405571,-2.818454,15,15,1.79,201,15,15,20.92,201,13997,2018-07-12 13:54:45.532,2018-07-12 14:54:45.532,21,0,0.00,12.006000,51.405514,-2.819333,0.00,1.79,0.00,13,0,90,0,1,0,81,99,-5880,3079,12006,3123.50,16,P_GPS,1,0,0,0,0,0,0,1531403685531,3962,3950,3943,0,0,0,13,,,,,,,0,0,0,-135,4,909,-30,0,911,6,45,8.00,614.61,0,8,0,0,,,100,100,0,1,0,0,0,2,0,,,,,0.0,0.0,0
51.405571,-2.818453,15,15,1.12,201,15,15,20.92,201,14095,2018-07-12 13:54:45.721,2018-07-12 14:54:45.721,20,0,0.00,12.006000,51.405514,-2.819333,0.00,1.12,0.00,11,0,90,0,1,0,81,99,-5880,3079,12006,3123.50,16,P_GPS,1,0,0,0,0,0,0,1531403685629,3962,3950,3943,0,0,0,13,,,,,,,0,0,0,-111,-1,907,-30,0,911,6,45,5.00,615.20,0,5,0,0,,,100,100,0,1,0,0,0,2,0,,,,,0.0,0.0,0
51.405571,-2.818453,15,15,0.67,201,15,15,20.92,201,14192,2018-07-12 13:54:45.726,2018-07-12 14:54:45.727,20,0,0.00,12.006000,51.405514,-2.819333,0.00,0.67,0.00,7,0,90,0,1,0,81,99,-5880,3079,12006,3123.50,16,P_GPS,1,0,0,0,0,0,0,1531403685726,3962,3950,3943,0,0,0,13,,,,,,,0,0,0,-75,-5,909,-30,0,911,6,45,3.00,615.52,0,3,0,0,,,100,100,0,1,0,0,0,2,0,,,,,0.0,0.0,0
51.405571,-2.818452,15,15,0.22,202,15,15,20.92,202,14295,2018-07-12 13:54:45.829,2018-07-12 14:54:45.829,20,0,0.00,12.006000,51.405514,-2.819333,0.00,0.22,0.00,4,-1,91,0,1,0,81,99,-5880,3079,12006,3123.50,16,P_GPS,1,0,0,0,0,0,0,1531403685829,3962,3950,3943,0,0,0,13,,,,,,,0,0,0,-42,-13,910,-30,0,911,6,45,1.00,615.71,0,1,0,0,,,100,100,0,1,0,0,0,2,0,,,,,0.0,0.0,0
51.405571,-2.818452,15,15,0.00,202,15,15,20.92,202,14394,2018-07-12 13:54:45.929,2018-07-12 14:54:45.929,20,0,0.00,12.006000,51.405514,-2.819333,0.00,0.00,0.00,2,-1,91,0,1,0,81,99,-5880,3079,12006,3123.50,16,P_GPS,1,0,0,0,0,0,0,1531403685928,3962,3950,3943,0,0,0,13,,,,,,,0,0,0,-21,-17,912,-30,0,911,6,45,0.00,615.75,0,0,0,0,,,100,100,0,1,0,0,0,2,0,,,,,0.0,0.0,0
51.405571,-2.818452,15,15,0.00,202,15,15,20.92,202,14504,2018-07-12 13:54:46.039,2018-07-12 14:54:46.039,20,0,0.00,12.006000,51.405514,-2.819333,0.00,0.00,0.00,0,-1,91,0,1,0,81,99,-5880,3079,12006,3123.50,16,P_GPS,1,0,0,0,0,0,0,1531403686038,3962,3950,3943,0,0,0,13,,,,,,,0,0,0,-4,-13,912,-30,0,911,6,45,0.00,615.81,0,0,0,0,,,100,100,0,1,0,0,0,2,0,,,,,0.0,0.0,0
51.405571,-2.818452,15,15,0.00,202,15,15,20.92,202,14604,2018-07-12 13:54:46.139,2018-07-12 14:54:46.139,20,0,0.00,12.006000,51.405514,-2.819333,0.00,0.00,0.00,0,-1,91,0,1,0,81,99,-5880,3079,12006,3123.50,16,P_GPS,1,0,0,0,0,0,0,1531403686138,3962,3950,3943,0,0,0,13,,,,,,,0,0,0,4,-16,912,-30,0,911,6,45,0.00,615.78,0,0,0,0,,,100,100,0,1,0,0,0,2,0,,,,,0.0,0.0,0
51.405570,-2.818452,15,15,0.00,202,15,15,20.92,202,14694,2018-07-12 13:54:46.229,2018-07-12 14:54:46.229,20,0,0.00,12.006000,51.405514,-2.819333,0.00,0.00,0.00,-1,-1,91,0,1,0,81,99,-5880,3079,12006,3123.50,16,P_GPS,1,0,0,0,0,0,0,1531403686228,3962,3950,3943,0,0,0,13,,,,,,,0,0,0,11,-17,912,-30,0,911,6,45,0.00,615.89,0,0,0,0,,,100,100,0,1,0,0,0,2,0,,,,,0.0,0.0,0
51.405570,-2.818452,15,15,0.00,202,15,15,20.92,202,14821,2018-07-12 13:54:46.355,2018-07-12 14:54:46.355,20,0,0.00,12.006000,51.405514,-2.819333,0.00,0.00,0.00,-1,-1,91,0,1,0,81,99,-5880,3079,12006,3123.50,16,P_GPS,1,0,0,0,0,0,0,1531403686355,3962,3950,3943,0,0,0,13,,,,,,,0,0,0,13,-16,912,-30,0,911,6,45,0.00,615.93,0,0,0,0,,,100,100,0,1,0,0,0,2,0,,,,,0.0,0.0,0
51.405570,-2.818452,15,15,0.00,202,15,15,20.92,202,14895,2018-07-12 13:54:46.429,2018-07-12 14:54:46.430,20,0,0.00,12.006000,51.405514,-2.819333,0.00,0.00,0.00,-1,-1,91,0,1,0,81,99,-5880,3079,12006,3123.50,16,P_GPS,1,0,0,0,0,0,0,1531403686429,3962,3950,3943,0,0,0,13,,,,,,,0,0,0,16,-13,914,-30,0,911,6,45,0.00,616.10,0,0,0,0,,,100,100,0,1,0,0,0,2,0,,,,,0.0,0.0,0
51.405570,-2.818452,15,15,0.00,202,15,15,20.92,202,14995,2018-07-12 13:54:46.529,2018-07-12 14:54:46.530,20,0,0.00,11.832000,51.405514,-2.819333,0.00,0.00,0.00,-1,-1,91,0,1,0,81,99,-5880,3079,11832,3123.50,16,P_GPS,1,0,0,0,0,0,0,1531403686529,3962,3950,3943,0,0,0,13,,,,,,,0,0,0,18,-18,912,-30,0,911,6,45,0.00,616.19,0,0,0,0,,,100,100,0,1,0,0,0,2,0,,,,,0.0,0.0,0
51.405570,-2.818451,15,15,0.00,202,15,15,20.92,202,15098,2018-07-12 13:54:46.724,2018-07-12 14:54:46.725,20,0,0.00,11.832000,51.405514,-2.819333,0.00,0.00,0.00,-1,-2,91,0,1,0,81,99,-5880,3079,11832,3123.50,16,P_GPS,1,0,0,0,0,0,0,1531403686632,3962,3950,3943,0,0,0,13,,,,,,,0,0,0,18,-22,912,-30,0,911,6,45,0.00,616.40,0,0,0,0,,,100,100,0,1,0,0,0,2,0,,,,,0.0,0.0,0
51.405570,-2.818451,15,15,0.00,202,15,15,20.92,202,15194,2018-07-12 13:54:46.728,2018-07-12 14:54:46.729,20,0,0.00,11.832000,51.405514,-2.819333,0.00,0.00,0.00,-1,-1,91,0,1,0,81,99,-5880,3079,11832,3123.50,16,P_GPS,1,0,0,0,0,0,0,1531403686728,3962,3950,3943,0,0,0,13,,,,,,,0,0,0,18,-18,912,-30,0,911,6,45,0.00,616.53,0,0,0,0,,,100,100,0,1,0,0,0,2,0,,,,,0.0,0.0,0
51.405570,-2.818451,15,15,0.00,202,15,15,20.92,202,15296,2018-07-12 13:54:46.830,2018-07-12 14:54:46.830,20,0,0.00,11.832000,51.405514,-2.819333,0.00,0.00,0.00,-1,-1,91,0,1,0,81,99,-5880,3079,11832,3123.50,16,P_GPS,1,0,0,0,0,0,0,1531403686830,3962,3950,3943,0,0,0,13,,,,,,,0,0,0,18,-15,914,-30,0,911,6,45,0.00,616.75,0,0,0,0,,,100,100,0,1,0,0,0,2,0,,,,,0.0,0.0,0
51.405570,-2.818451,15,15,0.00,202,15,15,20.92,202,15392,2018-07-12 13:54:46.926,2018-07-12 14:54:46.926,20,0,0.00,11.832000,51.405514,-2.819333,0.00,0.00,0.00,-1,-1,91,0,1,0,81,99,-5880,3079,11832,3123.50,16,P_GPS,1,0,0,0,0,0,0,1531403686926,3962,3950,3943,0,0,0,13,,,,,,,0,0,0,17,-15,914,-30,0,911,6,45,0.00,616.90,0,0,0,0,,,100,100,0,1,0,0,0,2,0,,,,,0.0,0.0,0
51.405570,-2.818450,15,15,0.00,202,15,15,20.92,202,15500,2018-07-12 13:54:47.034,2018-07-12 14:54:47.034,21,0,0.00,11.832000,51.405514,-2.819333,0.00,0.00,0.00,-1,-1,91,0,1,0,81,99,-5880,3079,11832,3123.50,16,P_GPS,1,0,0,0,0,0,0,1531403687034,3962,3950,3943,0,0,0,13,,,,,,,0,0,0,17,-11,915,-30,0,911,6,45,0.00,617.09,0,0,0,0,,,100,100,0,1,0,0,0,2,0,,,,,0.0,0.0,0
51.405571,-2.818450,15,15,0.00,202,15,15,20.92,202,15599,2018-07-12 13:54:47.133,2018-07-12 14:54:47.134,21,0,0.00,11.832000,51.405514,-2.819333,0.00,0.00,0.00,-1,-1,91,0,1,0,81,99,-5880,3079,11832,3123.50,16,P_GPS,1,0,0,0,0,0,0,1531403687133,3962,3950,3943,0,0,0,13,,,,,,,0,0,0,17,-11,915,-30,0,911,6,45,0.00,617.23,0,0,0,0,,,100,100,0,1,0,0,0,2,0,,,,,0.0,0.0,0
51.405571,-2.818450,15,15,0.00,202,15,15,20.92,202,15694,2018-07-12 13:54:47.229,2018-07-12 14:54:47.229,21,0,0.00,11.832000,51.405514,-2.819333,0.00,0.00,0.00,-1,-1,91,0,1,0,81,99,-5880,3079,11832,3123.50,16,P_GPS,1,0,0,0,0,0,0,1531403687228,3962,3950,3943,0,0,0,13,,,,,,,0,0,0,13,-11,915,-30,0,911,6,45,0.00,617.38,0,0,0,0,,,100,100,0,1,0,0,0,2,0,,,,,0.0,0.0,0
51.405571,-2.818450,15,15,0.00,202,15,15,20.92,202,15802,2018-07-12 13:54:47.341,2018-07-12 14:54:47.341,21,0,0.00,11.832000,51.405514,-2.819333,0.00,0.00,0.00,-1,-1,91,0,1,0,81,99,-5880,3079,11832,3123.50,16,P_GPS,1,0,0,0,0,0,0,1531403687336,3962,3950,3943,0,0,0,13,,,,,,,0,0,0,13,-11,915,-30,0,911,6,45,0.00,617.48,0,0,0,0,,,100,100,0,1,0,0,0,2,0,,,,,0.0,0.0,0
51.405571,-2.818450,15,15,0.00,202,15,15,20.92,202,15912,2018-07-12 13:54:47.446,2018-07-12 14:54:47.446,21,0,0.00,11.832000,51.405514,-2.819333,0.00,0.00,0.00,-1,-1,91,0,1,0,81,99,-5880,3079,11832,3123.50,16,P_GPS,1,0,0,0,0,0,0,1531403687446,3962,3950,3943,0,0,0,13,,,,,,,0,0,0,13,-11,912,-30,0,911,6,45,0.00,617.58,0,0,0,0,,,100,100,0,1,0,0,0,2,0,,,,,0.0,0.0,0
51.405571,-2.818449,15,15,0.00,202,15,15,20.92,202,15990,2018-07-12 13:54:47.525,2018-07-12 14:54:47.525,21,0,0.00,11.745000,51.405514,-2.819333,0.00,0.00,0.00,-1,-1,91,0,1,0,81,99,-8132,3077,11745,3123.50,16,P_GPS,1,0,0,0,0,0,0,1531403687524,3962,3950,3943,0,0,0,13,,,,,,,0,0,0,13,-13,912,-30,0,911,6,45,0.00,617.65,0,0,0,0,,,100,100,0,1,0,0,0,2,0,,,,,0.0,0.0,0
