latitude,longitude,altitude(feet),ascent(feet),speed(mph),distance(feet),max_altitude(feet),max_ascent(feet),max_speed(mph),max_distance(feet),time(millisecond),datetime(utc),datetime(local),satellites,pressure(Pa),temperature(F),voltage(v),home_latitude,home_longitude,velocityX(mph),velocityY(mph),velocityZ(mph),pitch(deg),roll(deg),yaw(deg),powerlevel,isflying,istakingphoto,remainPowerPercent,remainLifePercent,currentCurrent,currentElectricity,currentVoltage,batteryTemperature,dischargeCount,flightmode,isMotorsOn,isTakingVideo,Rc_elevator,Rc_aileron,Rc_throttle,Rc_rudder,Rc_gyro,timestamp,Battery_Cell1,Battery_Cell2,Battery_Cell3,Battery_Cell4,Battery_Cell5,Battery_Cell6,Dronetype,AppVersion,Planename,FlyControllerSerialNumber,RemoteSerialNumber,BatterySerialNumber,CENTER_BATTERY.productDate,CENTER_BATTERY.serialNo,CENTER_BATTERY.fullCapacity,CENTER_BATTERY.productDateRaw,pitchRaw,rollRaw,yawRaw,gimbalPitchRaw,gimbalRollRaw,gimbalYawRaw,flyState,altitudeRaw,speedRaw,distanceRaw,velocityXRaw,velocityYRaw,velocityZRaw,data_reuse,App_Tip,App_Warning,downlinkSignalQuality,uplinkSignalQuality,transmissionChannel,rcModeSwitch,rcHome,rcPause,rcTransform,rcJoystickMode,appMode,FlyControllerSerialNumber_legacy,RemoteSerialNumber_legacy,BatterySerialNumber_legacy,Battery2SerialNumber,frontAvoidDist,backAvoidDist,isBrakingToAvoid
51.405554,-2.819226,116,116,0,28,116,116,10.07,28,28953,00:29.0,00:29.0,21,0,0,11.528,51.405509,-2.819328,0,0,0,-2,-2,88,0,1,0,60,99,-8868,2261,11528,3151.5,16,P_GPS,1,0,0,0,0,0,0,1.5314E+12,3790,3782,3774,0,0,0,13,,,,,,,0,0,0,20,-20,889,-350,0,889,6,355,0,86.38,0,0,0,0,,,100,100,0,1,0,0,0,2,0,,,,,0,0,0
51.405554,-2.819226,116,116,0,28,116,116,10.07,28,29055,00:29.1,00:29.1,21,0,0,11.528,51.405509,-2.819328,0,0,0,-2,-1,88,0,1,0,60,99,-8868,2261,11528,3151.5,16,P_GPS,1,0,0,0,0,0,0,1.5314E+12,3790,3782,3774,0,0,0,13,,,,,,,0,0,0,21,-18,889,-350,0,889,6,355,0,86.38,0,0,0,0,,,100,100,0,1,0,0,0,2,0,,,,,0,0,0
51.405554,-2.819226,116,116,0,28,116,116,10.07,28,29164,00:29.2,00:29.2,21,0,0,11.528,51.405509,-2.819328,0,0,0,-2,-1,88,0,1,0,60,99,-8868,2261,11528,3151.5,16,P_GPS,1,0,0,0,0,0,0,1.5314E+12,3790,3782,3774,0,0,0,13,,,,,,,0,0,0,21,-18,889,-350,0,889,6,355,0,86.38,0,0,0,0,,,100,100,0,1,0,0,0,2,0,,,,,0,0,0
51.405554,-2.819226,116,116,0,28,116,116,10.07,28,29254,00:29.3,00:29.3,21,0,0,11.528,51.405509,-2.819328,0,0,0,-2,-1,88,0,1,0,60,99,-8868,2261,11528,3151.5,16,P_GPS,1,0,0,0,0,0,0,1.5314E+12,3778,3770,3761,0,0,0,13,,,,,,,0,0,0,21,-16,887,-350,0,889,6,355,0,86.39,0,0,0,0,,,100,100,0,1,0,0,0,2,0,,,,,0,0,0
51.405554,-2.819226,116,116,0,28,116,116,10.07,28,29355,00:29.4,00:29.4,21,0,0,11.528,51.405509,-2.819328,0,0,0,-2,-1,88,0,1,0,60,99,-8868,2261,11528,3151.5,16,P_GPS,1,1,0,0,0,0,0,1.5314E+12,3778,3770,3761,0,0,0,13,,,,,,,0,0,0,20,-18,889,-350,0,889,6,355,0,86.37,0,0,0,0,,,100,100,0,1,0,0,0,2,0,,,,,0,0,0
51.405554,-2.819226,116,116,0,28,116,116,10.07,28,29457,00:29.5,00:29.5,21,0,0,11.528,51.405509,-2.819328,0,0,0,-2,-1,88,0,1,0,60,99,-8868,2261,11528,3151.5,16,P_GPS,1,1,0,0,0,0,0,1.5314E+12,3778,3770,3761,0,0,0,13,,,,,,,0,0,0,20,-18,889,-350,0,889,6,355,0,86.35,0,0,0,0,,,100,100,0,1,0,0,0,2,0,,,,,0,0,0
51.405554,-2.819226,116,116,0,28,116,116,10.07,28,29553,00:29.6,00:29.6,21,0,0,11.288,51.405509,-2.819328,0,0,0,-2,-2,88,0,1,0,60,99,-8464,2256,11288,3151.5,16,P_GPS,1,1,0,0,0,0,0,1.5314E+12,3778,3770,3761,0,0,0,13,,,,,,,0,0,0,21,-20,889,-350,0,889,6,355,0,86.33,0,0,0,0,,,100,100,0,1,0,0,0,2,0,,,,,0,0,0
51.405554,-2.819226,116,116,0,28,116,116,10.07,28,29654,00:29.7,00:29.7,21,0,0,11.288,51.405509,-2.819328,0,0,0,-2,-2,88,0,1,0,60,99,-8464,2256,11288,3151.5,16,P_GPS,1,1,0,0,0,0,0,1.5314E+12,3778,3770,3761,0,0,0,13,,,,,,,0,0,0,20,-21,889,-350,0,889,6,355,0,86.33,0,0,0,0,,,100,100,0,1,0,0,0,2,0,,,,,0,0,0
51.405554,-2.819226,116,116,0,28,116,116,10.07,28,29786,00:30.0,00:30.0,21,0,0,11.288,51.405509,-2.819328,0,0,0,-1,-2,88,0,1,0,60,99,-8464,2256,11288,3151.5,16,P_GPS,1,1,0,0,0,0,0,1.5314E+12,3778,3770,3761,0,0,0,13,,,,,,,0,0,0,18,-20,889,-350,0,889,6,355,0,86.3,0,0,0,0,,,100,100,0,1,0,0,0,2,0,,,,,0,0,0
51.405554,-2.819226,116,116,0,28,116,116,10.07,28,29883,00:30.0,00:30.0,21,0,0,11.288,51.405509,-2.819328,0,0,0,-1,-1,88,0,1,0,60,99,-8464,2256,11288,3151.5,16,P_GPS,1,1,0,0,0,0,0,1.5314E+12,3778,3770,3761,0,0,0,13,,,,,,,0,0,0,18,-18,889,-350,0,889,6,355,0,86.29,0,0,0,0,,,100,100,0,1,0,0,0,2,0,,,,,0,0,0
51.405554,-2.819226,116,116,0,28,116,116,10.07,28,29958,00:30.0,00:30.0,21,0,0,11.288,51.405509,-2.819328,0,0,0,-2,-1,88,0,1,0,60,99,-8464,2256,11288,3151.5,16,P_GPS,1,1,0,0,0,0,0,1.5314E+12,3778,3770,3761,0,0,0,13,,,,,,,0,0,0,20,-18,889,-350,0,889,6,355,0,86.26,0,0,0,0,,,100,100,0,1,0,0,0,2,0,,,,,0,0,0
51.405554,-2.819226,116,116,0,28,116,116,10.07,28,30060,00:30.1,00:30.1,21,0,0,11.288,51.405509,-2.819328,0,0,0,-1,-2,88,0,1,0,60,99,-8464,2256,11288,3151.5,16,P_GPS,1,1,0,0,0,0,0,1.5314E+12,3778,3770,3761,0,0,0,13,,,,,,,0,0,0,18,-21,889,-350,0,889,6,355,0,86.24,0,0,0,0,,,100,100,0,1,0,0,0,2,0,,,,,0,0,0
51.405554,-2.819227,116,116,0,28,116,116,10.07,28,30157,00:30.2,00:30.2,21,0,0,11.288,51.405509,-2.819328,0,0,0,-1,-1,88,0,1,0,60,99,-8464,2256,11288,3151.5,16,P_GPS,1,1,0,0,0,0,0,1.5314E+12,3778,3770,3761,0,0,0,13,,,,,,,0,0,0,18,-17,889,-350,0,889,6,355,0,86.2,0,0,0,0,,,100,100,0,1,0,0,0,2,0,,,,,0,0,0
51.405554,-2.819227,116,116,0,28,116,116,10.07,28,30257,00:30.3,00:30.3,21,0,0,11.288,51.405509,-2.819328,0,0,0,-1,-1,88,0,1,0,60,99,-8464,2256,11288,3151.5,16,P_GPS,1,1,0,0,0,0,0,1.5314E+12,3778,3770,3761,0,0,0,13,,,,,,,0,0,0,18,-17,889,-350,0,889,6,355,0,86.18,0,0,0,0,,,100,100,0,1,0,0,0,2,0,,,,,0,0,0
51.405554,-2.819227,116,116,0,28,116,116,10.07,28,30361,00:30.4,00:30.4,21,0,0,11.288,51.405509,-2.819328,0,0,0,-1,-1,89,0,1,0,60,99,-8464,2256,11288,3151.5,16,P_GPS,1,1,0,0,0,0,0,1.5314E+12,3778,3770,3761,0,0,0,13,,,,,,,0,0,0,18,-16,890,-350,0,889,6,355,0,86.14,0,0,0,0,,,100,100,0,1,0,0,0,2,0,,,,,0,0,0
51.405554,-2.819227,116,116,0,28,116,116,10.07,28,30458,00:30.5,00:30.5,21,0,0,11.288,51.405509,-2.819328,0,0,0,-1,-1,89,0,1,0,60,99,-8464,2256,11288,3151.5,16,P_GPS,1,1,0,0,0,0,0,1.5314E+12,3778,3770,3761,0,0,0,13,,,,,,,0,0,0,17,-15,890,-350,0,889,6,354,0,86.12,0,0,0,0,,,100,100,0,1,0,0,0,2,0,,,,,0,0,0
51.405554,-2.819227,116,116,0,28,116,116,10.07,28,30557,00:30.6,00:30.6,21,0,0,11.267,51.405509,-2.819328,0,0,0,-1,-1,89,0,1,0,60,99,-8614,2254,11267,3153.5,16,P_GPS,1,1,0,0,0,0,0,1.5314E+12,3778,3770,3761,0,0,0,13,,,,,,,0,0,0,17,-15,890,-350,0,889,6,354,0,86.09,0,0,0,0,,,100,100,0,1,0,0,0,2,0,,,,,0,0,0
51.405554,-2.819227,116,116,0,28,116,116,10.07,28,30659,00:30.7,00:30.7,21,0,0,11.267,51.405509,-2.819328,0,0,0,-1,-1,89,0,1,0,60,99,-8614,2254,11267,3153.5,16,P_GPS,1,1,0,0,0,0,0,1.5314E+12,3778,3770,3761,0,0,0,13,,,,,,,0,0,0,17,-16,890,-350,0,889,6,354,0,86.08,0,0,0,0,,,100,100,0,1,0,0,0,2,0,,,,,0,0,0
51.405554,-2.819227,116,116,0,28,116,116,10.07,28,30819,00:31.0,00:31.0,21,0,0,11.267,51.405509,-2.819328,0,0,0,-1,-1,89,0,1,0,60,99,-8614,2254,11267,3153.5,16,P_GPS,1,1,0,0,0,0,0,1.5314E+12,3778,3770,3761,0,0,0,13,,,,,,,0,0,0,17,-16,890,-350,0,889,6,354,0,86.04,0,0,0,0,,,100,100,0,1,0,0,0,2,0,,,,,0,0,0
51.405554,-2.819227,116,116,0,28,116,116,10.07,28,30920,00:31.0,00:31.0,21,0,0,11.267,51.405509,-2.819328,0,0,0,-1,-1,89,0,1,0,60,99,-8614,2254,11267,3153.5,16,P_GPS,1,1,0,0,0,0,0,1.5314E+12,3778,3770,3761,0,0,0,13,,,,,,,0,0,0,17,-18,890,-350,0,889,6,354,0,86.01,0,0,0,0,,,100,100,0,1,0,0,0,2,0,,,,,0,0,0
51.405554,-2.819227,116,116,0,28,116,116,10.07,28,30962,00:31.0,00:31.0,21,0,0,11.267,51.405509,-2.819328,0,0,0,-1,-1,88,0,1,0,60,99,-8614,2254,11267,3153.5,16,P_GPS,1,1,0,0,0,0,0,1.5314E+12,3778,3770,3761,0,0,0,13,,,,,,,0,0,0,17,-17,889,-350,0,889,6,354,0,85.98,0,0,0,0,,,100,100,0,1,0,0,0,2,0,,,,,0,0,0
51.405554,-2.819227,116,116,0,28,116,116,10.07,28,31058,00:31.1,00:31.1,21,0,0,11.267,51.405509,-2.819328,0,0,0,-1,-1,89,0,1,0,60,99,-8614,2254,11267,3153.5,16,P_GPS,1,1,0,0,0,0,0,1.5314E+12,3778,3770,3761,0,0,0,13,,,,,,,0,0,0,18,-17,890,-350,0,889,6,354,0,85.96,0,0,0,0,,,100,100,0,1,0,0,0,2,0,,,,,0,0,0
51.405554,-2.819227,116,116,0,28,116,116,10.07,28,31158,00:31.2,00:31.2,21,0,0,11.267,51.405509,-2.819328,0,0,0,-1,-1,89,0,1,0,60,99,-8614,2254,11267,3153.5,16,P_GPS,1,1,0,0,0,0,0,1.5314E+12,3778,3770,3761,0,0,0,13,,,,,,,0,0,0,18,-16,890,-350,0,889,6,354,0,85.95,0,0,0,0,,,100,100,0,1,0,0,0,2,0,,,,,0,0,0
51.405554,-2.819227,116,116,0,28,116,116,10.07,28,31253,00:31.3,00:31.3,21,0,0,11.267,51.405509,-2.819328,0,0,0,-1,-1,89,0,1,0,60,99,-8614,2254,11267,3153.5,16,P_GPS,1,1,0,0,0,0,0,1.5314E+12,3778,3770,3761,0,0,0,13,,,,,,,0,0,0,18,-16,890,-350,0,889,6,354,0,85.93,0,0,0,0,,,100,100,0,1,0,0,0,2,0,,,,,0,0,0
51.405554,-2.819227,116,116,0,28,116,116,10.07,28,31356,00:31.4,00:31.4,21,0,0,11.267,51.405509,-2.819328,0,0,0,-2,-1,89,0,1,0,60,99,-8614,2254,11267,3153.5,16,P_GPS,1,1,0,0,0,0,0,1.5314E+12,3778,3770,3761,0,0,0,13,,,,,,,0,0,0,20,-17,890,-350,0,889,6,354,0,85.91,0,0,0,0,,,100,100,0,1,0,0,0,2,0,,,,,0,0,0
51.405554,-2.819227,116,116,0,28,116,116,10.07,28,31462,00:31.5,00:31.5,21,0,0,11.267,51.405509,-2.819328,0,0,0,-2,-1,89,0,1,0,60,99,-8614,2254,11267,3153.5,16,P_GPS,1,1,0,0,0,0,0,1.5314E+12,3778,3770,3761,0,0,0,13,,,,,,,0,0,0,21,-17,890,-350,0,889,6,354,0,85.88,0,0,0,0,,,100,100,0,1,0,0,0,2,0,,,,,0,0,0
51.405554,-2.819227,116,116,0,28,116,116,10.07,28,31555,00:31.6,00:31.6,21,0,0,11.093,51.405509,-2.819328,0,0,0,-2,-1,88,0,1,0,60,99,-8612,2254,11093,3153.5,16,P_GPS,1,1,0,0,0,0,0,1.5314E+12,3778,3770,3761,0,0,0,13,,,,,,,0,0,0,21,-16,889,-350,0,889,6,354,0,85.9,0,0,0,0,,,100,100,0,1,0,0,0,2,0,,,,,0,0,0
51.405554,-2.819227,116,116,0,28,116,116,10.07,28,31657,00:31.7,00:31.7,21,0,0,11.093,51.405509,-2.819328,0,0,0,-2,-1,89,0,1,0,60,99,-8612,2254,11093,3153.5,16,P_GPS,1,1,0,0,0,0,0,1.5314E+12,3778,3770,3761,0,0,0,13,,,,,,,0,0,0,20,-16,890,-350,0,889,6,354,0,85.92,0,0,0,0,,,100,100,0,1,0,0,0,2,0,,,,,0,0,0
51.405554,-2.819227,116,116,0,28,116,116,10.07,28,31760,00:31.8,00:31.8,21,0,0,11.093,51.405509,-2.819328,0,0,0,-2,-1,88,0,1,0,60,99,-8612,2254,11093,3153.5,16,P_GPS,1,1,0,0,0,0,0,1.5314E+12,3778,3770,3761,0,0,0,13,,,,,,,0,0,0,20,-13,889,-350,0,889,6,354,0,85.93,0,0,0,0,,,100,100,0,1,0,0,0,2,0,,,,,0,0,0
51.405554,-2.819227,116,116,0,28,116,116,10.07,28,31944,00:32.2,00:32.2,21,0,0,11.093,51.405509,-2.819328,0,0,0,-2,-1,88,0,1,0,60,99,-8612,2254,11093,3153.5,16,P_GPS,1,1,0,0,0,0,0,1.5314E+12,3778,3770,3761,0,0,0,13,,,,,,,0,0,0,20,-16,889,-350,0,889,6,355,0,85.93,0,0,0,0,,,100,100,0,1,0,0,0,2,0,,,,,0,0,0
51.405554,-2.819227,116,116,0,28,116,116,10.07,28,32111,00:32.2,00:32.2,21,0,0,11.093,51.405509,-2.819328,0,0,0,-2,-1,88,0,1,0,60,99,-8612,2254,11093,3153.5,16,P_GPS,1,1,0,0,0,0,0,1.5314E+12,3778,3770,3761,0,0,0,13,,,,,,,0,0,0,20,-16,889,-350,0,889,6,355,0,85.92,0,0,0,0,,,100,100,0,1,0,0,0,2,0,,,,,0,0,0
51.405554,-2.819227,116,116,0,28,116,116,10.07,28,32138,00:32.2,00:32.2,21,0,0,11.093,51.405509,-2.819328,0,0,0,-2,-1,89,0,1,0,60,99,-8612,2254,11093,3153.5,16,P_GPS,1,1,0,0,0,0,0,1.5314E+12,3778,3770,3761,0,0,0,13,,,,,,,0,0,0,20,-15,890,-350,0,889,6,355,0,85.91,0,0,0,0,,,100,100,0,1,0,0,0,2,0,,,,,0,0,0
51.405554,-2.819227,116,116,0,28,116,116,10.07,28,32158,00:32.2,00:32.2,21,0,0,11.093,51.405509,-2.819328,0,0,0,-2,-1,89,0,1,0,60,99,-8612,2254,11093,3153.5,16,P_GPS,1,1,0,0,0,0,0,1.5314E+12,3778,3770,3761,0,0,0,13,,,,,,,0,0,0,21,-15,890,-350,0,889,6,355,0,85.9,0,0,0,0,,,100,100,0,1,0,0,0,2,0,,,,,0,0,0
51.405554,-2.819227,116,116,0,28,116,116,10.07,28,32255,00:32.3,00:32.3,21,0,0,11.093,51.405509,-2.819328,0,0,0,-1,-1,89,0,1,0,60,99,-8612,2254,11093,3153.5,16,P_GPS,1,1,0,0,0,1,0,1.5314E+12,3778,3770,3761,0,0,0,13,,,,,,,0,0,0,18,-17,890,-350,0,889,6,355,0,85.9,0,0,0,0,,,100,100,0,1,0,0,0,2,0,,,,,0,0,0
51.405554,-2.819227,116,116,0,28,116,116,10.07,28,32356,00:32.4,00:32.4,21,0,0,11.093,51.405509,-2.819328,0,0,0,-1,-1,89,0,1,0,60,99,-8612,2254,11093,3153.5,16,P_GPS,1,1,0,0,0,15,0,1.5314E+12,3778,3770,3761,0,0,0,13,,,,,,,0,0,0,18,-16,890,-350,0,889,6,355,0,85.9,0,0,0,0,,,100,100,0,1,0,0,0,2,0,,,,,0,0,0
51.405554,-2.819227,116,116,0,28,116,116,10.07,28,32458,00:32.5,00:32.5,21,0,0,11.093,51.405509,-2.819328,0,0,0,-1,-1,89,0,1,0,60,99,-8612,2254,11093,3153.5,16,P_GPS,1,1,0,0,0,55,0,1.5314E+12,3778,3770,3761,0,0,0,13,,,,,,,0,0,0,18,-17,890,-350,0,889,6,355,0,85.91,0,0,0,0,,,100,100,0,1,0,0,0,2,0,,,,,0,0,0
51.405554,-2.819227,116,116,0,28,116,116,10.07,28,32555,00:32.6,00:32.6,21,0,0,11.093,51.405509,-2.819328,0,0,0,-1,-1,88,0,1,0,60,99,-8612,2248,11093,3153.5,16,P_GPS,1,1,0,0,0,60,0,1.5314E+12,3778,3770,3761,0,0,0,13,,,,,,,0,0,0,16,-18,889,-350,0,889,6,354,0,85.92,0,0,0,0,,,100,100,0,1,0,0,0,2,0,,,,,0,0,0
51.405554,-2.819227,116,116,0,28,116,116,10.07,28,32672,00:32.7,00:32.7,21,0,0,11.093,51.405509,-2.819328,0,0,0,-1,-2,89,0,1,0,60,99,-8612,2248,11093,3153.5,16,P_GPS,1,1,0,0,0,60,0,1.5314E+12,3778,3770,3761,0,0,0,13,,,,,,,0,0,0,17,-20,890,-350,0,890,6,354,0,85.93,0,0,0,0,,,100,100,0,1,0,0,0,2,0,,,,,0,0,0
51.405554,-2.819227,116,116,0,28,116,116,10.07,28,32760,00:32.8,00:32.8,21,0,0,11.093,51.405509,-2.819328,0,0,0,-1,-2,88,0,1,0,60,99,-8612,2248,11093,3153.5,16,P_GPS,1,1,0,0,0,72,0,1.5314E+12,3778,3770,3761,0,0,0,13,,,,,,,0,0,0,15,-20,889,-350,0,890,6,354,0,85.91,0,0,0,0,,,100,100,0,1,0,0,0,2,0,,,,,0,0,0
51.405554,-2.819227,116,116,0,28,116,116,10.07,28,32857,00:32.9,00:32.9,21,0,0,11.093,51.405509,-2.819328,0,0,0,-1,-1,89,0,1,0,60,99,-8612,2248,11093,3153.5,16,P_GPS,1,1,0,0,0,118,0,1.5314E+12,3778,3770,3761,0,0,0,13,,,,,,,0,0,0,15,-18,890,-350,0,891,6,355,0,85.89,0,0,0,0,,,100,100,0,1,0,0,0,2,0,,,,,0,0,0
51.405554,-2.819227,116,116,0,28,116,116,10.07,28,32982,00:33.2,00:33.2,21,0,0,11.093,51.405509,-2.819328,0,0,0,-1,-2,89,0,1,0,60,99,-8612,2248,11093,3153.5,16,P_GPS,1,1,0,0,0,120,0,1.5314E+12,3778,3770,3761,0,0,0,13,,,,,,,0,0,0,17,-21,892,-350,0,893,6,355,0,85.87,0,0,0,0,,,100,100,0,1,0,0,0,2,0,,,,,0,0,0
51.405554,-2.819227,116,116,0,28,116,116,10.07,28,33078,00:33.2,00:33.2,21,0,0,11.093,51.405509,-2.819328,0,0,0,-1,-2,89,0,1,0,60,99,-8612,2248,11093,3153.5,16,P_GPS,1,1,0,0,0,120,0,1.5314E+12,3778,3770,3761,0,0,0,13,,,,,,,0,0,0,17,-22,894,-350,0,895,6,355,0,85.85,0,0,0,0,,,100,100,0,1,0,0,0,2,0,,,,,0,0,0
51.405554,-2.819227,116,116,0,28,116,116,10.07,28,33164,00:33.2,00:33.2,21,0,0,11.093,51.405509,-2.819328,0,0,0,-1,-2,89,0,1,0,60,99,-8612,2248,11093,3153.5,16,P_GPS,1,1,0,0,0,120,0,1.5314E+12,3778,3770,3761,0,0,0,13,,,,,,,0,0,0,17,-22,895,-350,0,898,6,355,0,85.84,0,0,0,0,,,100,100,0,1,0,0,0,2,0,,,,,0,0,0
51.405554,-2.819227,116,116,0,28,116,116,10.07,28,33256,00:33.3,00:33.3,21,0,0,11.093,51.405509,-2.819328,0,0,0,-1,-2,89,0,1,0,60,99,-8612,2248,11093,3153.5,16,P_GPS,1,1,0,0,0,127,0,1.5314E+12,3778,3770,3761,0,0,0,13,,,,,,,0,0,0,17,-22,897,-350,0,900,6,355,0,85.84,0,0,0,0,,,100,100,0,1,0,0,0,2,0,,,,,0,0,0
51.405554,-2.819228,116,116,0,28,116,116,10.07,28,33354,00:33.4,00:33.4,21,0,0,11.093,51.405509,-2.819328,0,0,0,-1,-2,90,0,1,0,60,99,-8612,2248,11093,3153.5,16,P_GPS,1,1,0,0,0,142,0,1.5314E+12,3778,3770,3761,0,0,0,13,,,,,,,0,0,0,15,-21,900,-350,0,901,6,355,0,85.83,0,0,0,0,,,100,100,0,1,0,0,0,2,0,,,,,0,0,0
51.405554,-2.819228,116,116,0,28,116,116,10.07,28,33454,00:33.5,00:33.5,21,0,0,11.093,51.405509,-2.819328,0,0,0,-1,-1,90,0,1,0,60,99,-8612,2248,11093,3153.5,16,P_GPS,1,1,0,0,0,152,0,1.5314E+12,3778,3770,3761,0,0,0,13,,,,,,,0,0,0,17,-18,902,-350,0,905,6,355,0,85.82,0,0,0,0,,,100,100,0,1,0,0,0,2,0,,,,,0,0,0
51.405554,-2.819228,116,116,0,28,116,116,10.07,28,33557,00:33.6,00:33.6,21,0,0,11.441,51.405509,-2.819328,0,0,0,-1,-1,90,0,1,0,60,99,-8516,2246,11441,3153.5,16,P_GPS,1,1,0,0,0,167,0,1.5314E+12,3778,3770,3761,0,0,0,13,,,,,,,0,0,0,16,-17,905,-350,0,908,6,355,0,85.82,0,0,0,0,,,100,100,0,1,0,0,0,2,0,,,,,0,0,0
51.405554,-2.819228,116,116,0,28,116,116,10.07,28,33657,00:33.7,00:33.7,21,0,0,11.441,51.405509,-2.819328,0,0,0,-1,-1,90,0,1,0,60,99,-8516,2246,11441,3153.5,16,P_GPS,1,1,0,0,0,173,0,1.5314E+12,3778,3770,3761,0,0,0,13,,,,,,,0,0,0,16,-17,907,-350,0,913,6,355,0,85.83,0,0,0,0,,,100,100,0,1,0,0,0,2,0,,,,,0,0,0
51.405554,-2.819228,116,116,0,28,116,116,10.07,28,33762,00:33.8,00:33.8,21,0,0,11.441,51.405509,-2.819328,0,0,0,-1,-1,91,0,1,0,60,99,-8516,2246,11441,3153.5,16,P_GPS,1,1,0,0,0,180,0,1.5314E+12,3778,3770,3761,0,0,0,13,,,,,,,0,0,0,15,-18,912,-350,0,918,6,355,0,85.83,0,0,0,0,,,100,100,0,1,0,0,0,2,0,,,,,0,0,0
51.405554,-2.819228,116,116,0,28,116,116,10.07,28,33876,00:34.0,00:34.0,21,0,0,11.441,51.405509,-2.819328,0,0,0,-1,-1,91,0,1,0,60,99,-8516,2246,11441,3153.5,16,P_GPS,1,1,0,0,0,198,0,1.5314E+12,3778,3770,3761,0,0,0,13,,,,,,,0,0,0,13,-18,917,-350,0,924,6,355,0,85.84,0,0,0,0,,,100,100,0,1,0,0,0,2,0,,,,,0,0,0
51.405554,-2.819228,116,116,0,28,116,116,10.07,28,33959,00:34.0,00:34.0,21,0,0,11.441,51.405509,-2.819328,0,0,0,-1,-1,92,0,1,0,60,99,-8516,2246,11441,3153.5,16,P_GPS,1,1,0,0,0,198,0,1.5314E+12,3778,3770,3761,0,0,0,13,,,,,,,0,0,0,13,-17,922,-350,0,930,6,355,0,85.84,0,0,0,0,,,100,100,0,1,0,0,0,2,0,,,,,0,0,0
51.405554,-2.819228,116,116,0,28,116,116,10.07,28,34075,00:34.3,00:34.3,21,0,0,11.441,51.405509,-2.819328,0,0,0,-1,-1,92,0,1,0,60,99,-8516,2246,11441,3153.5,16,P_GPS,1,1,0,0,0,199,0,1.5314E+12,3778,3770,3761,0,0,0,13,,,,,,,0,0,0,13,-17,927,-350,0,938,6,355,0,85.84,0,0,0,0,,,100,100,0,1,0,0,0,2,0,,,,,0,0,0
51.405554,-2.819228,116,116,0,28,116,116,10.07,28,34182,00:34.3,00:34.3,21,0,0,11.441,51.405509,-2.819328,0,0,0,-1,-1,93,0,1,0,60,99,-8516,2246,11441,3153.5,16,P_GPS,1,1,0,0,0,199,0,1.5314E+12,3778,3770,3761,0,0,0,13,,,,,,,0,0,0,13,-18,935,-350,0,945,6,355,0,85.84,0,0,0,0,,,100,100,0,1,0,0,0,2,0,,,,,0,0,0
51.405554,-2.819228,116,116,0,28,116,116,10.07,28,34264,00:34.3,00:34.3,21,0,0,11.441,51.405509,-2.819328,0,0,0,-1,-1,94,0,1,0,60,99,-8516,2246,11441,3153.5,16,P_GPS,1,1,0,0,0,204,0,1.5314E+12,3778,3770,3761,0,0,0,13,,,,,,,0,0,0,11,-18,942,-350,0,953,6,355,0,85.83,0,0,0,0,,,100,100,0,1,0,0,0,2,0,,,,,0,0,0
51.405554,-2.819228,116,116,0,28,116,116,10.07,28,34355,00:34.4,00:34.4,21,0,0,11.441,51.405509,-2.819328,0,0,0,-1,-1,95,0,1,0,60,99,-8516,2246,11441,3153.5,16,P_GPS,1,1,0,0,0,208,0,1.5314E+12,3778,3770,3761,0,0,0,13,,,,,,,0,0,0,13,-18,950,-350,0,960,6,355,0,85.84,0,0,0,0,,,100,100,0,1,0,0,0,2,0,,,,,0,0,0
51.405554,-2.819228,116,116,0,28,116,116,10.07,28,34474,00:34.6,00:34.6,21,0,0,11.441,51.405509,-2.819328,0,0,0,-1,-1,95,0,1,0,60,99,-8516,2246,11441,3153.5,16,P_GPS,1,1,0,0,0,211,0,1.5314E+12,3778,3770,3761,0,0,0,13,,,,,,,0,0,0,13,-18,957,-350,0,969,6,355,0,85.85,0,0,0,0,,,100,100,0,1,0,0,0,2,0,,,,,0,0,0
51.405554,-2.819228,116,116,0,28,116,116,10.07,28,34556,00:34.6,00:34.6,21,0,0,11.506,51.405509,-2.819328,0,0,0,-1,-2,96,0,1,0,60,99,-8522,2244,11506,3153.5,16,P_GPS,1,1,0,0,0,224,0,1.5314E+12,3778,3770,3761,0,0,0,13,,,,,,,0,0,0,13,-20,965,-350,0,976,6,355,0,85.83,0,0,0,0,,,100,100,0,1,0,0,0,2,0,,,,,0,0,0
51.405554,-2.819228,116,116,0,28,116,116,10.07,28,34673,00:34.7,00:34.7,21,0,0,11.506,51.405509,-2.819328,0,0,0,-1,-2,97,0,1,0,60,99,-8522,2244,11506,3153.5,16,P_GPS,1,1,0,0,0,225,0,1.5314E+12,3778,3770,3761,0,0,0,13,,,,,,,0,0,0,13,-20,974,-350,0,985,6,355,0,85.82,0,0,0,0,,,100,100,0,1,0,0,0,2,0,,,,,0,0,0
51.405554,-2.819228,116,116,0,28,116,116,10.07,28,34760,00:34.8,00:34.8,21,0,0,11.506,51.405509,-2.819328,0,0,0,-1,-2,98,0,1,0,60,99,-8522,2244,11506,3153.5,16,P_GPS,1,1,0,0,0,232,0,1.5314E+12,3778,3770,3761,0,0,0,13,,,,,,,0,0,0,11,-20,982,-350,0,995,6,355,0,85.83,0,0,0,0,,,100,100,0,1,0,0,0,2,0,,,,,0,0,0
51.405554,-2.819228,116,116,0,28,116,116,10.07,28,34856,00:34.9,00:34.9,21,0,0,11.506,51.405509,-2.819328,0,0,0,-1,-1,99,0,1,0,60,99,-8522,2244,11506,3153.5,16,P_GPS,1,1,0,0,0,231,0,1.5314E+12,3778,3770,3761,0,0,0,13,,,,,,,0,0,0,11,-18,990,-350,0,1004,6,355,0,85.85,0,0,0,0,,,100,100,0,1,0,0,0,2,0,,,,,0,0,0
51.405554,-2.819228,116,116,0,28,116,116,10.07,28,34960,00:35.0,00:35.0,21,0,0,11.506,51.405509,-2.819328,0,0,0,-1,-1,100,0,1,0,60,99,-8522,2244,11506,3153.5,16,P_GPS,1,1,0,0,0,230,0,1.5314E+12,3778,3770,3761,0,0,0,13,,,,,,,0,0,0,10,-17,1000,-350,0,1014,6,355,0,85.86,0,0,0,0,,,100,100,0,1,0,0,0,2,0,,,,,0,0,0
51.405555,-2.819228,116,116,0,28,116,116,10.07,28,35071,00:35.1,00:35.1,21,0,0,11.506,51.405509,-2.819328,0,0,0,-1,-1,101,0,1,0,60,99,-8522,2244,11506,3153.5,16,P_GPS,1,1,0,0,0,231,0,1.5314E+12,3778,3770,3761,0,0,0,13,,,,,,,0,0,0,10,-18,1010,-350,0,1024,6,355,0,85.87,0,0,0,0,,,100,100,0,1,0,0,0,2,0,,,,,0,0,0
51.405555,-2.819228,116,116,0,28,116,116,10.07,28,35159,00:35.3,00:35.3,21,0,0,11.506,51.405509,-2.819328,0,0,0,-1,-1,102,0,1,0,60,99,-8522,2244,11506,3153.5,16,P_GPS,1,1,0,0,0,231,0,1.5314E+12,3778,3770,3761,0,0,0,13,,,,,,,0,0,0,11,-18,1020,-350,0,1034,6,355,0,85.89,0,0,0,0,,,100,100,0,1,0,0,0,2,0,,,,,0,0,0
51.405555,-2.819228,116,116,0,28,116,116,10.07,28,35258,00:35.3,00:35.3,21,0,0,11.506,51.405509,-2.819328,0,0,0,-1,-1,103,0,1,0,60,99,-8522,2244,11506,3153.5,16,P_GPS,1,1,0,0,0,231,0,1.5314E+12,3778,3770,3761,0,0,0,13,,,,,,,0,0,0,11,-18,1030,-350,0,1044,6,355,0,85.91,0,0,0,0,,,100,100,0,1,0,0,0,2,0,,,,,0,0,0
51.405555,-2.819228,116,116,0,28,116,116,10.07,28,35355,00:35.4,00:35.4,21,0,0,11.506,51.405509,-2.819328,0,0,0,-1,-1,103,0,1,0,60,99,-8522,2244,11506,3153.5,16,P_GPS,1,1,0,0,0,230,0,1.5314E+12,3778,3770,3761,0,0,0,13,,,,,,,0,0,0,11,-17,1039,-350,0,1053,6,355,0,85.93,0,0,0,0,,,100,100,0,1,0,0,0,2,0,,,,,0,0,0
51.405555,-2.819228,116,116,0,28,116,116,10.07,28,35457,00:35.5,00:35.5,21,0,0,11.506,51.405509,-2.819328,0,0,0,-1,-1,104,0,1,0,60,99,-8522,2244,11506,3153.5,16,P_GPS,1,1,0,0,0,230,0,1.5314E+12,3778,3770,3761,0,0,0,13,,,,,,,0,0,0,11,-15,1049,-350,0,1063,6,355,0,85.95,0,0,0,0,,,100,100,0,1,0,0,0,2,0,,,,,0,0,0
51.405555,-2.819228,116,116,0,28,116,116,10.07,28,35557,00:35.6,00:35.6,21,0,0,11.375,51.405509,-2.819328,0,0,0,-1,-1,105,0,1,0,60,99,-8522,2244,11375,3154.5,16,P_GPS,1,1,0,0,0,231,0,1.5314E+12,3778,3770,3761,0,0,0,13,,,,,,,0,0,0,10,-13,1059,-350,0,1073,6,355,0,85.95,0,0,0,0,,,100,100,0,1,0,0,0,2,0,,,,,0,0,0
51.405555,-2.819228,116,116,0,28,116,116,10.07,28,35655,00:35.7,00:35.7,21,0,0,11.375,51.405509,-2.819328,0,0,0,-1,-1,106,0,1,0,60,99,-8522,2244,11375,3154.5,16,P_GPS,1,1,0,0,0,232,0,1.5314E+12,3778,3770,3761,0,0,0,13,,,,,,,0,0,0,10,-13,1069,-350,0,1083,6,355,0,85.97,0,0,0,0,,,100,100,0,1,0,0,0,2,0,,,,,0,0,0
51.405555,-2.819228,116,116,0,28,116,116,10.07,28,35756,00:35.8,00:35.8,21,0,0,11.375,51.405509,-2.819328,0,0,0,0,-1,107,0,1,0,60,99,-8522,2244,11375,3154.5,16,P_GPS,1,1,0,0,0,231,0,1.5314E+12,3778,3770,3761,0,0,0,13,,,,,,,0,0,0,9,-13,1079,-350,0,1093,6,355,0,85.98,0,0,0,0,,,100,100,0,1,0,0,0,2,0,,,,,0,0,0
51.405555,-2.819228,116,116,0,28,116,116,10.07,28,35854,00:35.9,00:35.9,21,0,0,11.375,51.405509,-2.819328,0,0,0,-1,-1,108,0,1,0,60,99,-8522,2244,11375,3154.5,16,P_GPS,1,1,0,0,0,231,0,1.5314E+12,3778,3770,3761,0,0,0,13,,,,,,,0,0,0,10,-13,1088,-350,0,1103,6,355,0,85.99,0,0,0,0,,,100,100,0,1,0,0,0,2,0,,,,,0,0,0
51.405555,-2.819228,116,116,0,28,116,116,10.07,28,35958,00:36.0,00:36.0,21,0,0,11.375,51.405509,-2.819328,0,0,0,0,-1,109,0,1,0,60,99,-8522,2244,11375,3154.5,16,P_GPS,1,1,0,0,0,231,0,1.5314E+12,3778,3770,3761,0,0,0,13,,,,,,,0,0,0,9,-15,1098,-350,0,1111,6,355,0,85.99,0,0,0,0,,,100,100,0,1,0,0,0,2,0,,,,,0,0,0
51.405555,-2.819228,116,116,0,28,116,116,10.07,28,36058,00:36.1,00:36.1,21,0,0,11.375,51.405509,-2.819328,0,0,0,-1,-1,110,0,1,0,60,99,-8522,2244,11375,3154.5,16,P_GPS,1,1,0,0,0,233,0,1.5314E+12,3778,3770,3761,0,0,0,13,,,,,,,0,0,0,10,-18,1109,-350,0,1121,6,355,0,86,0,0,0,0,,,100,100,0,1,0,0,0,2,0,,,,,0,0,0
51.405555,-2.819228,116,116,0,28,116,116,10.07,28,36181,00:36.3,00:36.3,21,0,0,11.375,51.405509,-2.819328,0,0,0,0,-1,111,0,1,0,60,99,-8522,2244,11375,3154.5,16,P_GPS,1,1,0,0,0,253,0,1.5314E+12,3778,3770,3761,0,0,0,13,,,,,,,0,0,0,9,-18,1119,-350,0,1131,6,355,0,85.99,0,0,0,0,,,100,100,0,1,0,0,0,2,0,,,,,0,0,0
51.405555,-2.819228,116,116,0,28,116,116,10.07,28,36274,00:36.4,00:36.4,21,0,0,11.375,51.405509,-2.819328,0,0,0,-1,-2,112,0,1,0,60,99,-8522,2244,11375,3154.5,16,P_GPS,1,1,0,0,0,253,0,1.5314E+12,3778,3770,3761,0,0,0,13,,,,,,,0,0,0,10,-20,1129,-350,0,1143,6,355,0,85.99,0,0,0,0,,,100,100,0,1,0,0,0,2,0,,,,,0,0,0
51.405555,-2.819228,116,116,0,28,116,116,10.07,28,36354,00:36.4,00:36.4,21,0,0,11.375,51.405509,-2.819328,0,0,0,0,-1,113,0,1,0,60,99,-8522,2244,11375,3154.5,16,P_GPS,1,1,0,0,0,244,0,1.5314E+12,3778,3770,3761,0,0,0,13,,,,,,,0,0,0,9,-18,1139,-350,0,1155,6,355,0,85.98,0,0,0,0,,,100,100,0,1,0,0,0,2,0,,,,,0,0,0
51.405555,-2.819228,116,116,0,28,116,116,10.07,28,36454,00:36.5,00:36.5,21,0,0,11.375,51.405509,-2.819328,0,0,0,0,-1,115,0,1,0,60,99,-8522,2244,11375,3154.5,16,P_GPS,1,1,0,0,0,244,0,1.5314E+12,3778,3770,3761,0,0,0,13,,,,,,,0,0,0,8,-16,1150,-350,0,1166,6,355,0,86,0,0,0,0,,,100,100,0,1,0,0,0,2,0,,,,,0,0,0
51.405555,-2.819228,116,116,0,28,116,116,10.07,28,36554,00:36.6,00:36.6,21,0,0,11.528,51.405509,-2.819328,0,0,0,0,-1,116,0,1,0,60,99,-8586,2238,11528,3153.5,16,P_GPS,1,1,0,0,0,244,0,1.5314E+12,3778,3770,3761,0,0,0,13,,,,,,,0,0,0,5,-13,1162,-350,0,1178,6,355,0,86.05,0,0,0,0,,,100,100,0,1,0,0,0,2,0,,,,,0,0,0
51.405555,-2.819228,116,116,0,28,116,116,10.07,28,36672,00:36.7,00:36.7,21,0,0,11.528,51.405509,-2.819328,0,0,0,0,-1,117,0,1,0,60,99,-8586,2238,11528,3153.5,16,P_GPS,1,1,0,0,0,244,0,1.5314E+12,3778,3770,3761,0,0,0,13,,,,,,,0,0,0,2,-13,1172,-350,0,1190,6,355,0,86.1,0,0,0,0,,,100,100,0,1,0,0,0,2,0,,,,,0,0,0
51.405555,-2.819228,116,116,0,28,116,116,10.07,28,36757,00:36.8,00:36.8,21,0,0,11.528,51.405509,-2.819328,0,0,0,0,-1,118,0,1,0,60,99,-8586,2238,11528,3153.5,16,P_GPS,1,1,0,0,0,244,0,1.5314E+12,3778,3770,3761,0,0,0,13,,,,,,,0,0,0,1,-11,1184,-350,0,1200,6,355,0,86.14,0,0,0,0,,,100,100,0,1,0,0,0,2,0,,,,,0,0,0
51.405555,-2.819228,116,116,0,28,116,116,10.07,28,36853,00:36.9,00:36.9,21,0,0,11.528,51.405509,-2.819328,0,0,0,0,-1,119,0,1,0,60,99,-8586,2238,11528,3153.5,16,P_GPS,1,1,0,0,0,245,0,1.5314E+12,3778,3770,3761,0,0,0,13,,,,,,,0,0,0,1,-15,1195,-350,0,1211,6,355,0,86.17,0,0,0,0,,,100,100,0,1,0,0,0,2,0,,,,,0,0,0
51.405555,-2.819228,116,116,0,28,116,116,10.07,28,36971,00:37.0,00:37.0,21,0,0,11.528,51.405509,-2.819328,0,0,0,0,-1,120,0,1,0,60,99,-8586,2238,11528,3153.5,16,P_GPS,1,1,0,0,0,245,0,1.5314E+12,3778,3770,3761,0,0,0,13,,,,,,,0,0,0,2,-16,1207,-350,0,1224,6,354,0,86.2,0,0,0,0,,,100,100,0,1,0,0,0,2,0,,,,,0,0,0
51.405555,-2.819228,116,116,0,28,116,116,10.07,28,37057,00:37.1,00:37.1,21,0,0,11.528,51.405509,-2.819328,0,0,0,0,-1,121,0,1,0,60,99,-8586,2238,11528,3153.5,16,P_GPS,1,1,0,0,0,245,0,1.5314E+12,3778,3770,3761,0,0,0,13,,,,,,,0,0,0,2,-17,1218,-350,0,1235,6,354,0,86.23,0,0,0,0,,,100,100,0,1,0,0,0,2,0,,,,,0,0,0
51.405555,-2.819228,116,116,0,28,116,116,10.07,28,37214,00:37.4,00:37.4,21,0,0,11.528,51.405509,-2.819328,0,0,0,0,-1,123,0,1,0,60,99,-8586,2238,11528,3153.5,16,P_GPS,1,1,0,0,0,245,0,1.5314E+12,3778,3770,3761,0,0,0,13,,,,,,,0,0,0,2,-18,1230,-350,0,1245,6,354,0,86.28,0,0,0,0,,,100,100,0,1,0,0,0,2,0,,,,,0,0,0
51.405555,-2.819228,116,116,0,28,116,116,10.07,28,37291,00:37.4,00:37.4,21,0,0,11.528,51.405509,-2.819328,0,0,0,0,-1,124,0,1,0,60,99,-8586,2238,11528,3153.5,16,P_GPS,1,1,0,0,0,245,0,1.5314E+12,3778,3770,3761,0,0,0,13,,,,,,,0,0,0,2,-16,1240,-350,0,1258,6,354,0,86.33,0,0,0,0,,,100,100,0,1,0,0,0,2,0,,,,,0,0,0
51.405555,-2.819227,116,116,0,28,116,116,10.07,28,37353,00:37.4,00:37.4,21,0,0,11.528,51.405509,-2.819328,0,0,0,0,-1,125,0,1,0,60,99,-8586,2238,11528,3153.5,16,P_GPS,1,1,0,0,0,245,0,1.5314E+12,3778,3770,3761,0,0,0,13,,,,,,,0,0,0,2,-16,1252,-350,0,1269,6,354,0,86.37,0,0,0,0,,,100,100,0,1,0,0,0,2,0,,,,,0,0,0
51.405555,-2.819227,116,116,0,28,116,116,10.07,28,37456,00:37.5,00:37.5,21,0,0,11.528,51.405509,-2.819328,0,0,0,0,-1,126,0,1,0,60,99,-8586,2238,11528,3153.5,16,P_GPS,1,1,0,0,0,244,0,1.5314E+12,3778,3770,3761,0,0,0,13,,,,,,,0,0,0,0,-16,1264,-350,0,1280,6,354,0,86.42,0,0,0,0,,,100,100,0,1,0,0,0,2,0,,,,,0,0,0
51.405555,-2.819227,116,116,0,28,116,116,10.07,28,37554,00:37.6,00:37.6,21,0,0,11.528,51.405509,-2.819328,0,0,0,0,-1,127,0,1,0,60,99,-8524,2236,11528,3154.5,16,P_GPS,1,1,0,0,0,224,0,1.5314E+12,3778,3770,3761,0,0,0,13,,,,,,,0,0,0,-1,-15,1275,-350,0,1291,6,354,0,86.46,0,0,0,0,,,100,100,0,1,0,0,0,2,0,,,,,0,0,0
51.405555,-2.819227,116,116,0,28,116,116,10.07,28,37658,00:37.7,00:37.7,21,0,0,11.528,51.405509,-2.819328,0,0,0,0,-1,128,0,1,0,60,99,-8524,2236,11528,3154.5,16,P_GPS,1,1,0,0,0,225,0,1.5314E+12,3778,3770,3761,0,0,0,13,,,,,,,0,0,0,-2,-13,1285,-350,0,1301,6,354,0,86.5,0,0,0,0,,,100,100,0,1,0,0,0,2,0,,,,,0,0,0
51.405555,-2.819227,116,116,0,28,116,116,10.07,28,37757,00:37.8,00:37.8,21,0,0,11.528,51.405509,-2.819328,0,0,0,0,-1,129,0,1,0,60,99,-8524,2236,11528,3154.5,16,P_GPS,1,1,0,0,0,225,0,1.5314E+12,3778,3770,3761,0,0,0,13,,,,,,,0,0,0,-4,-13,1295,-350,0,1311,6,354,0,86.52,0,0,0,0,,,100,100,0,1,0,0,0,2,0,,,,,0,0,0
51.405555,-2.819227,116,116,0,28,116,116,10.07,28,37855,00:37.9,00:37.9,21,0,0,11.528,51.405509,-2.819328,0,0,0,0,-1,130,0,1,0,60,99,-8524,2236,11528,3154.5,16,P_GPS,1,1,0,0,0,227,0,1.5314E+12,3778,3770,3761,0,0,0,13,,,,,,,0,0,0,-5,-13,1305,-350,0,1321,6,354,0,86.55,0,0,0,0,,,100,100,0,1,0,0,0,2,0,,,,,0,0,0
51.405555,-2.819227,116,116,0,28,116,116,10.07,28,37986,00:38.1,00:38.1,21,0,0,11.528,51.405509,-2.819328,0,0,0,0,-1,131,0,1,0,60,99,-8524,2236,11528,3154.5,16,P_GPS,1,1,0,0,0,227,0,1.5314E+12,3778,3770,3761,0,0,0,13,,,,,,,0,0,0,-8,-13,1315,-350,0,1331,6,354,0,86.56,0,0,0,0,,,100,100,0,1,0,0,0,2,0,,,,,0,0,0
51.405555,-2.819227,116,116,0,28,116,116,10.07,28,38053,00:38.1,00:38.1,21,0,0,11.528,51.405509,-2.819328,0,0,0,0,-1,132,0,1,0,60,99,-8524,2236,11528,3154.5,16,P_GPS,1,1,0,0,0,237,0,1.5314E+12,3778,3770,3761,0,0,0,13,,,,,,,0,0,0,-5,-13,1324,-350,0,1340,6,354,0,86.57,0,0,0,0,,,100,100,0,1,0,0,0,2,0,,,,,0,0,0
51.405555,-2.819227,116,116,0,28,116,116,10.07,28,38155,00:38.2,00:38.2,21,0,0,11.528,51.405509,-2.819328,0,0,0,0,-1,133,0,1,0,60,99,-8524,2236,11528,3154.5,16,P_GPS,1,1,0,0,0,241,0,1.5314E+12,3778,3770,3761,0,0,0,13,,,,,,,0,0,0,-5,-13,1334,-350,0,1350,6,354,0,86.53,0,0,0,0,,,100,100,0,1,0,0,0,2,0,,,,,0,0,0
51.405555,-2.819227,116,116,0,28,116,116,10.07,28,38297,00:38.5,00:38.5,21,0,0,11.528,51.405509,-2.819328,0,0,0,0,-1,134,0,1,0,60,99,-8524,2236,11528,3154.5,16,P_GPS,1,1,0,0,0,237,0,1.5314E+12,3778,3770,3761,0,0,0,13,,,,,,,0,0,0,-5,-16,1343,-350,0,1361,6,354,0,86.51,0,0,0,0,,,100,100,0,1,0,0,0,2,0,,,,,0,0,0
51.405555,-2.819227,116,116,0,28,116,116,10.07,28,38403,00:38.5,00:38.5,21,0,0,11.528,51.405509,-2.819328,0,0,0,0,-1,135,0,1,0,60,99,-8524,2236,11528,3154.5,16,P_GPS,1,1,0,0,0,237,0,1.5314E+12,3778,3770,3761,0,0,0,13,,,,,,,0,0,0,-5,-18,1354,-350,0,1371,6,354,0,86.47,0,0,0,0,,,100,100,0,1,0,0,0,2,0,,,,,0,0,0
51.405555,-2.819227,116,116,0,28,116,116,10.07,28,38457,00:38.5,00:38.5,21,0,0,11.528,51.405509,-2.819328,0,0,0,0,-1,136,0,1,0,60,99,-8524,2236,11528,3154.5,16,P_GPS,1,1,0,0,0,237,0,1.5314E+12,3778,3770,3761,0,0,0,13,,,,,,,0,0,0,-5,-16,1364,-350,0,1383,6,354,0,86.44,0,0,0,0,,,100,100,0,1,0,0,0,2,0,,,,,0,0,0
51.405555,-2.819227,116,116,0,28,116,116,10.07,28,38557,00:38.6,00:38.6,21,0,0,11.506,51.405509,-2.819328,0,0,0,0,-1,137,0,1,0,60,99,-8566,2234,11506,3154.5,16,P_GPS,1,1,0,0,0,237,0,1.5314E+12,3778,3770,3761,0,0,0,13,,,,,,,0,0,0,-8,-13,1375,-350,0,1383,6,354,0,86.41,0,0,0,0,,,100,100,0,1,0,0,0,2,0,,,,,0,0,0
51.405555,-2.819227,116,116,0,28,116,116,10.07,28,38656,00:38.7,00:38.7,21,0,0,11.506,51.405509,-2.819328,0,0,0,0,-1,138,0,1,0,60,99,-8566,2234,11506,3154.5,16,P_GPS,1,1,0,0,0,240,0,1.5314E+12,3778,3770,3761,0,0,0,13,,,,,,,0,0,0,-9,-15,1385,-350,0,1393,6,354,0,86.39,0,0,0,0,,,100,100,0,1,0,0,0,2,0,,,,,0,0,0
51.405554,-2.819227,116,116,0,28,116,116,10.07,28,38759,00:38.8,00:38.8,21,0,0,11.506,51.405509,-2.819328,0,0,0,1,-1,139,0,1,0,60,99,-8566,2234,11506,3154.5,16,P_GPS,1,1,0,0,0,238,0,1.5314E+12,3778,3770,3761,0,0,0,13,,,,,,,0,0,0,-11,-15,1395,-350,0,1403,6,354,0,86.35,0,0,0,0,,,100,100,0,1,0,0,0,2,0,,,,,0,0,0
51.405554,-2.819227,116,116,0,28,116,116,10.07,28,38855,00:38.9,00:38.9,21,0,0,11.506,51.405509,-2.819328,0,0,0,1,-1,140,0,1,0,60,99,-8566,2234,11506,3154.5,16,P_GPS,1,1,0,0,0,238,0,1.5314E+12,3778,3770,3761,0,0,0,13,,,,,,,0,0,0,-11,-16,1405,-350,0,1413,6,354,0,86.32,0,0,0,0,,,100,100,0,1,0,0,0,2,0,,,,,0,0,0
51.405554,-2.819227,116,116,0,28,116,116,10.07,28,38960,00:39.0,00:39.0,21,0,0,11.506,51.405509,-2.819328,0,0,0,1,-1,141,0,1,0,60,99,-8566,2234,11506,3154.5,16,P_GPS,1,1,0,0,0,237,0,1.5314E+12,3778,3770,3761,0,0,0,13,,,,,,,0,0,0,-11,-17,1416,-350,0,1425,6,354,0,86.27,0,0,0,0,,,100,100,0,1,0,0,0,2,0,,,,,0,0,0
51.405554,-2.819227,116,116,0,28,116,116,10.07,28,39055,00:39.1,00:39.1,21,0,0,11.506,51.405509,-2.819328,0,0,0,1,-1,142,0,1,0,60,99,-8566,2234,11506,3154.5,16,P_GPS,1,1,0,0,0,238,0,1.5314E+12,3778,3770,3761,0,0,0,13,,,,,,,0,0,0,-11,-18,1428,-350,0,1435,6,355,0,86.23,0,0,0,0,,,100,100,0,1,0,0,0,2,0,,,,,0,0,0
51.405554,-2.819227,116,116,0,28,116,116,10.07,28,39159,00:39.2,00:39.2,21,0,0,11.506,51.405509,-2.819328,0,0,0,1,-1,143,0,1,0,60,99,-8566,2234,11506,3154.5,16,P_GPS,1,1,0,0,0,238,0,1.5314E+12,3778,3770,3761,0,0,0,13,,,,,,,0,0,0,-10,-17,1439,-350,0,1446,6,355,0,86.19,0,0,0,0,,,100,100,0,1,0,0,0,2,0,,,,,0,0,0
51.405554,-2.819227,116,116,0,28,116,116,10.07,28,39261,00:39.3,00:39.3,21,0,0,11.506,51.405509,-2.819328,0,0,0,0,-1,144,0,1,0,60,99,-8566,2234,11506,3154.5,16,P_GPS,1,1,0,0,0,238,0,1.5314E+12,3778,3770,3761,0,0,0,13,,,,,,,0,0,0,-9,-16,1449,-350,0,1456,6,355,0,86.18,0,0,0,0,,,100,100,0,1,0,0,0,2,0,,,,,0,0,0
51.405554,-2.819227,116,116,0,28,116,116,10.07,28,39375,00:39.6,00:39.6,21,0,0,11.484,51.405509,-2.819328,0,0,0,0,-1,146,0,1,0,60,99,-8566,2234,11484,3154.5,16,P_GPS,1,1,0,0,0,238,0,1.5314E+12,3778,3770,3761,0,0,0,13,,,,,,,0,0,0,-9,-13,1460,-350,0,1466,6,355,0,86.14,0,0,0,0,,,100,100,0,1,0,0,0,2,0,,,,,0,0,0
51.405554,-2.819227,116,116,0,28,116,116,10.07,28,39507,00:39.6,00:39.6,21,0,0,11.484,51.405509,-2.819328,0,0,0,1,-1,147,0,1,0,60,99,-8566,2234,11484,3154.5,16,P_GPS,1,1,0,0,0,238,0,1.5314E+12,3778,3770,3761,0,0,0,13,,,,,,,0,0,0,-10,-13,1470,-350,0,1488,6,354,0,86.12,0,0,0,0,,,100,100,0,1,0,0,0,2,0,,,,,0,0,0
51.405554,-2.819227,116,116,0,28,116,116,10.07,28,39558,00:39.6,00:39.6,21,0,0,11.484,51.405509,-2.819328,0,0,0,1,-1,148,0,1,0,60,99,-8566,2234,11484,3154.5,16,P_GPS,1,1,0,0,0,238,0,1.5314E+12,3778,3770,3761,0,0,0,13,,,,,,,0,0,0,-11,-11,1480,-350,0,1488,6,354,0,86.12,0,0,0,0,,,100,100,0,1,0,0,0,2,0,,,,,0,0,0
51.405554,-2.819227,116,116,0,28,116,116,10.07,28,39654,00:39.7,00:39.7,21,0,0,11.484,51.405509,-2.819328,0,0,0,1,-1,149,0,1,0,60,99,-8566,2234,11484,3154.5,16,P_GPS,1,1,0,0,0,241,0,1.5314E+12,3778,3770,3761,0,0,0,13,,,,,,,0,0,0,-13,-11,1490,-350,0,1498,6,354,0,86.13,0,0,0,0,,,100,100,0,1,0,0,0,2,0,,,,,0,0,0
51.405554,-2.819227,116,116,0,28,116,116,10.07,28,39753,00:39.8,00:39.8,21,0,0,11.484,51.405509,-2.819328,0,0,0,1,0,150,0,1,0,60,99,-8566,2234,11484,3154.5,16,P_GPS,1,1,0,0,0,242,0,1.5314E+12,3778,3770,3761,0,0,0,13,,,,,,,0,0,0,-11,-9,1500,-350,0,1508,6,354,0,86.11,0,0,0,0,,,100,100,0,1,0,0,0,2,0,,,,,0,0,0
51.405554,-2.819227,116,116,0,28,116,116,10.07,28,39853,00:39.9,00:39.9,21,0,0,11.484,51.405509,-2.819328,0,0,0,1,-1,151,0,1,0,60,99,-8566,2234,11484,3154.5,16,P_GPS,1,1,0,0,0,242,0,1.5314E+12,3776,3769,3761,0,0,0,13,,,,,,,0,0,0,-13,-10,1511,-350,0,1520,6,354,0,86.09,0,0,0,0,,,100,100,0,1,0,0,0,2,0,,,,,0,0,0
51.405554,-2.819227,116,116,0,28,116,116,10.07,28,39955,00:40.0,00:40.0,21,0,0,11.484,51.405509,-2.819328,0,0,0,1,-1,152,0,1,0,60,99,-8566,2234,11484,3154.5,16,P_GPS,1,1,0,0,0,242,0,1.5314E+12,3776,3769,3761,0,0,0,13,,,,,,,0,0,0,-15,-11,1521,-350,0,1531,6,354,0,86.05,0,0,0,0,,,100,100,0,1,0,0,0,2,0,,,,,0,0,0
51.405554,-2.819227,116,116,0,28,116,116,10.07,28,40057,00:40.1,00:40.1,21,0,0,11.484,51.405509,-2.819328,0,0,0,1,-1,153,0,1,0,60,99,-8566,2234,11484,3154.5,16,P_GPS,1,1,0,0,0,242,0,1.5314E+12,3776,3769,3761,0,0,0,13,,,,,,,0,0,0,-17,-13,1533,-350,0,1541,6,354,0,86.03,0,0,0,0,,,100,100,0,1,0,0,0,2,0,,,,,0,0,0
51.405554,-2.819227,116,116,0,28,116,116,10.07,28,40154,00:40.2,00:40.2,21,0,0,11.484,51.405509,-2.819328,0,0,0,1,-1,154,0,1,0,60,99,-8566,2234,11484,3154.5,16,P_GPS,1,1,0,0,0,242,0,1.5314E+12,3776,3769,3761,0,0,0,13,,,,,,,0,0,0,-17,-13,1544,-350,0,1553,6,354,0,85.97,0,0,0,0,,,100,100,0,1,0,0,0,2,0,,,,,0,0,0
51.405554,-2.819227,116,116,0,28,116,116,10.07,28,40255,00:40.3,00:40.3,21,0,0,11.484,51.405509,-2.819328,0,0,0,1,-1,155,0,1,0,60,99,-8566,2234,11484,3154.5,16,P_GPS,1,1,0,0,0,242,0,1.5314E+12,3776,3769,3761,0,0,0,13,,,,,,,0,0,0,-17,-11,1554,-350,0,1563,6,354,0,85.94,0,0,0,0,,,100,100,0,1,0,0,0,2,0,,,,,0,0,0
51.405554,-2.819227,116,116,0,28,116,116,10.07,28,40434,00:40.6,00:40.6,21,0,0,11.484,51.405509,-2.819328,0,0,0,1,-1,156,0,1,0,60,99,-8566,2229,11484,3155.5,16,P_GPS,1,1,0,0,0,245,0,1.5314E+12,3776,3769,3761,0,0,0,13,,,,,,,0,0,0,-16,-10,1565,-350,0,1575,6,354,0,85.89,0,0,0,0,,,100,100,0,1,0,0,0,2,0,,,,,0,0,0
51.405554,-2.819227,116,116,0,28,116,116,10.07,28,40548,00:40.6,00:40.6,21,0,0,11.484,51.405509,-2.819328,0,0,0,1,-1,157,0,1,0,60,99,-8566,2229,11484,3155.5,16,P_GPS,1,1,0,0,0,245,0,1.5314E+12,3776,3769,3761,0,0,0,13,,,,,,,0,0,0,-16,-11,1575,-350,0,1596,6,355,0,85.86,0,0,0,0,,,100,100,0,1,0,0,0,2,0,,,,,0,0,0
51.405554,-2.819227,116,116,0,28,116,116,10.07,28,40559,00:40.6,00:40.6,21,0,0,11.484,51.405509,-2.819328,0,0,0,1,0,158,0,1,0,60,99,-8566,2229,11484,3155.5,16,P_GPS,1,1,0,0,0,245,0,1.5314E+12,3776,3769,3761,0,0,0,13,,,,,,,0,0,0,-16,-9,1585,-350,0,1596,6,355,0,85.81,0,0,0,0,,,100,100,0,1,0,0,0,2,0,,,,,0,0,0
51.405554,-2.819227,116,116,0,28,116,116,10.07,28,40654,00:40.7,00:40.7,21,0,0,11.484,51.405509,-2.819328,0,0,0,1,0,159,0,1,0,60,99,-8566,2229,11484,3155.5,16,P_GPS,1,1,0,0,0,245,0,1.5314E+12,3776,3769,3761,0,0,0,13,,,,,,,0,0,0,-16,-8,1598,-350,0,1608,6,355,0,85.78,0,0,0,0,,,100,100,0,1,0,0,0,2,0,,,,,0,0,0
51.405554,-2.819227,116,116,0,28,116,116,10.07,28,40754,00:40.8,00:40.8,21,0,0,11.484,51.405509,-2.819328,0,0,0,1,0,160,0,1,0,60,99,-8566,2229,11484,3155.5,16,P_GPS,1,1,0,0,0,245,0,1.5314E+12,3776,3769,3761,0,0,0,13,,,,,,,0,0,0,-15,-8,1609,-350,0,1620,6,355,0,85.74,0,0,0,0,,,100,100,0,1,0,0,0,2,0,,,,,0,0,0
51.405554,-2.819227,116,116,0,28,116,116,10.07,28,40853,00:40.9,00:40.9,21,0,0,11.484,51.405509,-2.819328,0,0,0,1,0,162,0,1,0,60,99,-8566,2229,11484,3155.5,16,P_GPS,1,1,0,0,0,246,0,1.5314E+12,3776,3769,3761,0,0,0,13,,,,,,,0,0,0,-15,-8,1620,-350,0,1631,6,355,0,85.71,0,0,0,0,,,100,100,0,1,0,0,0,2,0,,,,,0,0,0
51.405554,-2.819227,116,116,0,28,116,116,10.07,28,40954,00:41.0,00:41.0,21,0,0,11.484,51.405509,-2.819328,0,0,0,1,0,163,0,1,0,60,99,-8566,2229,11484,3155.5,16,P_GPS,1,1,0,0,0,246,0,1.5314E+12,3776,3769,3761,0,0,0,13,,,,,,,0,0,0,-15,-9,1630,-350,0,1643,6,355,0,85.66,0,0,0,0,,,100,100,0,1,0,0,0,2,0,,,,,0,0,0
51.405554,-2.819227,116,116,0,28,116,116,10.07,28,41062,00:41.1,00:41.1,21,0,0,11.484,51.405509,-2.819328,0,0,0,1,0,164,0,1,0,60,99,-8566,2229,11484,3155.5,16,P_GPS,1,1,0,0,0,246,0,1.5314E+12,3776,3769,3761,0,0,0,13,,,,,,,0,0,0,-15,-9,1641,-350,0,1653,6,355,0,85.62,0,0,0,0,,,100,100,0,1,0,0,0,2,0,,,,,0,0,0
51.405554,-2.819227,116,116,0,28,116,116,10.07,28,41156,00:41.2,00:41.2,21,0,0,11.484,51.405509,-2.819328,0,0,0,1,0,165,0,1,0,60,99,-8566,2229,11484,3155.5,16,P_GPS,1,1,0,0,0,248,0,1.5314E+12,3776,3769,3761,0,0,0,13,,,,,,,0,0,0,-13,-9,1654,-350,0,1666,6,355,0,85.56,0,0,0,0,,,100,100,0,1,0,0,0,2,0,,,,,0,0,0
51.405554,-2.819227,116,116,0,28,116,116,10.07,28,41253,00:41.3,00:41.3,21,0,0,11.484,51.405509,-2.819328,0,0,0,1,-1,166,0,1,0,60,99,-8566,2229,11484,3155.5,16,P_GPS,1,1,0,0,0,250,0,1.5314E+12,3776,3769,3761,0,0,0,13,,,,,,,0,0,0,-13,-10,1665,-350,0,1676,6,355,0,85.52,0,0,0,0,,,100,100,0,1,0,0,0,2,0,,,,,0,0,0
51.405554,-2.819228,116,116,0,28,116,116,10.07,28,41359,00:41.4,00:41.4,21,0,0,11.484,51.405509,-2.819328,0,0,0,1,0,167,0,1,0,60,99,-8566,2229,11484,3155.5,16,P_GPS,1,1,0,0,0,251,0,1.5314E+12,3776,3769,3761,0,0,0,13,,,,,,,0,0,0,-15,-9,1675,-350,0,1688,6,355,0,85.47,0,0,0,0,,,100,100,0,1,0,0,0,2,0,,,,,0,0,0
51.405554,-2.819228,116,116,0,28,116,116,10.07,28,41481,00:41.7,00:41.7,21,0,0,11.288,51.405509,-2.819328,0,0,0,1,0,168,0,1,0,60,99,-8372,2225,11288,3155.5,16,P_GPS,1,1,0,0,0,251,0,1.5314E+12,3776,3769,3761,0,0,0,13,,,,,,,0,0,0,-16,-8,1688,-350,0,1700,6,355,0,85.44,0,0,0,0,,,100,100,0,1,0,0,0,2,0,,,,,0,0,0
51.405554,-2.819228,116,116,0,28,116,116,10.07,28,41598,00:41.7,00:41.7,21,0,0,11.288,51.405509,-2.819328,0,0,0,1,0,169,0,1,0,60,99,-8372,2225,11288,3155.5,16,P_GPS,1,1,0,0,0,251,0,1.5314E+12,3776,3769,3761,0,0,0,13,,,,,,,0,0,0,-16,-9,1699,-350,0,1725,6,355,0,85.41,0,0,0,0,,,100,100,0,1,0,0,0,2,0,,,,,0,0,0
51.405554,-2.819228,116,116,0,28,116,116,10.07,28,41654,00:41.7,00:41.7,21,0,0,11.288,51.405509,-2.819328,0,0,0,1,0,171,0,1,0,60,99,-8372,2225,11288,3155.5,16,P_GPS,1,1,0,0,0,251,0,1.5314E+12,3776,3769,3761,0,0,0,13,,,,,,,0,0,0,-16,-9,1710,-350,0,1725,6,355,0,85.39,0,0,0,0,,,100,100,0,1,0,0,0,2,0,,,,,0,0,0
51.405554,-2.819228,116,116,0,28,116,116,10.07,28,41757,00:41.8,00:41.8,21,0,0,11.288,51.405509,-2.819328,0,0,0,1,0,172,0,1,0,60,99,-8372,2225,11288,3155.5,16,P_GPS,1,1,0,0,0,251,0,1.5314E+12,3776,3769,3761,0,0,0,13,,,,,,,0,0,0,-17,-9,1721,-350,0,1736,6,354,0,85.35,0,0,0,0,,,100,100,0,1,0,0,0,2,0,,,,,0,0,0
51.405554,-2.819228,116,116,0,27,116,116,10.07,28,41858,00:41.9,00:41.9,21,0,0,11.288,51.405509,-2.819328,0,0,0,1,0,173,0,1,0,60,99,-8372,2225,11288,3155.5,16,P_GPS,1,1,0,0,0,251,0,1.5314E+12,3776,3769,3761,0,0,0,13,,,,,,,0,0,0,-17,-8,1735,-350,0,1748,6,354,0,85.33,0,0,0,0,,,100,100,0,1,0,0,0,2,0,,,,,0,0,0
51.405554,-2.819228,116,116,0,27,116,116,10.07,28,41962,00:42.0,00:42.0,21,0,0,11.288,51.405509,-2.819328,0,0,0,1,0,174,0,1,0,60,99,-8372,2225,11288,3155.5,16,P_GPS,1,1,0,0,0,252,0,1.5314E+12,3776,3769,3761,0,0,0,13,,,,,,,0,0,0,-17,-5,1745,-350,0,1761,6,354,0,85.32,0,0,0,0,,,100,100,0,1,0,0,0,2,0,,,,,0,0,0
51.405554,-2.819228,116,116,0,27,116,116,10.07,28,42053,00:42.1,00:42.1,21,0,0,11.288,51.405509,-2.819328,0,0,0,1,0,175,0,1,0,60,99,-8372,2225,11288,3155.5,16,P_GPS,1,1,0,0,0,252,0,1.5314E+12,3776,3769,3761,0,0,0,13,,,,,,,0,0,0,-18,-5,1758,-350,0,1773,6,354,0,85.32,0,0,0,0,,,100,100,0,1,0,0,0,2,0,,,,,0,0,0
51.405554,-2.819228,116,116,0,27,116,116,10.07,28,42157,00:42.2,00:42.2,21,0,0,11.288,51.405509,-2.819328,0,0,0,1,0,177,0,1,0,60,99,-8372,2225,11288,3155.5,16,P_GPS,1,1,0,0,0,252,0,1.5314E+12,3776,3769,3761,0,0,0,13,,,,,,,0,0,0,-17,-5,1770,-350,0,1785,6,355,0,85.31,0,0,0,0,,,100,100,0,1,0,0,0,2,0,,,,,0,0,0
51.405554,-2.819228,116,116,0,27,116,116,10.07,28,42258,00:42.3,00:42.3,21,0,0,11.288,51.405509,-2.819328,0,0,0,1,0,178,0,1,0,60,99,-8372,2225,11288,3155.5,16,P_GPS,1,1,0,0,0,251,0,1.5314E+12,3776,3769,3761,0,0,0,13,,,,,,,0,0,0,-18,-5,1781,-350,0,1796,6,355,0,85.3,0,0,0,0,,,100,100,0,1,0,0,0,2,0,,,,,0,0,0
51.405554,-2.819228,116,116,0,27,116,116,10.07,28,42358,00:42.4,00:42.4,21,0,0,11.288,51.405509,-2.819328,0,0,0,1,0,179,0,1,0,60,99,-8372,2225,11288,3155.5,16,P_GPS,1,1,0,0,0,252,0,1.5314E+12,3776,3769,3761,0,0,0,13,,,,,,,0,0,0,-16,-4,1794,-350,0,-1790,6,355,0,85.26,0,0,0,0,,,100,100,0,1,0,0,0,2,0,,,,,0,0,0
51.405554,-2.819228,116,116,0,27,116,116,10.07,28,42484,00:42.7,00:42.7,21,0,0,11.201,51.405509,-2.819328,0,0,0,1,0,-179,0,1,0,60,99,-8388,2225,11201,3155.5,16,P_GPS,1,1,0,0,0,252,0,1.5314E+12,3776,3769,3761,0,0,0,13,,,,,,,0,0,0,-15,-5,-1793,-350,0,-1778,6,355,0,85.24,0,0,0,0,,,100,100,0,1,0,0,0,2,0,,,,,0,0,0
51.405554,-2.819228,116,116,0,27,116,116,10.07,28,42580,00:42.7,00:42.7,21,0,0,11.201,51.405509,-2.819328,0,0,0,1,0,-178,0,1,0,60,99,-8388,2225,11201,3155.5,16,P_GPS,1,1,0,0,0,252,0,1.5314E+12,3776,3769,3761,0,0,0,13,,,,,,,0,0,0,-11,-2,-1780,-350,0,-1766,6,355,0,85.21,0,0,0,0,,,100,100,0,1,0,0,0,2,0,,,,,0,0,0
51.405554,-2.819228,116,116,0,27,116,116,10.07,28,42673,00:42.8,00:42.8,21,0,0,11.201,51.405509,-2.819328,0,0,0,1,0,-177,0,1,0,60,99,-8388,2225,11201,3155.5,16,P_GPS,1,1,0,0,0,252,0,1.5314E+12,3776,3769,3761,0,0,0,13,,,,,,,0,0,0,-15,-4,-1770,-350,0,-1753,6,355,0,85.2,0,0,0,0,,,100,100,0,1,0,0,0,2,0,,,,,0,0,0
51.405554,-2.819228,116,116,0,27,116,116,10.07,28,42757,00:42.8,00:42.8,21,0,0,11.201,51.405509,-2.819328,0,0,0,1,0,-175,0,1,0,60,99,-8388,2225,11201,3155.5,16,P_GPS,1,1,0,0,0,253,0,1.5314E+12,3776,3769,3761,0,0,0,13,,,,,,,0,0,0,-16,0,-1758,-350,0,-1741,6,355,0,85.19,0,0,0,0,,,100,100,0,1,0,0,0,2,0,,,,,0,0,0
51.405554,-2.819228,116,116,0,27,116,116,10.07,28,42860,00:42.9,00:42.9,21,0,0,11.201,51.405509,-2.819328,0,0,0,1,0,-174,0,1,0,60,99,-8388,2225,11201,3155.5,16,P_GPS,1,1,0,0,0,253,0,1.5314E+12,3776,3769,3761,0,0,0,13,,,,,,,0,0,0,-16,-1,-1745,-350,0,-1728,6,354,0,85.18,0,0,0,0,,,100,100,0,1,0,0,0,2,0,,,,,0,0,0
51.405554,-2.819228,116,116,0,27,116,116,10.07,28,42960,00:43.0,00:43.0,21,0,0,11.201,51.405509,-2.819328,0,0,0,1,0,-173,0,1,0,60,99,-8388,2225,11201,3155.5,16,P_GPS,1,1,0,0,0,254,0,1.5314E+12,3776,3769,3761,0,0,0,13,,,,,,,0,0,0,-17,-1,-1734,-350,0,-1716,6,355,0,85.17,0,0,0,0,,,100,100,0,1,0,0,0,2,0,,,,,0,0,0
51.405554,-2.819228,116,116,0,27,116,116,10.07,28,43060,00:43.1,00:43.1,21,0,0,11.201,51.405509,-2.819328,0,0,0,1,0,-172,0,1,0,60,99,-8388,2225,11201,3155.5,16,P_GPS,1,1,0,0,0,255,0,1.5314E+12,3776,3769,3761,0,0,0,13,,,,,,,0,0,0,-18,0,-1721,-350,0,-1705,6,355,0,85.16,0,0,0,0,,,100,100,0,1,0,0,0,2,0,,,,,0,0,0
51.405554,-2.819228,116,116,0,27,116,116,10.07,28,43155,00:43.2,00:43.2,21,0,0,11.201,51.405509,-2.819328,0,0,0,1,0,-171,0,1,0,60,99,-8388,2225,11201,3155.5,16,P_GPS,1,1,0,0,0,255,0,1.5314E+12,3776,3769,3761,0,0,0,13,,,,,,,0,0,0,-18,0,-1710,-350,0,-1691,6,355,0,85.13,0,0,0,0,,,100,100,0,1,0,0,0,2,0,,,,,0,0,0
51.405554,-2.819228,116,116,0,27,116,116,10.07,28,43253,00:43.3,00:43.3,21,0,0,11.201,51.405509,-2.819328,0,0,0,1,0,-169,0,1,0,60,99,-8388,2225,11201,3155.5,16,P_GPS,1,1,0,0,0,255,0,1.5314E+12,3776,3769,3761,0,0,0,13,,,,,,,0,0,0,-18,1,-1698,-350,0,-1680,6,355,0,85.11,0,0,0,0,,,100,100,0,1,0,0,0,2,0,,,,,0,0,0
51.405554,-2.819228,116,116,0,27,116,116,10.07,28,43357,00:43.4,00:43.4,21,0,0,11.201,51.405509,-2.819328,0,0,0,1,0,-168,0,1,0,60,99,-8388,2225,11201,3155.5,16,P_GPS,1,1,0,0,0,256,0,1.5314E+12,3776,3769,3761,0,0,0,13,,,,,,,0,0,0,-18,2,-1686,-350,0,-1666,6,355,0,85.08,0,0,0,0,,,100,100,0,1,0,0,0,2,0,,,,,0,0,0
51.405554,-2.819228,116,116,0,27,116,116,10.07,28,43459,00:43.5,00:43.5,21,0,0,11.201,51.405509,-2.819328,0,0,0,2,0,-167,0,1,0,60,99,-8388,2225,11201,3155.5,16,P_GPS,1,1,0,0,0,257,0,1.5314E+12,3776,3769,3761,0,0,0,13,,,,,,,0,0,0,-20,0,-1674,-350,0,-1653,6,355,0,85.06,0,0,0,0,,,100,100,0,1,0,0,0,2,0,,,,,0,0,0
51.405554,-2.819229,116,116,0,27,116,116,10.07,28,43619,00:43.8,00:43.8,21,0,0,11.484,51.405509,-2.819328,0,0,0,1,0,-166,0,1,0,59,99,-8388,2221,11484,3156.5,16,P_GPS,1,1,0,0,0,256,0,1.5314E+12,3776,3769,3761,0,0,0,13,,,,,,,0,0,0,-18,1,-1660,-350,0,-1641,6,355,0,85.02,0,0,0,0,,,100,100,0,1,0,0,0,2,0,,,,,0,0,0
51.405554,-2.819229,116,116,0,27,116,116,10.07,28,43726,00:43.8,00:43.8,21,0,0,11.484,51.405509,-2.819328,0,0,0,1,0,-164,0,1,0,59,99,-8388,2221,11484,3156.5,16,P_GPS,1,1,0,0,0,256,0,1.5314E+12,3776,3769,3761,0,0,0,13,,,,,,,0,0,0,-18,2,-1648,-350,0,-1616,6,355,0,85,0,0,0,0,,,100,100,0,1,0,0,0,2,0,,,,,0,0,0
51.405554,-2.819229,116,116,0,27,116,116,10.07,28,43776,00:43.9,00:43.9,21,0,0,11.484,51.405509,-2.819328,0,0,0,1,0,-163,0,1,0,59,99,-8388,2221,11484,3156.5,16,P_GPS,1,1,0,0,0,256,0,1.5314E+12,3776,3769,3761,0,0,0,13,,,,,,,0,0,0,-17,0,-1635,-350,0,-1616,6,355,0,84.97,0,0,0,0,,,100,100,0,1,0,0,0,2,0,,,,,0,0,0
51.405554,-2.819229,116,116,0,27,116,116,10.07,28,43855,00:43.9,00:43.9,21,0,0,11.484,51.405509,-2.819328,0,0,0,1,0,-162,0,1,0,59,99,-8388,2221,11484,3156.5,16,P_GPS,1,1,0,0,0,257,0,1.5314E+12,3776,3769,3761,0,0,0,13,,,,,,,0,0,0,-18,1,-1624,-350,0,-1603,6,355,0,84.96,0,0,0,0,,,100,100,0,1,0,0,0,2,0,,,,,0,0,0
51.405554,-2.819229,116,116,0,27,116,116,10.07,28,43957,00:44.0,00:44.0,21,0,0,11.484,51.405509,-2.819328,0,0,0,1,0,-161,0,1,0,59,99,-8388,2221,11484,3156.5,16,P_GPS,1,1,0,0,0,257,0,1.5314E+12,3776,3769,3761,0,0,0,13,,,,,,,0,0,0,-17,2,-1611,-350,0,-1591,6,355,0,84.93,0,0,0,0,,,100,100,0,1,0,0,0,2,0,,,,,0,0,0
51.405554,-2.819229,116,116,0,27,116,116,10.07,28,44056,00:44.1,00:44.1,21,0,0,11.484,51.405509,-2.819328,0,0,0,2,0,-159,0,1,0,59,99,-8388,2221,11484,3156.5,16,P_GPS,1,1,0,0,0,256,0,1.5314E+12,3776,3769,3761,0,0,0,13,,,,,,,0,0,0,-21,4,-1599,-350,0,-1578,6,355,0,84.91,0,0,0,0,,,100,100,0,1,0,0,0,2,0,,,,,0,0,0
51.405554,-2.819229,116,116,0,27,116,116,10.07,28,44156,00:44.2,00:44.2,21,0,0,11.484,51.405509,-2.819328,0,0,0,2,0,-158,0,1,0,59,99,-8388,2221,11484,3156.5,16,P_GPS,1,1,0,0,0,257,0,1.5314E+12,3776,3769,3761,0,0,0,13,,,,,,,0,0,0,-21,4,-1585,-350,0,-1566,6,355,0,84.88,0,0,0,0,,,100,100,0,1,0,0,0,2,0,,,,,0,0,0
51.405554,-2.819229,116,116,0,27,116,116,10.07,28,44256,00:44.3,00:44.3,21,0,0,11.484,51.405509,-2.819328,0,0,0,2,0,-157,0,1,0,59,99,-8388,2221,11484,3156.5,16,P_GPS,1,1,0,0,0,258,0,1.5314E+12,3776,3769,3761,0,0,0,13,,,,,,,0,0,0,-22,6,-1574,-350,0,-1553,6,355,0,84.86,0,0,0,0,,,100,100,0,1,0,0,0,2,0,,,,,0,0,0
51.405554,-2.819229,116,116,0,27,116,116,10.07,28,44354,00:44.4,00:44.4,21,0,0,11.484,51.405509,-2.819328,0,0,0,1,1,-156,0,1,0,59,99,-8388,2221,11484,3156.5,16,P_GPS,1,1,0,0,0,258,0,1.5314E+12,3776,3769,3761,0,0,0,13,,,,,,,0,0,0,-18,10,-1560,-350,0,-1540,6,355,0,84.83,0,0,0,0,,,100,100,0,1,0,0,0,2,0,,,,,0,0,0
51.405554,-2.819229,116,116,0,27,116,116,10.07,28,44466,00:44.5,00:44.5,21,0,0,11.484,51.405509,-2.819328,0,0,0,1,0,-154,0,1,0,59,99,-8388,2221,11484,3156.5,16,P_GPS,1,1,0,0,0,258,0,1.5314E+12,3776,3769,3761,0,0,0,13,,,,,,,0,0,0,-17,5,-1546,-350,0,-1526,6,355,0,84.8,0,0,0,0,,,100,100,0,1,0,0,0,2,0,,,,,0,0,0
51.405554,-2.819229,116,116,0,27,116,116,10.07,28,44559,00:44.6,00:44.6,21,0,0,11.397,51.405509,-2.819328,0,0,0,1,0,-153,0,1,0,59,99,-8388,2219,11397,3156.5,16,P_GPS,1,1,0,0,0,266,0,1.5314E+12,3776,3769,3761,0,0,0,13,,,,,,,0,0,0,-16,4,-1534,-350,0,-1515,6,355,0,84.76,0,0,0,0,,,100,100,0,1,0,0,0,2,0,,,,,0,0,0
51.405554,-2.819229,116,116,0,27,116,116,10.07,28,44743,00:45.3,00:45.3,21,0,0,11.397,51.405509,-2.819328,0,0,0,1,0,-152,0,1,0,59,99,-8388,2219,11397,3156.5,16,P_GPS,1,1,0,0,0,279,0,1.5314E+12,3776,3769,3761,0,0,0,13,,,,,,,0,0,0,-18,2,-1520,-350,0,-1501,6,355,0,84.72,0,0,0,0,,,100,100,0,1,0,0,0,2,0,,,,,0,0,0
51.405554,-2.819229,116,116,0,27,116,116,10.07,28,45216,00:45.3,00:45.3,21,0,0,11.397,51.405509,-2.819328,0,0,0,1,0,-149,0,1,0,59,99,-8388,2219,11397,3156.5,16,P_GPS,1,1,0,0,0,279,0,1.5314E+12,3776,3769,3761,0,0,0,13,,,,,,,0,0,0,-18,6,-1493,-350,0,-1456,6,355,0,84.64,0,0,0,0,,,100,100,0,1,0,0,0,2,0,,,,,0,0,0
51.405554,-2.819229,116,116,0,27,116,116,10.07,28,45220,00:45.3,00:45.3,21,0,0,11.397,51.405509,-2.819328,0,0,0,1,0,-148,0,1,0,59,99,-8388,2219,11397,3156.5,16,P_GPS,1,1,0,0,0,279,0,1.5314E+12,3776,3769,3761,0,0,0,13,,,,,,,0,0,0,-17,6,-1480,-350,0,-1456,6,355,0,84.59,0,0,0,0,,,100,100,0,1,0,0,0,2,0,,,,,0,0,0
51.405554,-2.819229,116,116,0,27,116,116,10.07,28,45224,00:45.3,00:45.3,21,0,0,11.397,51.405509,-2.819328,0,0,0,1,0,-148,0,1,0,59,99,-8388,2219,11397,3156.5,16,P_GPS,1,1,0,0,0,279,0,1.5314E+12,3776,3769,3761,0,0,0,13,,,,,,,0,0,0,-17,6,-1480,-350,0,-1456,6,355,0,84.59,0,0,0,0,,,100,100,0,1,0,0,0,2,0,,,,,0,0,0
51.405554,-2.819229,116,116,0,27,116,116,10.07,28,45231,00:45.3,00:45.3,21,0,0,11.397,51.405509,-2.819328,0,0,0,1,0,-146,0,1,0,59,99,-8388,2219,11397,3156.5,16,P_GPS,1,1,0,0,0,278,0,1.5314E+12,3776,3769,3761,0,0,0,13,,,,,,,0,0,0,-17,9,-1465,-350,0,-1440,6,355,0,84.56,0,0,0,0,,,100,100,0,1,0,0,0,2,0,,,,,0,0,0
51.405554,-2.819229,116,116,0,27,116,116,10.07,28,45252,00:45.3,00:45.3,21,0,0,11.397,51.405509,-2.819328,0,0,0,1,0,-145,0,1,0,59,99,-8388,2219,11397,3156.5,16,P_GPS,1,1,0,0,0,279,0,1.5314E+12,3776,3769,3761,0,0,0,13,,,,,,,0,0,0,-18,9,-1450,-350,0,-1425,6,355,0,84.52,0,0,0,0,,,100,100,0,1,0,0,0,2,0,,,,,0,0,0
51.405554,-2.819229,116,116,0,27,116,116,10.07,28,45274,00:45.4,00:45.4,21,0,0,11.397,51.405509,-2.819328,0,0,0,1,0,-143,0,1,0,59,99,-8388,2219,11397,3156.5,16,P_GPS,1,1,0,0,0,279,0,1.5314E+12,3776,3769,3761,0,0,0,13,,,,,,,0,0,0,-18,6,-1435,-350,0,-1410,6,355,0,84.49,0,0,0,0,,,100,100,0,1,0,0,0,2,0,,,,,0,0,0
51.405554,-2.819229,116,116,0,27,116,116,10.07,28,45366,00:45.4,00:45.4,21,0,0,11.397,51.405509,-2.819328,0,0,0,1,0,-142,0,1,0,59,99,-8388,2219,11397,3156.5,16,P_GPS,1,1,0,0,0,278,0,1.5314E+12,3776,3769,3761,0,0,0,13,,,,,,,0,0,0,-18,9,-1420,-350,0,-1393,6,355,0,84.47,0,0,0,0,,,100,100,0,1,0,0,0,2,0,,,,,0,0,0
51.405554,-2.819229,116,116,0,27,116,116,10.07,28,45469,00:45.5,00:45.5,21,0,0,11.397,51.405509,-2.819328,0,0,0,1,1,-140,0,1,0,59,99,-8388,2219,11397,3156.5,16,P_GPS,1,1,0,0,0,278,0,1.5314E+12,3776,3769,3761,0,0,0,13,,,,,,,0,0,0,-16,10,-1405,-350,0,-1378,6,355,0,84.46,0,0,0,0,,,100,100,0,1,0,0,0,2,0,,,,,0,0,0
51.405554,-2.819229,116,116,0,27,116,116,10.07,28,45558,00:45.6,00:45.6,21,0,0,11.441,51.405509,-2.819328,0,0,0,1,1,-139,0,1,0,59,99,-8036,2217,11441,3156.5,16,P_GPS,1,1,0,0,0,278,0,1.5314E+12,3776,3769,3761,0,0,0,13,,,,,,,0,0,0,-15,11,-1390,-350,0,-1363,6,355,0,84.46,0,0,0,0,,,100,100,0,1,0,0,0,2,0,,,,,0,0,0
51.405554,-2.819229,116,116,0,27,116,116,10.07,28,45660,00:45.7,00:45.7,21,0,0,11.441,51.405509,-2.819328,0,0,0,1,1,-137,0,1,0,59,99,-8036,2217,11441,3156.5,16,P_GPS,1,1,0,0,0,277,0,1.5314E+12,3776,3769,3761,0,0,0,13,,,,,,,0,0,0,-13,11,-1375,-350,0,-1348,6,355,0,84.47,0,0,0,0,,,100,100,0,1,0,0,0,2,0,,,,,0,0,0
51.405554,-2.81923,116,116,0,27,116,116,10.07,28,45767,00:46.4,00:46.4,21,0,0,11.441,51.405509,-2.819328,0,0,0,1,1,-136,0,1,0,59,99,-8036,2217,11441,3156.5,16,P_GPS,1,1,0,0,0,271,0,1.5314E+12,3776,3769,3761,0,0,0,13,,,,,,,0,0,0,-13,10,-1360,-350,0,-1333,6,355,0,84.47,0,0,0,0,,,100,100,0,1,0,0,0,2,0,,,,,0,0,0
51.405554,-2.81923,116,116,0,27,116,116,10.07,28,46320,00:46.4,00:46.4,21,0,0,11.441,51.405509,-2.819328,0,0,0,1,1,-134,0,1,0,59,99,-8036,2217,11441,3156.5,16,P_GPS,1,1,0,0,0,271,0,1.5314E+12,3776,3769,3761,0,0,0,13,,,,,,,0,0,0,-13,10,-1345,-350,0,-1318,6,355,0,84.47,0,0,0,0,,,100,100,0,1,0,0,0,2,0,,,,,0,0,0
51.405554,-2.81923,116,116,0,27,116,116,10.07,28,46356,00:46.4,00:46.4,21,0,0,11.441,51.405509,-2.819328,0,0,0,1,0,-130,0,1,0,59,99,-8036,2217,11441,3156.5,16,P_GPS,1,1,0,0,0,270,0,1.5314E+12,3776,3769,3761,0,0,0,13,,,,,,,0,0,0,-13,9,-1300,-350,0,-1303,6,355,0,84.52,0,0,0,0,,,100,100,0,1,0,0,0,2,0,,,,,0,0,0
51.405554,-2.81923,116,116,0,27,116,116,10.07,28,46365,00:46.4,00:46.4,21,0,0,11.441,51.405509,-2.819328,0,0,0,1,0,-130,0,1,0,59,99,-8036,2217,11441,3156.5,16,P_GPS,1,1,0,0,0,270,0,1.5314E+12,3776,3769,3761,0,0,0,13,,,,,,,0,0,0,-13,9,-1300,-350,0,-1260,6,355,0,84.52,0,0,0,0,,,100,100,0,1,0,0,0,2,0,,,,,0,0,0
51.405554,-2.81923,116,116,0,27,116,116,10.07,28,46367,00:46.4,00:46.4,21,0,0,11.441,51.405509,-2.819328,0,0,0,1,1,-128,0,1,0,59,99,-8036,2217,11441,3156.5,16,P_GPS,1,1,0,0,0,270,0,1.5314E+12,3776,3769,3761,0,0,0,13,,,,,,,0,0,0,-13,11,-1286,-350,0,-1260,6,355,0,84.54,0,0,0,0,,,100,100,0,1,0,0,0,2,0,,,,,0,0,0
51.405554,-2.81923,116,116,0,27,116,116,10.07,28,46369,00:46.4,00:46.4,21,0,0,11.441,51.405509,-2.819328,0,0,0,1,1,-128,0,1,0,59,99,-8036,2217,11441,3156.5,16,P_GPS,1,1,0,0,0,270,0,1.5314E+12,3776,3769,3761,0,0,0,13,,,,,,,0,0,0,-13,11,-1286,-350,0,-1260,6,355,0,84.54,0,0,0,0,,,100,100,0,1,0,0,0,2,0,,,,,0,0,0
51.405554,-2.81923,116,116,0,27,116,116,10.07,28,46373,00:46.4,00:46.4,21,0,0,11.441,51.405509,-2.819328,0,0,0,1,1,-127,0,1,0,59,99,-8036,2217,11441,3156.5,16,P_GPS,1,1,0,0,0,270,0,1.5314E+12,3776,3769,3761,0,0,0,13,,,,,,,0,0,0,-15,11,-1272,-350,0,-1246,6,355,0,84.56,0,0,0,0,,,100,100,0,1,0,0,0,2,0,,,,,0,0,0
51.405554,-2.81923,116,116,0,27,116,116,10.07,28,46456,00:46.5,00:46.5,21,0,0,11.441,51.405509,-2.819328,0,0,0,1,0,-125,0,1,0,59,99,-8036,2217,11441,3156.5,16,P_GPS,1,1,0,0,0,270,0,1.5314E+12,3776,3769,3761,0,0,0,13,,,,,,,0,0,0,-15,9,-1257,-350,0,-1231,6,355,0,84.58,0,0,0,0,,,100,100,0,1,0,0,0,2,0,,,,,0,0,0
51.405554,-2.81923,116,116,0,27,116,116,10.07,28,46558,00:46.6,00:46.6,21,0,0,11.441,51.405509,-2.819328,0,0,0,1,0,-124,0,1,0,59,99,-8182,2213,11441,3157.5,16,P_GPS,1,1,0,0,0,270,0,1.5314E+12,3776,3769,3761,0,0,0,13,,,,,,,0,0,0,-13,9,-1244,-350,0,-1218,6,355,0,84.57,0,0,0,0,,,100,100,0,1,0,0,0,2,0,,,,,0,0,0
51.405554,-2.81923,116,116,0,27,116,116,10.07,28,46658,00:46.7,00:46.7,21,0,0,11.441,51.405509,-2.819328,0,0,0,1,0,-123,0,1,0,59,99,-8182,2213,11441,3157.5,16,P_GPS,1,1,0,0,0,269,0,1.5314E+12,3776,3769,3761,0,0,0,13,,,,,,,0,0,0,-15,9,-1230,-350,0,-1204,6,355,0,84.57,0,0,0,0,,,100,100,0,1,0,0,0,2,0,,,,,0,0,0
51.405554,-2.81923,116,116,0,27,116,116,10.07,28,46763,00:46.8,00:46.8,21,0,0,11.441,51.405509,-2.819328,0,0,0,1,0,-121,0,1,0,59,99,-8182,2213,11441,3157.5,16,P_GPS,1,1,0,0,0,268,0,1.5314E+12,3776,3769,3761,0,0,0,13,,,,,,,0,0,0,-13,9,-1215,-350,0,-1204,6,355,0,84.56,0,0,0,0,,,100,100,0,1,0,0,0,2,0,,,,,0,0,0
51.405554,-2.81923,116,116,0,27,116,116,10.07,28,46861,00:47.0,00:47.0,21,0,0,11.441,51.405509,-2.819328,0,0,0,1,1,-120,0,1,0,59,99,-8182,2213,11441,3157.5,16,P_GPS,1,1,0,0,0,267,0,1.5314E+12,3776,3769,3761,0,0,0,13,,,,,,,0,0,0,-13,11,-1202,-350,0,-1175,6,355,0,84.57,0,0,0,0,,,100,100,0,1,0,0,0,2,0,,,,,0,0,0
51.405554,-2.81923,116,116,0,27,116,116,10.07,28,46964,00:47.0,00:47.0,21,0,0,11.441,51.405509,-2.819328,0,0,0,1,1,-118,0,1,0,59,99,-8182,2213,11441,3157.5,16,P_GPS,1,1,0,0,0,267,0,1.5314E+12,3776,3769,3761,0,0,0,13,,,,,,,0,0,0,-13,11,-1188,-350,0,-1175,6,355,0,84.57,0,0,0,0,,,100,100,0,1,0,0,0,2,0,,,,,0,0,0
51.405554,-2.81923,116,116,0,27,116,116,10.07,28,47058,00:47.1,00:47.1,21,0,0,11.441,51.405509,-2.819328,0,0,0,1,1,-117,0,1,0,59,99,-8182,2213,11441,3157.5,16,P_GPS,1,1,0,0,0,267,0,1.5314E+12,3776,3769,3761,0,0,0,13,,,,,,,0,0,0,-13,11,-1174,-350,0,-1160,6,355,0,84.57,0,0,0,0,,,100,100,0,1,0,0,0,2,0,,,,,0,0,0
51.405554,-2.81923,116,116,0,27,116,116,10.07,28,47156,00:47.2,00:47.2,21,0,0,11.441,51.405509,-2.819328,0,0,0,1,1,-116,0,1,0,59,99,-8182,2213,11441,3157.5,16,P_GPS,1,1,0,0,0,267,0,1.5314E+12,3776,3769,3761,0,0,0,13,,,,,,,0,0,0,-13,13,-1160,-350,0,-1146,6,355,0,84.55,0,0,0,0,,,100,100,0,1,0,0,0,2,0,,,,,0,0,0
51.405554,-2.81923,116,116,0,27,116,116,10.07,28,47259,00:47.3,00:47.3,21,0,0,11.441,51.405509,-2.819328,0,0,0,1,1,-114,0,1,0,59,99,-8182,2213,11441,3157.5,16,P_GPS,1,1,0,0,0,267,0,1.5314E+12,3776,3769,3761,0,0,0,13,,,,,,,0,0,0,-13,13,-1147,-350,0,-1133,6,355,0,84.54,0,0,0,0,,,100,100,0,1,0,0,0,2,0,,,,,0,0,0
51.405554,-2.81923,116,116,0,27,116,116,10.07,28,47359,00:47.4,00:47.4,21,0,0,11.441,51.405509,-2.819328,0,0,0,1,1,-113,0,1,0,59,99,-8182,2213,11441,3157.5,16,P_GPS,1,1,0,0,0,264,0,1.5314E+12,3776,3769,3761,0,0,0,13,,,,,,,0,0,0,-13,13,-1132,-350,0,-1119,6,355,0,84.51,0,0,0,0,,,100,100,0,1,0,0,0,2,0,,,,,0,0,0
51.405554,-2.81923,116,116,0,27,116,116,10.07,28,47457,00:47.5,00:47.5,21,0,0,11.441,51.405509,-2.819328,0,0,0,1,1,-111,0,1,0,59,99,-8182,2213,11441,3157.5,16,P_GPS,1,1,0,0,0,260,0,1.5314E+12,3776,3769,3761,0,0,0,13,,,,,,,0,0,0,-13,16,-1118,-350,0,-1105,6,355,0,84.5,0,0,0,0,,,100,100,0,1,0,0,0,2,0,,,,,0,0,0
51.405554,-2.81923,116,116,0,27,116,116,10.07,28,47557,00:47.6,00:47.6,21,0,0,11.462,51.405509,-2.819328,0,0,0,1,1,-110,0,1,0,59,99,-8182,2213,11462,3157.5,16,P_GPS,1,1,0,0,0,261,0,1.5314E+12,3776,3769,3761,0,0,0,13,,,,,,,0,0,0,-13,16,-1104,-350,0,-1091,6,355,0,84.47,0,0,0,0,,,100,100,0,1,0,0,0,2,0,,,,,0,0,0
51.405554,-2.81923,116,116,0,27,116,116,10.07,28,47659,00:47.7,00:47.7,21,0,0,11.462,51.405509,-2.819328,0,0,0,1,1,-109,0,1,0,59,99,-8182,2213,11462,3157.5,16,P_GPS,1,1,0,0,0,255,0,1.5314E+12,3776,3769,3761,0,0,0,13,,,,,,,0,0,0,-13,16,-1090,-350,0,-1079,6,355,0,84.45,0,0,0,0,,,100,100,0,1,0,0,0,2,0,,,,,0,0,0
51.405554,-2.81923,116,116,0,27,116,116,10.07,28,47759,00:47.8,00:47.8,21,0,0,11.462,51.405509,-2.819328,0,0,0,1,1,-107,0,1,0,59,99,-8182,2213,11462,3157.5,16,P_GPS,1,1,0,0,0,255,0,1.5314E+12,3776,3769,3761,0,0,0,13,,,,,,,0,0,0,-13,16,-1078,-350,0,-1065,6,355,0,84.43,0,0,0,0,,,100,100,0,1,0,0,0,2,0,,,,,0,0,0
51.405554,-2.81923,116,116,0,27,116,116,10.07,28,47873,00:48.0,00:48.0,21,0,0,11.462,51.405509,-2.819328,0,0,0,1,1,-106,0,1,0,59,99,-8182,2213,11462,3157.5,16,P_GPS,1,1,0,0,0,254,0,1.5314E+12,3776,3769,3761,0,0,0,13,,,,,,,0,0,0,-13,18,-1065,-350,0,-1053,6,355,0,84.42,0,0,0,0,,,100,100,0,1,0,0,0,2,0,,,,,0,0,0
