latitude,longitude,altitude(feet),ascent(feet),speed(mph),distance(feet),max_altitude(feet),max_ascent(feet),max_speed(mph),max_distance(feet),time(millisecond),datetime(utc),datetime(local),satellites,pressure(Pa),temperature(F),voltage(v),home_latitude,home_longitude,velocityX(mph),velocityY(mph),velocityZ(mph),pitch(deg),roll(deg),yaw(deg),powerlevel,isflying,istakingphoto,remainPowerPercent,remainLifePercent,currentCurrent,currentElectricity,currentVoltage,batteryTemperature,dischargeCount,flightmode,isMotorsOn,isTakingVideo,Rc_elevator,Rc_aileron,Rc_throttle,Rc_rudder,Rc_gyro,timestamp,Battery_Cell1,Battery_Cell2,Battery_Cell3,Battery_Cell4,Battery_Cell5,Battery_Cell6,Dronetype,AppVersion,Planename,FlyControllerSerialNumber,RemoteSerialNumber,BatterySerialNumber,CENTER_BATTERY.productDate,CENTER_BATTERY.serialNo,CENTER_BATTERY.fullCapacity,CENTER_BATTERY.productDateRaw,pitchRaw,rollRaw,yawRaw,gimbalPitchRaw,gimbalRollRaw,gimbalYawRaw,flyState,altitudeRaw,speedRaw,distanceRaw,velocityXRaw,velocityYRaw,velocityZRaw,data_reuse,App_Tip,App_Warning,downlinkSignalQuality,uplinkSignalQuality,transmissionChannel,rcModeSwitch,rcHome,rcPause,rcTransform,rcJoystickMode,appMode,FlyControllerSerialNumber_legacy,RemoteSerialNumber_legacy,BatterySerialNumber_legacy,Battery2SerialNumber,frontAvoidDist,backAvoidDist,isBrakingToAvoid
51.405517,-2.819335,2,2,5.15,0,2,2,5.15,0,0,2018-07-12 14:02:07.338,2018-07-12 15:02:07.338,21,0,0.00,11.506000,51.405517,-2.819335,-0.22,0.00,-5.14,-1,0,39,0,1,0,55,99,-3176,2065,11506,3164.50,16,P_GPS,1,0,0,0,660,0,0,1531404127329,3837,3833,3834,0,0,0,13,Litchi_4.7-g,markmavic,08RDE3400101DF,08XUE3E0013AD2,093AE2Q03102B9,,0,0,0,15,-2,397,-350,0,397,6,8,23.02,0.67,-1,0,-22,0,,,100,100,0,1,0,0,0,2,0,,,,,0.0,0.0,0
51.405517,-2.819335,3,3,5.82,0,3,3,5.82,0,105,2018-07-12 14:02:07.434,2018-07-12 15:02:07.434,21,0,0.00,11.506000,51.405517,-2.819335,0.00,0.00,-5.82,-1,0,39,0,1,0,55,99,-3176,2065,11506,3164.50,16,P_GPS,1,0,0,0,660,0,0,1531404127434,3837,3833,3834,0,0,0,13,,,,,,,0,0,0,13,-5,397,-350,0,397,6,11,26.00,0.73,0,0,-25,0,,,100,100,0,1,0,0,0,2,0,,,,,2.5,0.0,0
51.405517,-2.819335,4,4,6.71,0,4,4,6.71,0,219,2018-07-12 14:02:07.549,2018-07-12 15:02:07.549,21,0,0.00,11.506000,51.405517,-2.819335,0.00,0.00,-6.71,-1,0,39,0,1,0,55,99,-3176,2065,11506,3164.50,16,P_GPS,1,0,0,0,660,0,0,1531404127548,3837,3833,3834,0,0,0,13,,,,,,,0,0,0,16,-5,397,-350,0,397,6,13,30.00,0.78,0,0,-30,0,,,100,100,0,1,0,0,0,2,0,,,,,2.5,0.0,0
51.405517,-2.819335,5,5,7.61,0,5,5,7.61,0,307,2018-07-12 14:02:07.636,2018-07-12 15:02:07.636,21,0,0.00,11.506000,51.405517,-2.819335,0.00,0.00,-7.61,-1,0,39,0,1,0,55,99,-10396,2061,11506,3164.50,16,P_GPS,1,0,0,0,568,0,0,1531404127636,3837,3833,3834,0,0,0,13,,,,,,,0,0,0,18,0,397,-350,0,397,6,17,34.00,0.81,0,0,-34,0,,,100,100,0,1,0,0,0,2,0,,,,,3.4,0.0,0
51.405517,-2.819335,6,6,8.28,0,6,6,8.28,0,398,2018-07-12 14:02:07.728,2018-07-12 15:02:07.728,21,0,0.00,11.506000,51.405517,-2.819335,0.00,0.00,-8.28,-1,0,39,0,1,0,55,99,-10396,2061,11506,3164.50,16,P_GPS,1,0,136,0,108,0,0,1531404127727,3837,3833,3834,0,0,0,13,,,,,,,0,0,0,18,0,398,-350,0,397,6,20,37.00,0.83,0,0,-37,0,,,100,100,0,1,0,0,0,2,0,,,,,3.4,0.0,0
51.405517,-2.819335,7,7,8.50,0,7,7,8.50,0,501,2018-07-12 14:02:07.937,2018-07-12 15:02:07.937,21,0,0.00,11.506000,51.405517,-2.819335,0.00,0.00,-8.50,-1,0,39,0,1,0,55,99,-10396,2061,11506,3164.50,16,P_GPS,1,0,660,0,0,0,0,1531404127830,3837,3833,3834,0,0,0,13,,,,,,,0,0,0,16,-5,397,-350,0,397,6,24,38.00,0.92,0,0,-37,0,,,100,100,0,1,0,0,0,2,0,,,,,4.8,0.0,0
51.405516,-2.819335,9,9,8.50,0,9,9,8.50,0,610,2018-07-12 14:02:07.939,2018-07-12 15:02:07.939,21,0,0.00,11.506000,51.405517,-2.819335,0.00,0.00,-8.50,-3,0,39,0,1,0,55,99,-10396,2061,11506,3164.50,16,P_GPS,1,0,660,0,0,0,0,1531404127939,3837,3833,3834,0,0,0,13,,,,,,,0,0,0,37,-6,397,-350,0,397,6,27,38.00,0.98,0,0,-37,0,,,100,100,0,1,0,0,0,2,0,,,,,4.8,0.0,0
51.405516,-2.819335,10,10,8.28,0,10,10,8.50,0,702,2018-07-12 14:02:08.032,2018-07-12 15:02:08.032,21,0,0.00,11.506000,51.405517,-2.819335,0.00,0.00,-8.28,-4,0,39,0,1,0,55,99,-10396,2061,11506,3164.50,16,P_GPS,1,0,660,0,0,0,0,1531404128031,3837,3833,3834,0,0,0,13,,,,,,,0,0,0,47,-8,397,-350,0,397,6,32,37.00,0.99,0,0,-37,0,,,100,100,0,1,0,0,0,2,0,,,,,0.0,0.0,0
51.405516,-2.819335,11,11,7.61,0,11,11,8.50,0,805,2018-07-12 14:02:08.135,2018-07-12 15:02:08.135,21,0,0.00,11.506000,51.405517,-2.819335,0.00,0.00,-7.61,-5,-1,39,0,1,0,55,99,-10396,2061,11506,3164.50,16,P_GPS,1,0,660,0,0,0,0,1531404128134,3837,3833,3834,0,0,0,13,,,,,,,0,0,0,59,-11,397,-350,0,397,6,35,34.00,0.94,0,0,-34,0,,,100,100,0,1,0,0,0,2,0,,,,,0.0,0.0,0
51.405517,-2.819335,12,12,6.94,0,12,12,8.50,0,907,2018-07-12 14:02:08.236,2018-07-12 15:02:08.237,21,0,0.00,11.506000,51.405517,-2.819335,0.00,0.22,-6.93,-6,0,39,0,1,0,55,99,-10396,2061,11506,3164.50,16,P_GPS,1,0,660,0,0,0,0,1531404128236,3837,3833,3834,0,0,0,13,,,,,,,0,0,0,69,-6,397,-350,0,397,6,39,31.02,0.86,0,1,-30,0,,,100,100,0,1,0,0,0,2,0,,,,,0.0,0.0,0
51.405517,-2.819335,13,13,6.05,0,13,13,8.50,0,997,2018-07-12 14:02:08.327,2018-07-12 15:02:08.327,21,0,0.00,11.506000,51.405517,-2.819335,0.22,0.22,-6.04,-8,0,39,0,1,0,55,99,-10396,2061,11506,3164.50,16,P_GPS,1,0,660,0,0,0,0,1531404128326,3837,3833,3834,0,0,0,13,,,,,,,0,0,0,84,-4,397,-350,0,397,6,41,27.04,0.73,1,1,-27,0,,,100,100,0,1,0,0,0,2,0,,,,,0.0,0.0,0
51.405517,-2.819335,14,14,4.93,0,14,14,8.50,0,1101,2018-07-12 14:02:08.430,2018-07-12 15:02:08.430,20,0,0.00,11.506000,51.405517,-2.819335,0.22,0.22,-4.92,-9,0,39,0,1,0,55,99,-10396,2061,11506,3164.50,16,P_GPS,1,0,660,0,0,0,0,1531404128430,3837,3833,3834,0,0,0,13,,,,,,,0,0,0,99,-5,397,-350,0,397,6,44,22.05,0.55,1,1,-22,0,,,100,100,0,1,0,0,0,2,0,,,,,0.0,0.0,0
51.405517,-2.819334,15,15,3.86,0,15,15,8.50,0,1222,2018-07-12 14:02:08.552,2018-07-12 15:02:08.552,20,0,0.00,11.506000,51.405517,-2.819335,0.45,0.45,-3.80,-11,0,39,0,1,0,55,99,-10396,2061,11506,3164.50,16,P_GPS,1,0,660,0,0,0,0,1531404128551,3837,3833,3834,0,0,0,13,,,,,,,0,0,0,115,-4,397,-350,0,397,6,45,17.23,0.35,2,2,-17,0,,,100,100,0,1,0,0,0,2,0,,,,,0.0,0.0,0
51.405517,-2.819334,15,15,3.02,0,15,15,8.50,0,1311,2018-07-12 14:02:08.640,2018-07-12 15:02:08.640,20,0,0.00,11.441000,51.405517,-2.819335,0.67,0.45,-2.91,-13,0,39,0,1,0,55,99,-10396,2061,11441,3164.50,16,P_GPS,1,0,660,0,0,0,0,1531404128640,3837,3833,3834,0,0,0,13,,,,,,,0,0,0,134,-4,397,-350,0,397,6,46,13.49,0.42,3,2,-12,0,,,100,100,0,1,0,0,0,2,0,,,,,0.0,0.0,0
51.405518,-2.819333,15,15,2.11,0,15,15,8.50,0,1403,2018-07-12 14:02:08.732,2018-07-12 15:02:08.732,20,0,0.00,11.441000,51.405517,-2.819335,0.89,0.67,-1.79,-15,0,39,0,1,0,55,99,-10396,2061,11441,3164.50,16,P_GPS,1,0,660,0,0,0,0,1531404128732,3837,3833,3834,0,0,0,13,,,,,,,0,0,0,151,-4,397,-350,0,397,6,48,9.43,0.84,4,3,-8,0,,,100,100,0,1,0,0,0,2,0,,,,,0.0,0.0,0
51.405518,-2.819333,16,16,1.58,0,16,16,8.50,0,1499,2018-07-12 14:02:08.829,2018-07-12 15:02:08.829,21,0,0.00,11.441000,51.405517,-2.819335,1.12,0.89,-0.67,-17,0,39,0,1,0,55,99,-10396,2061,11441,3164.50,16,P_GPS,1,0,660,0,0,0,0,1531404128828,3837,3833,3834,0,0,0,13,,,,,,,0,0,0,170,-2,397,-350,0,397,6,49,7.07,1.46,5,4,-3,0,,,100,100,0,1,0,0,0,2,0,,,,,0.0,0.0,0
51.405519,-2.819332,16,16,1.75,0,16,16,8.50,0,1599,2018-07-12 14:02:09.024,2018-07-12 15:02:09.025,21,0,0.00,11.441000,51.405517,-2.819335,1.34,1.12,0.00,-18,0,39,0,1,0,55,99,-10396,2061,11441,3164.50,16,P_GPS,1,0,660,0,0,0,0,1531404128928,3837,3833,3834,0,0,0,13,,,,,,,0,0,0,183,-2,397,-350,0,397,6,49,7.81,2.25,6,5,0,0,,,100,100,0,1,0,0,0,2,0,,,,,0.0,0.0,0
51.405519,-2.819331,16,16,2.25,1,16,16,8.50,1,1711,2018-07-12 14:02:09.040,2018-07-12 15:02:09.040,21,0,0.00,11.441000,51.405517,-2.819335,1.79,1.34,0.22,-19,0,39,0,1,0,55,99,-10396,2061,11441,3164.50,16,P_GPS,1,0,660,0,0,0,0,1531404129040,3837,3833,3834,0,0,0,13,,,,,,,0,0,0,198,-2,397,-350,0,397,6,49,10.05,3.26,8,6,1,0,,,100,100,0,1,0,0,0,2,0,,,,,0.0,0.0,0
51.405520,-2.819330,16,16,2.87,1,16,16,8.50,1,1802,2018-07-12 14:02:09.131,2018-07-12 15:02:09.132,21,0,0.00,11.441000,51.405517,-2.819335,2.24,1.79,0.22,-21,0,39,0,1,0,55,99,-10396,2061,11441,3164.50,16,P_GPS,1,0,660,0,0,0,0,1531404129131,3837,3833,3834,0,0,0,13,,,,,,,0,0,0,210,-2,397,-350,0,397,6,49,12.85,4.55,10,8,1,0,,,100,100,0,1,0,0,0,2,0,,,,,0.0,0.0,0
51.405521,-2.819328,16,16,3.50,2,16,16,8.50,2,1915,2018-07-12 14:02:09.244,2018-07-12 15:02:09.244,21,0,0.00,11.441000,51.405517,-2.819335,2.68,2.24,0.22,-22,0,39,0,1,0,55,99,-10396,2061,11441,3164.50,16,P_GPS,1,0,660,0,0,0,0,1531404129244,3837,3833,3834,0,0,0,13,,,,,,,0,0,0,221,0,397,-350,0,397,6,49,15.65,6.23,12,10,1,0,,,100,100,0,1,0,0,0,2,0,,,,,0.0,0.0,0
51.405523,-2.819327,16,16,4.30,2,16,16,8.50,2,2005,2018-07-12 14:02:09.334,2018-07-12 15:02:09.334,21,0,0.00,11.441000,51.405517,-2.819335,3.36,2.68,0.00,-22,0,39,0,1,0,55,99,-10396,2061,11441,3164.50,16,P_GPS,1,0,660,0,0,0,0,1531404129334,3837,3833,3834,0,0,0,13,,,,,,,0,0,0,221,0,397,-350,0,397,6,49,19.21,8.24,15,12,0,0,,,100,100,0,1,0,0,0,2,0,,,,,0.0,0.0,0
51.405525,-2.819324,16,16,5.24,3,16,16,8.50,3,2107,2018-07-12 14:02:09.437,2018-07-12 15:02:09.437,21,0,0.00,11.441000,51.405517,-2.819335,4.03,3.36,0.00,-20,0,39,0,1,0,55,99,-10396,2061,11441,3164.50,16,P_GPS,1,0,660,0,0,0,0,1531404129436,3837,3833,3834,0,0,0,13,,,,,,,0,0,0,205,0,397,-350,0,397,6,49,23.43,10.69,17,15,0,0,,,100,100,0,1,0,0,0,2,0,,,,,0.0,0.0,0
51.405526,-2.819322,16,16,5.87,4,16,16,8.50,4,2211,2018-07-12 14:02:09.540,2018-07-12 15:02:09.541,21,0,0.00,11.441000,51.405517,-2.819335,4.47,3.80,0.00,-18,0,39,0,1,0,55,99,-10396,2061,11441,3164.50,16,P_GPS,1,0,660,0,0,0,0,1531404129540,3837,3833,3834,0,0,0,13,,,,,,,0,0,0,186,0,397,-350,0,397,6,49,26.25,13.42,20,17,0,0,,,100,100,0,1,0,0,0,2,0,,,,,0.0,0.0,0
51.405529,-2.819319,16,16,6.36,5,16,16,8.50,5,2314,2018-07-12 14:02:09.644,2018-07-12 15:02:09.644,21,0,0.00,11.397000,51.405517,-2.819335,4.92,4.03,-0.22,-16,0,39,0,1,0,55,99,-9982,2056,11397,3164.50,16,P_GPS,1,0,660,0,0,0,0,1531404129643,3837,3833,3834,0,0,0,13,,,,,,,0,0,0,168,-1,397,-350,0,397,6,49,28.44,16.58,22,17,-1,0,,,100,100,0,1,0,0,0,2,0,,,,,0.0,0.0,0
51.405531,-2.819316,16,16,6.82,6,16,16,8.50,6,2415,2018-07-12 14:02:09.744,2018-07-12 15:02:09.744,21,0,0.00,11.397000,51.405517,-2.819335,5.14,4.47,-0.22,-15,0,39,0,1,0,55,99,-9982,2056,11397,3164.50,16,P_GPS,1,0,660,0,0,0,0,1531404129744,3837,3833,3834,0,0,0,13,,,,,,,0,0,0,156,0,397,-350,0,397,6,49,30.50,19.89,22,20,-1,0,,,100,100,0,1,0,0,0,2,0,,,,,0.0,0.0,0
51.405533,-2.819313,16,16,7.14,7,16,16,8.50,7,2517,2018-07-12 14:02:09.847,2018-07-12 15:02:09.847,21,0,0.00,11.397000,51.405517,-2.819335,5.37,4.70,-0.22,-15,0,39,0,1,0,55,99,-9982,2056,11397,3164.50,16,P_GPS,1,0,660,0,0,0,0,1531404129846,3837,3833,3834,0,0,0,13,,,,,,,0,0,0,151,1,398,-350,0,397,6,50,31.91,23.44,24,20,-1,0,,,100,100,0,1,0,0,0,2,0,,,,,0.0,0.0,0
51.405536,-2.819309,16,16,7.45,8,16,16,8.50,8,2617,2018-07-12 14:02:10.036,2018-07-12 15:02:10.036,21,0,0.00,11.397000,51.405517,-2.819335,5.59,4.92,0.00,-15,0,39,0,1,0,55,99,-9982,2056,11397,3164.50,16,P_GPS,1,0,660,0,0,0,0,1531404129946,3781,3777,3773,0,0,0,13,,,,,,,0,0,0,151,0,397,-350,0,397,6,50,33.30,27.08,25,22,0,0,,,100,100,0,1,0,0,0,2,0,,,,,13.9,0.0,0
51.405539,-2.819306,16,16,7.77,10,16,16,8.50,10,2750,2018-07-12 14:02:10.080,2018-07-12 15:02:10.080,20,0,0.00,11.397000,51.405517,-2.819335,5.82,5.14,0.00,-14,0,39,0,1,0,55,99,-9982,2056,11397,3164.50,16,P_GPS,1,0,660,0,0,0,0,1531404130079,3781,3777,3773,0,0,0,13,,,,,,,0,0,0,149,-2,397,-350,0,397,6,50,34.71,30.91,25,22,0,0,,,100,100,0,1,0,0,0,2,0,,,,,13.9,0.0,0
51.405541,-2.819302,16,16,7.77,11,16,16,8.50,11,2801,2018-07-12 14:02:10.130,2018-07-12 15:02:10.130,20,0,0.00,11.397000,51.405517,-2.819335,5.82,5.14,0.00,-15,-1,39,0,1,0,55,99,-9982,2056,11397,3164.50,16,P_GPS,1,0,660,0,0,0,0,1531404130130,3781,3777,3773,0,0,0,13,,,,,,,0,0,0,150,-10,396,-350,0,397,6,50,34.71,34.82,25,22,0,0,,,100,100,0,1,0,0,0,2,0,,,,,0.0,0.0,0
51.405544,-2.819299,16,16,8.08,12,16,16,8.50,12,2911,2018-07-12 14:02:10.240,2018-07-12 15:02:10.241,20,0,0.00,11.397000,51.405517,-2.819335,6.04,5.37,0.00,-15,-1,39,0,1,0,55,99,-9982,2056,11397,3164.50,16,P_GPS,1,0,660,0,0,0,0,1531404130240,3781,3777,3773,0,0,0,13,,,,,,,0,0,0,154,-13,396,-350,0,397,6,50,36.12,38.77,27,24,0,0,,,100,100,0,1,0,0,0,2,0,,,,,0.0,0.0,0
51.405547,-2.819295,16,16,8.25,14,16,16,8.50,14,3004,2018-07-12 14:02:10.333,2018-07-12 15:02:10.334,20,0,0.00,11.397000,51.405517,-2.819335,6.26,5.37,0.00,-15,0,39,0,1,0,55,99,-9982,2056,11397,3164.50,16,P_GPS,1,0,660,0,0,0,0,1531404130333,3781,3777,3773,0,0,0,13,,,,,,,0,0,0,156,-9,396,-350,0,397,6,50,36.88,42.86,27,24,0,0,,,100,100,0,1,0,0,0,2,0,,,,,0.0,0.0,0
51.405550,-2.819291,16,16,8.56,15,16,16,8.56,15,3102,2018-07-12 14:02:10.431,2018-07-12 15:02:10.432,20,0,0.00,11.397000,51.405517,-2.819335,6.49,5.59,0.00,-15,0,39,0,1,0,55,99,-9982,2056,11397,3164.50,16,P_GPS,1,0,660,0,0,0,0,1531404130431,3781,3777,3773,0,0,0,13,,,,,,,0,0,0,154,-5,397,-350,0,397,6,50,38.29,47.04,29,25,0,0,,,100,100,0,1,0,0,0,2,0,,,,,0.0,0.0,0
51.405553,-2.819287,16,16,9.05,16,16,16,9.05,16,3198,2018-07-12 14:02:10.527,2018-07-12 15:02:10.527,20,0,0.00,11.397000,51.405517,-2.819335,6.93,5.82,0.00,-15,0,39,0,1,0,55,99,-9982,2056,11397,3164.50,16,P_GPS,1,0,660,0,0,0,0,1531404130527,3781,3777,3773,0,0,0,13,,,,,,,0,0,0,155,-5,396,-350,0,397,6,50,40.46,51.39,30,25,0,0,,,100,100,0,1,0,0,0,2,0,,,,,0.0,0.0,0
51.405556,-2.819283,16,16,9.37,18,16,16,9.37,18,3313,2018-07-12 14:02:10.642,2018-07-12 15:02:10.642,20,0,0.00,11.506000,51.405517,-2.819335,7.16,6.04,0.00,-15,0,39,0,1,0,55,99,-9982,2056,11506,3164.50,16,P_GPS,1,0,529,0,0,0,0,1531404130642,3781,3777,3773,0,0,0,13,,,,,,,0,0,0,155,-4,397,-350,0,397,6,50,41.87,55.85,32,27,0,0,,,100,100,0,1,0,0,0,2,0,,,,,0.0,0.0,0
51.405559,-2.819279,16,16,9.85,19,16,16,9.85,19,3406,2018-07-12 14:02:10.735,2018-07-12 15:02:10.735,20,0,0.00,11.506000,51.405517,-2.819335,7.61,6.26,0.00,-15,0,39,0,1,0,55,99,-9982,2056,11506,3164.50,16,P_GPS,1,0,380,0,0,0,0,1531404130735,3781,3777,3773,0,0,0,13,,,,,,,0,0,0,153,-2,397,-350,0,397,6,50,44.05,60.50,34,27,0,0,,,100,100,0,1,0,0,0,2,0,,,,,0.0,0.0,0
51.405563,-2.819275,16,16,10.31,21,16,16,10.31,21,3522,2018-07-12 14:02:10.851,2018-07-12 15:02:10.851,20,0,0.00,11.506000,51.405517,-2.819335,7.83,6.71,0.00,-15,0,39,0,1,0,55,99,-9982,2056,11506,3164.50,16,P_GPS,1,0,347,0,0,0,0,1531404130851,3781,3777,3773,0,0,0,13,,,,,,,0,0,0,154,-2,397,-350,0,397,6,50,46.10,65.20,35,30,0,0,,,100,100,0,1,0,0,0,2,0,,,,,0.0,0.0,0
51.405566,-2.819271,16,16,10.80,22,16,16,10.80,22,3601,2018-07-12 14:02:10.931,2018-07-12 15:02:10.931,20,0,0.00,11.506000,51.405517,-2.819335,8.28,6.93,0.00,-13,0,39,0,1,0,55,99,-9982,2056,11506,3164.50,16,P_GPS,1,0,298,0,0,0,0,1531404130930,3781,3777,3773,0,0,0,13,,,,,,,0,0,0,136,-1,397,-350,0,397,6,50,48.27,70.09,37,30,0,0,,,100,100,0,1,0,0,0,2,0,,,,,0.0,0.0,0
51.405570,-2.819266,16,16,11.11,24,16,16,11.11,24,3702,2018-07-12 14:02:11.131,2018-07-12 15:02:11.131,20,0,0.00,11.506000,51.405517,-2.819335,8.50,7.16,0.00,-11,0,39,0,1,0,55,99,-9982,2056,11506,3164.50,16,P_GPS,1,0,171,0,0,0,0,1531404131031,3781,3777,3773,0,0,0,13,,,,,,,0,0,0,110,-2,397,-350,0,397,6,50,49.68,74.98,37,32,0,0,,,100,100,0,1,0,0,0,2,0,,,,,0.0,0.0,0
51.405573,-2.819262,16,16,11.11,26,16,16,11.11,26,3823,2018-07-12 14:02:11.152,2018-07-12 15:02:11.152,20,0,0.00,11.506000,51.405517,-2.819335,8.50,7.16,0.00,-7,0,39,0,1,0,55,99,-9982,2056,11506,3164.50,16,P_GPS,1,0,0,0,0,0,0,1531404131152,3781,3777,3773,0,0,0,13,,,,,,,0,0,0,75,-2,397,-350,0,397,6,50,49.68,79.99,37,32,0,0,,,100,100,0,1,0,0,0,2,0,,,,,0.0,0.0,0
51.405577,-2.819257,16,16,10.80,27,16,16,11.11,27,3916,2018-07-12 14:02:11.246,2018-07-12 15:02:11.246,21,0,0.00,11.506000,51.405517,-2.819335,8.28,6.93,0.00,1,0,39,0,1,0,55,99,-9982,2056,11506,3164.50,16,P_GPS,1,0,0,0,0,0,0,1531404131245,3781,3777,3773,0,0,0,13,,,,,,,0,0,0,-18,-4,397,-350,0,397,6,50,48.27,85.07,37,30,0,0,,,100,100,0,1,0,0,0,2,0,,,,,0.0,0.0,0
51.405580,-2.819253,16,16,10.48,29,16,16,11.11,29,4000,2018-07-12 14:02:11.330,2018-07-12 15:02:11.330,21,0,0.00,11.506000,51.405517,-2.819335,8.05,6.71,0.00,17,0,39,0,1,0,55,99,-9982,2056,11506,3164.50,16,P_GPS,1,0,0,0,0,0,0,1531404131329,3781,3777,3773,0,0,0,13,,,,,,,0,0,0,-176,-4,396,-350,0,397,6,50,46.86,90.11,35,30,0,0,,,100,100,0,1,0,0,0,2,0,,,,,0.0,0.0,0
51.405583,-2.819249,16,16,9.54,31,16,16,11.11,31,4100,2018-07-12 14:02:11.430,2018-07-12 15:02:11.430,21,0,0.00,11.506000,51.405517,-2.819335,7.38,6.04,0.00,17,0,39,0,1,0,55,99,-9982,2056,11506,3164.50,16,P_GPS,1,0,0,0,0,0,0,1531404131429,3781,3777,3773,0,0,0,13,,,,,,,0,0,0,-171,-1,397,-350,0,397,6,50,42.64,94.69,32,27,0,0,,,100,100,0,1,0,0,0,2,0,,,,,0.0,0.0,0
51.405586,-2.819245,16,16,8.74,32,16,16,11.11,32,4199,2018-07-12 14:02:11.529,2018-07-12 15:02:11.529,21,0,0.00,11.506000,51.405517,-2.819335,6.71,5.59,0.00,17,0,39,0,1,0,55,99,-9982,2056,11506,3164.50,16,P_GPS,1,0,0,0,0,0,0,1531404131528,3781,3777,3773,0,0,0,13,,,,,,,0,0,0,-178,-2,396,-350,0,397,6,50,39.05,98.90,30,25,0,0,,,100,100,0,1,0,0,0,2,0,,,,,0.0,0.0,0
51.405589,-2.819242,16,16,7.62,33,16,16,11.11,33,4317,2018-07-12 14:02:11.646,2018-07-12 15:02:11.647,21,0,0.00,11.180000,51.405517,-2.819335,5.82,4.92,0.22,18,0,39,0,1,0,55,99,-7672,2052,11180,3164.50,16,P_GPS,1,0,0,0,0,0,0,1531404131646,3781,3777,3773,0,0,0,13,,,,,,,0,0,0,-188,-4,396,-350,0,397,6,50,34.07,102.50,25,22,1,0,,,100,100,0,1,0,0,0,2,0,,,,,0.0,0.0,0
51.405591,-2.819239,16,16,6.69,34,16,16,11.11,34,4407,2018-07-12 14:02:11.736,2018-07-12 15:02:11.737,21,0,0.00,11.180000,51.405517,-2.819335,5.14,4.25,0.45,19,0,39,0,1,0,55,99,-7672,2052,11180,3164.50,16,P_GPS,1,0,0,0,0,0,0,1531404131736,3781,3777,3773,0,0,0,13,,,,,,,0,0,0,-198,2,396,-350,0,397,6,49,29.90,105.76,22,18,2,0,,,100,100,0,1,0,0,0,2,0,,,,,0.0,0.0,0
51.405593,-2.819237,16,16,5.89,35,16,16,11.11,35,4499,2018-07-12 14:02:11.829,2018-07-12 15:02:11.829,21,0,0.00,11.180000,51.405517,-2.819335,4.47,3.80,0.45,19,0,39,0,1,0,55,99,-7672,2052,11180,3164.50,16,P_GPS,1,0,0,0,0,0,0,1531404131828,3781,3777,3773,0,0,0,13,,,,,,,0,0,0,-191,0,397,-350,0,397,6,49,26.32,108.34,20,17,2,0,,,100,100,0,1,0,0,0,2,0,,,,,0.0,0.0,0
51.405595,-2.819235,16,16,4.93,36,16,16,11.11,36,4620,2018-07-12 14:02:11.951,2018-07-12 15:02:11.951,21,0,0.00,11.180000,51.405517,-2.819335,3.80,3.13,0.22,15,-1,39,0,1,0,55,99,-7672,2052,11180,3164.50,16,P_GPS,1,0,0,0,0,0,0,1531404131949,3781,3777,3773,0,0,0,13,,,,,,,0,0,0,-151,-11,393,-350,0,397,6,49,22.05,110.59,17,13,1,0,,,100,100,0,1,0,0,0,2,0,,,,,0.0,0.0,0
51.405596,-2.819234,16,16,4.30,36,16,16,11.11,36,4708,2018-07-12 14:02:12.128,2018-07-12 15:02:12.128,21,0,0.00,11.180000,51.405517,-2.819335,3.36,2.68,0.00,11,0,39,0,1,0,55,99,-7672,2052,11180,3164.50,16,P_GPS,1,0,0,0,0,0,0,1531404132037,3781,3777,3773,0,0,0,13,,,,,,,0,0,0,-118,1,395,-350,0,397,6,49,19.21,112.24,15,12,0,0,,,100,100,0,1,0,0,0,2,0,,,,,0.0,0.0,0
51.405597,-2.819233,16,16,3.98,37,16,16,11.11,37,4802,2018-07-12 14:02:12.131,2018-07-12 15:02:12.131,21,0,0.00,11.180000,51.405517,-2.819335,3.13,2.46,0.00,10,0,39,0,1,0,55,99,-7672,2052,11180,3164.50,16,P_GPS,1,0,0,0,0,0,0,1531404132131,3781,3777,3773,0,0,0,13,,,,,,,0,0,0,-105,2,396,-350,0,397,6,49,17.80,113.71,13,11,0,0,,,100,100,0,1,0,0,0,2,0,,,,,0.0,0.0,0
51.405598,-2.819232,16,16,3.67,37,16,16,11.11,37,4903,2018-07-12 14:02:12.233,2018-07-12 15:02:12.233,21,0,0.00,11.180000,51.405517,-2.819335,2.91,2.24,0.00,11,0,39,0,1,0,55,99,-7672,2052,11180,3164.50,16,P_GPS,1,0,0,0,0,0,0,1531404132232,3781,3777,3773,0,0,0,13,,,,,,,0,0,0,-110,5,397,-350,0,397,6,49,16.40,114.74,12,10,0,0,,,100,100,0,1,0,0,0,2,0,,,,,0.0,0.0,0
51.405599,-2.819231,16,16,3.04,37,16,16,11.11,37,5001,2018-07-12 14:02:12.330,2018-07-12 15:02:12.330,21,0,0.00,11.180000,51.405517,-2.819335,2.46,1.79,0.00,11,0,39,0,1,0,55,99,-7672,2052,11180,3164.50,16,P_GPS,1,0,0,0,0,0,0,1531404132330,3781,3777,3773,0,0,0,13,,,,,,,0,0,0,-118,5,397,-350,0,397,6,49,13.60,115.61,11,8,0,0,,,100,100,0,1,0,0,0,2,0,,,,,0.0,0.0,0
51.405599,-2.819230,16,16,1.92,38,16,16,11.11,38,5098,2018-07-12 14:02:12.428,2018-07-12 15:02:12.428,21,0,0.00,11.180000,51.405517,-2.819335,1.57,1.12,0.00,12,0,39,0,1,0,55,99,-7672,2052,11180,3164.50,16,P_GPS,1,0,0,0,0,0,0,1531404132427,3781,3777,3773,0,0,0,13,,,,,,,0,0,0,-125,1,397,-350,0,397,6,50,8.60,116.28,6,5,0,0,,,100,100,0,1,0,0,0,2,0,,,,,0.0,0.0,0
51.405599,-2.819230,16,16,1.12,38,16,16,11.11,38,5214,2018-07-12 14:02:12.544,2018-07-12 15:02:12.544,21,0,0.00,11.180000,51.405517,-2.819335,0.89,0.67,0.00,10,0,39,0,1,0,55,99,-7672,2052,11180,3164.50,16,P_GPS,1,0,0,0,0,0,0,1531404132543,3781,3777,3773,0,0,0,13,,,,,,,0,0,0,-100,2,397,-350,0,397,6,50,5.00,116.81,4,3,0,0,,,100,100,0,1,0,0,0,2,0,,,,,0.0,0.0,0
51.405600,-2.819230,16,16,0.50,38,16,16,11.11,38,5309,2018-07-12 14:02:12.638,2018-07-12 15:02:12.639,21,0,0.00,11.180000,51.405517,-2.819335,0.45,0.22,0.00,6,0,39,0,1,0,55,99,-7672,2050,11180,3164.50,16,P_GPS,1,0,0,0,0,0,0,1531404132638,3781,3777,3773,0,0,0,13,,,,,,,0,0,0,-67,2,397,-350,0,397,6,50,2.24,117.15,2,1,0,0,,,100,100,0,1,0,0,0,2,0,,,,,0.0,0.0,0
51.405600,-2.819229,16,16,0.00,38,16,16,11.11,38,5413,2018-07-12 14:02:12.742,2018-07-12 15:02:12.742,21,0,0.00,11.180000,51.405517,-2.819335,0.00,0.00,0.00,4,0,39,0,1,0,55,99,-7672,2050,11180,3164.50,16,P_GPS,1,0,0,0,0,0,0,1531404132742,3781,3777,3773,0,0,0,13,,,,,,,0,0,0,-40,0,397,-350,0,397,6,50,0.00,117.34,0,0,0,0,,,100,100,0,1,0,0,0,2,0,,,,,0.0,0.0,0
51.405600,-2.819229,16,16,0.00,38,16,16,11.11,38,5515,2018-07-12 14:02:12.845,2018-07-12 15:02:12.845,21,0,0.00,11.180000,51.405517,-2.819335,0.00,0.00,0.00,1,0,39,0,1,0,55,99,-7672,2050,11180,3164.50,16,P_GPS,1,0,0,0,0,0,0,1531404132844,3781,3777,3773,0,0,0,13,,,,,,,0,0,0,-17,-1,397,-350,0,397,6,50,0.00,117.47,0,0,0,0,,,100,100,0,1,0,0,0,2,0,,,,,0.0,0.0,0
51.405600,-2.819229,16,16,0.00,38,16,16,11.11,38,5599,2018-07-12 14:02:12.928,2018-07-12 15:02:12.929,21,0,0.00,11.180000,51.405517,-2.819335,0.00,0.00,0.00,0,0,39,0,1,0,55,99,-7672,2050,11180,3164.50,16,P_GPS,1,0,0,0,0,0,0,1531404132928,3781,3777,3773,0,0,0,13,,,,,,,0,0,0,-2,0,397,-350,0,397,6,50,0.00,117.53,0,0,0,0,,,100,100,0,1,0,0,0,2,0,,,,,0.0,0.0,0
51.405600,-2.819229,16,16,0.00,38,16,16,11.11,38,5756,2018-07-12 14:02:13.158,2018-07-12 15:02:13.158,21,0,0.00,11.180000,51.405517,-2.819335,0.00,0.00,0.00,0,0,39,0,1,0,55,99,-7672,2050,11180,3164.50,16,P_GPS,1,0,0,0,0,0,0,1531404133085,3781,3777,3773,0,0,0,13,,,,,,,0,0,0,5,1,397,-350,0,397,6,50,0.00,117.67,0,0,0,0,,,100,100,0,1,0,0,0,2,0,,,,,0.0,0.0,0
51.405600,-2.819229,16,16,0.00,38,16,16,11.11,38,5830,2018-07-12 14:02:13.159,2018-07-12 15:02:13.159,21,0,0.00,11.180000,51.405517,-2.819335,0.00,0.00,0.00,-1,0,39,0,1,0,55,99,-7672,2050,11180,3164.50,16,P_GPS,1,0,0,0,0,0,0,1531404133159,3781,3777,3773,0,0,0,13,,,,,,,0,0,0,10,0,397,-350,0,397,6,50,0.00,117.76,0,0,0,0,,,100,100,0,1,0,0,0,2,0,,,,,0.0,0.0,0
51.405600,-2.819229,16,16,0.00,38,16,16,11.11,38,5953,2018-07-12 14:02:13.282,2018-07-12 15:02:13.283,21,0,0.00,11.180000,51.405517,-2.819335,0.00,0.00,0.00,-1,0,39,0,1,0,55,99,-7672,2050,11180,3164.50,16,P_GPS,1,0,0,0,0,0,0,1531404133282,3781,3777,3773,0,0,0,13,,,,,,,0,0,0,11,0,397,-350,0,397,6,50,0.00,118.00,0,0,0,0,,,100,100,0,1,0,0,0,2,0,,,,,0.0,0.0,0
51.405600,-2.819228,16,16,0.00,38,16,16,11.11,38,5998,2018-07-12 14:02:13.328,2018-07-12 15:02:13.328,21,0,0.00,11.180000,51.405517,-2.819335,0.00,0.00,0.00,-1,0,39,0,1,0,55,99,-7672,2050,11180,3164.50,16,P_GPS,1,0,0,0,0,0,0,1531404133327,3781,3777,3773,0,0,0,13,,,,,,,0,0,0,11,0,397,-350,0,397,6,50,0.00,118.19,0,0,0,0,,,100,100,0,1,0,0,0,2,0,,,,,0.0,0.0,0
51.405600,-2.819228,16,16,0.00,38,16,16,11.11,38,6102,2018-07-12 14:02:13.431,2018-07-12 15:02:13.431,21,0,0.00,11.180000,51.405517,-2.819335,0.00,0.00,0.00,-1,0,39,0,1,0,55,99,-7672,2050,11180,3164.50,16,P_GPS,1,0,0,0,0,0,0,1531404133431,3781,3777,3773,0,0,0,13,,,,,,,0,0,0,11,0,398,-350,0,397,6,49,0.00,118.49,0,0,0,0,,,100,100,0,1,0,0,0,2,0,,,,,0.0,0.0,0
51.405601,-2.819228,16,16,0.00,38,16,16,11.11,38,6198,2018-07-12 14:02:13.527,2018-07-12 15:02:13.528,21,0,0.00,11.180000,51.405517,-2.819335,0.00,0.00,0.00,-1,0,40,0,1,0,55,99,-7672,2050,11180,3164.50,16,P_GPS,1,0,0,0,0,0,0,1531404133527,3781,3777,3773,0,0,0,13,,,,,,,0,0,0,10,0,400,-350,0,397,6,49,0.00,118.72,0,0,0,0,,,100,100,0,1,0,0,0,2,0,,,,,0.0,0.0,0
51.405601,-2.819227,16,16,0.00,39,16,16,11.11,39,6305,2018-07-12 14:02:13.635,2018-07-12 15:02:13.635,21,0,0.00,11.267000,51.405517,-2.819335,0.00,0.00,0.00,-1,0,39,0,1,0,55,99,-8988,2048,11267,3164.50,16,P_GPS,1,0,0,0,0,0,0,1531404133634,3781,3777,3773,0,0,0,13,,,,,,,0,0,0,10,0,398,-350,0,397,6,49,0.00,119.02,0,0,0,0,,,100,100,0,1,0,0,0,2,0,,,,,0.0,0.0,0
51.405601,-2.819227,16,16,0.00,39,16,16,11.11,39,6410,2018-07-12 14:02:13.739,2018-07-12 15:02:13.739,21,0,0.00,11.267000,51.405517,-2.819335,0.00,0.00,0.00,0,0,39,0,1,0,55,99,-8988,2048,11267,3164.50,16,P_GPS,1,0,0,0,0,0,0,1531404133739,3781,3777,3773,0,0,0,13,,,,,,,0,0,0,9,0,398,-350,0,397,6,49,0.00,119.25,0,0,0,0,,,100,100,0,1,0,0,0,2,0,,,,,0.0,0.0,0
51.405601,-2.819227,16,16,0.00,39,16,16,11.11,39,6522,2018-07-12 14:02:13.852,2018-07-12 15:02:13.852,21,0,0.00,11.267000,51.405517,-2.819335,0.00,0.00,0.00,0,0,39,0,1,0,55,99,-8988,2048,11267,3164.50,16,P_GPS,1,0,0,0,0,0,0,1531404133851,3781,3777,3773,0,0,0,13,,,,,,,0,0,0,6,0,398,-350,0,397,6,49,0.00,119.54,0,0,0,0,,,100,100,0,1,0,0,0,2,0,,,,,0.0,0.0,0
51.405601,-2.819227,16,16,0.00,39,16,16,11.11,39,6599,2018-07-12 14:02:13.929,2018-07-12 15:02:13.929,21,0,0.00,11.267000,51.405517,-2.819335,0.00,0.00,0.00,0,0,39,0,1,0,55,99,-8988,2048,11267,3164.50,16,P_GPS,1,0,0,0,0,0,0,1531404133928,3781,3777,3773,0,0,0,13,,,,,,,0,0,0,5,-2,397,-350,0,397,6,49,0.00,119.78,0,0,0,0,,,100,100,0,1,0,0,0,2,0,,,,,0.0,0.0,0
51.405601,-2.819226,16,16,0.00,39,16,16,11.11,39,6705,2018-07-12 14:02:14.035,2018-07-12 15:02:14.035,21,0,0.00,11.267000,51.405517,-2.819335,0.00,0.00,0.00,0,0,39,0,1,0,55,99,-8988,2048,11267,3164.50,16,P_GPS,1,0,0,0,0,0,0,1531404134034,3781,3777,3773,0,0,0,13,,,,,,,0,0,0,4,-2,397,-350,0,397,6,49,0.00,120.03,0,0,0,0,,,100,100,0,1,0,0,0,2,0,,,,,0.0,0.0,0
51.405601,-2.819226,16,16,0.00,39,16,16,11.11,39,6839,2018-07-12 14:02:14.266,2018-07-12 15:02:14.266,21,0,0.00,11.267000,51.405517,-2.819335,0.00,0.00,0.00,0,0,39,0,1,0,55,99,-8988,2048,11267,3164.50,16,P_GPS,1,0,0,0,0,0,0,1531404134168,3781,3777,3773,0,0,0,13,,,,,,,0,0,0,4,-4,397,-350,0,397,6,49,0.00,120.23,0,0,0,0,,,100,100,0,1,0,0,0,2,0,,,,,0.0,0.0,0
51.405601,-2.819226,16,16,0.00,39,16,16,11.11,39,6939,2018-07-12 14:02:14.268,2018-07-12 15:02:14.268,21,0,0.00,11.267000,51.405517,-2.819335,0.00,0.00,0.00,0,0,39,0,1,0,55,99,-8988,2048,11267,3164.50,16,P_GPS,1,0,0,0,0,0,0,1531404134268,3781,3777,3773,0,0,0,13,,,,,,,0,0,0,2,-2,397,-350,0,397,6,49,0.00,120.38,0,0,0,0,,,100,100,0,1,0,0,0,2,0,,,,,0.0,0.0,0
51.405602,-2.819226,16,16,0.00,39,16,16,11.11,39,7056,2018-07-12 14:02:14.385,2018-07-12 15:02:14.385,21,0,0.00,11.267000,51.405517,-2.819335,0.00,0.00,0.00,0,0,39,0,1,0,55,99,-8988,2048,11267,3164.50,16,P_GPS,1,0,0,0,0,0,0,1531404134385,3781,3777,3773,0,0,0,13,,,,,,,0,0,0,2,-4,397,-350,0,397,6,49,0.00,120.51,0,0,0,0,,,100,100,0,1,0,0,0,2,0,,,,,0.0,0.0,0
51.405602,-2.819226,16,16,0.00,39,16,16,11.11,39,7100,2018-07-12 14:02:14.429,2018-07-12 15:02:14.429,21,0,0.00,11.267000,51.405517,-2.819335,0.00,0.00,0.00,0,0,39,0,1,0,55,99,-8988,2048,11267,3164.50,16,P_GPS,1,0,0,0,0,0,0,1531404134429,3781,3777,3773,0,0,0,13,,,,,,,0,0,0,0,-4,397,-350,0,397,6,49,0.00,120.60,0,0,0,0,,,100,100,0,1,0,0,0,2,0,,,,,0.0,0.0,0
51.405602,-2.819225,16,16,0.00,39,16,16,11.11,39,7198,2018-07-12 14:02:14.527,2018-07-12 15:02:14.527,21,0,0.00,11.267000,51.405517,-2.819335,0.00,0.00,0.00,0,0,39,0,1,0,55,99,-8988,2048,11267,3164.50,16,P_GPS,1,0,0,0,0,0,0,1531404134527,3781,3777,3773,0,0,0,13,,,,,,,0,0,0,-2,-1,397,-350,0,397,6,49,0.00,120.67,0,0,0,0,,,100,100,0,1,0,0,0,2,0,,,,,0.0,0.0,0
51.405602,-2.819225,16,16,0.00,39,16,16,11.11,39,7330,2018-07-12 14:02:14.659,2018-07-12 15:02:14.659,21,0,0.00,11.158000,51.405517,-2.819335,0.00,0.00,0.00,0,0,39,0,1,0,55,99,-8988,2048,11158,3164.50,16,P_GPS,1,0,0,0,0,0,0,1531404134659,3781,3777,3773,0,0,0,13,,,,,,,0,0,0,0,-1,397,-350,0,397,6,49,0.00,120.66,0,0,0,0,,,100,100,0,1,0,0,0,2,0,,,,,0.0,0.0,0
51.405602,-2.819225,16,16,0.00,39,16,16,11.11,39,7411,2018-07-12 14:02:14.740,2018-07-12 15:02:14.740,21,0,0.00,11.158000,51.405517,-2.819335,0.00,0.00,0.00,0,0,39,0,1,0,55,99,-8988,2048,11158,3164.50,16,P_GPS,1,0,0,0,0,0,0,1531404134740,3781,3777,3773,0,0,0,13,,,,,,,0,0,0,4,-1,397,-350,0,397,6,49,0.00,120.63,0,0,0,0,,,100,100,0,1,0,0,0,2,0,,,,,0.0,0.0,0
51.405601,-2.819225,16,16,0.00,39,16,16,11.11,39,7499,2018-07-12 14:02:14.828,2018-07-12 15:02:14.829,21,0,0.00,11.158000,51.405517,-2.819335,0.00,0.00,0.00,0,0,39,0,1,0,55,99,-8988,2048,11158,3164.50,16,P_GPS,1,0,0,0,0,0,0,1531404134828,3781,3777,3773,0,0,0,13,,,,,,,0,0,0,6,0,396,-350,0,397,6,49,0.00,120.55,0,0,0,0,,,100,100,0,1,0,0,0,2,0,,,,,0.0,0.0,0
51.405601,-2.819226,16,16,0.00,39,16,16,11.11,39,7598,2018-07-12 14:02:14.927,2018-07-12 15:02:14.927,21,0,0.00,11.158000,51.405517,-2.819335,0.00,0.00,0.00,0,0,39,0,1,0,55,99,-8988,2048,11158,3164.50,16,P_GPS,1,0,0,0,0,0,0,1531404134927,3781,3777,3773,0,0,0,13,,,,,,,0,0,0,9,0,396,-350,0,397,6,49,0.00,120.48,0,0,0,0,,,100,100,0,1,0,0,0,2,0,,,,,0.0,0.0,0
51.405601,-2.819226,16,16,0.00,39,16,16,11.11,39,7707,2018-07-12 14:02:15.037,2018-07-12 15:02:15.037,21,0,0.00,11.158000,51.405517,-2.819335,0.00,0.00,0.00,-1,0,39,0,1,0,55,99,-8988,2048,11158,3164.50,16,P_GPS,1,0,0,0,0,0,0,1531404135036,3781,3777,3773,0,0,0,13,,,,,,,0,0,0,10,2,396,-350,0,397,6,49,0.00,120.36,0,0,0,0,,,100,100,0,1,0,0,0,2,0,,,,,0.0,0.0,0
51.405601,-2.819226,16,16,0.00,39,16,16,11.11,39,7825,2018-07-12 14:02:15.155,2018-07-12 15:02:15.155,21,0,0.00,11.158000,51.405517,-2.819335,0.00,0.00,0.00,-1,0,39,0,1,0,55,99,-8988,2048,11158,3164.50,16,P_GPS,1,0,0,0,0,0,0,1531404135154,3781,3777,3773,0,0,0,13,,,,,,,0,0,0,13,1,396,-350,0,397,6,49,0.00,120.25,0,0,0,0,,,100,100,0,1,0,0,0,2,0,,,,,0.0,0.0,0
51.405601,-2.819226,16,16,0.00,39,16,16,11.11,39,7899,2018-07-12 14:02:15.322,2018-07-12 15:02:15.322,21,0,0.00,11.158000,51.405517,-2.819335,0.00,0.00,0.00,-1,0,39,0,1,0,55,99,-8988,2048,11158,3164.50,16,P_GPS,1,0,0,0,0,0,0,1531404135228,3781,3777,3773,0,0,0,13,,,,,,,0,0,0,13,1,396,-350,0,397,6,49,0.00,120.13,0,0,0,0,,,100,100,0,1,0,0,0,2,0,,,,,0.0,0.0,0
51.405601,-2.819226,16,16,0.00,39,16,16,11.11,39,8007,2018-07-12 14:02:15.336,2018-07-12 15:02:15.337,21,0,0.00,11.158000,51.405517,-2.819335,0.00,0.00,0.00,-1,0,39,0,1,0,55,99,-8988,2048,11158,3164.50,16,UNKNOWN,1,0,0,0,0,0,0,1531404135336,3781,3777,3773,0,0,0,13,,,,,,,0,0,0,15,0,396,-350,0,397,38,49,0.00,120.03,0,0,0,0,,,100,100,0,1,0,0,0,2,0,,,,,0.0,0.0,0
51.405601,-2.819226,16,16,0.00,39,16,16,11.11,39,8113,2018-07-12 14:02:15.442,2018-07-12 15:02:15.442,21,0,0.00,11.158000,51.405517,-2.819335,0.00,0.00,0.00,-1,0,39,0,1,0,55,99,-8988,2048,11158,3164.50,16,UNKNOWN,1,0,0,0,0,0,0,1531404135442,3781,3777,3773,0,0,0,13,,,,,,,0,0,0,16,0,396,-350,0,397,38,49,0.00,119.93,0,0,0,0,,,100,100,0,1,0,0,0,2,0,,,,,0.0,0.0,0
51.405601,-2.819226,16,16,0.00,39,16,16,11.11,39,8219,2018-07-12 14:02:15.549,2018-07-12 15:02:15.549,21,0,0.00,11.158000,51.405517,-2.819335,0.00,0.00,0.00,-1,0,39,0,1,0,55,99,-8988,2048,11158,3164.50,16,UNKNOWN,1,0,0,0,0,0,0,1531404135548,3781,3777,3773,0,0,0,13,,,,,,,0,0,0,16,0,396,-350,0,397,38,49,0.00,119.85,0,0,0,0,,,100,100,0,1,0,0,0,2,0,,,,,0.0,0.0,0
51.405601,-2.819226,16,16,0.00,39,16,16,11.11,39,8316,2018-07-12 14:02:15.645,2018-07-12 15:02:15.646,21,0,0.00,11.332000,51.405517,-2.819335,0.00,0.00,0.00,-1,0,39,0,1,0,55,99,-8374,2042,11332,3164.50,16,UNKNOWN,1,0,0,0,0,0,0,1531404135645,3781,3777,3773,0,0,0,13,,,,,,,0,0,0,17,1,397,-350,0,397,38,49,0.00,119.76,0,0,0,0,,,100,100,0,1,0,0,0,2,0,,,,,0.0,0.0,0
51.405601,-2.819226,16,16,0.00,39,16,16,11.11,39,8410,2018-07-12 14:02:15.740,2018-07-12 15:02:15.740,21,0,0.00,11.332000,51.405517,-2.819335,0.00,0.00,0.00,-1,0,39,0,1,0,55,99,-8374,2042,11332,3164.50,16,UNKNOWN,1,0,0,0,0,0,0,1531404135739,3781,3777,3773,0,0,0,13,,,,,,,0,0,0,18,0,397,-350,0,397,38,49,0.00,119.68,0,0,0,0,,,100,100,0,1,0,0,0,2,0,,,,,0.0,0.0,0
51.405601,-2.819226,16,16,0.00,39,16,16,11.11,39,8534,2018-07-12 14:02:15.864,2018-07-12 15:02:15.864,20,0,0.00,11.332000,51.405517,-2.819335,0.00,0.00,0.00,-1,0,39,0,1,0,55,99,-8374,2042,11332,3164.50,16,UNKNOWN,1,0,0,0,0,0,0,1531404135863,3781,3777,3773,0,0,0,13,,,,,,,0,0,0,18,0,397,-350,0,397,38,49,0.00,119.60,0,0,0,0,,,100,100,0,1,0,0,0,2,0,,,,,0.0,0.0,0
51.405601,-2.819226,16,16,0.00,39,16,16,11.11,39,8615,2018-07-12 14:02:15.944,2018-07-12 15:02:15.944,20,0,0.00,11.332000,51.405517,-2.819335,0.00,0.00,0.00,-1,0,39,0,1,0,55,99,-8374,2042,11332,3164.50,16,UNKNOWN,1,0,0,0,0,0,0,1531404135944,3781,3777,3773,0,0,0,13,,,,,,,0,0,0,18,-2,397,-350,0,397,38,49,0.00,119.54,0,0,0,0,,,100,100,0,1,0,0,0,2,0,,,,,0.0,0.0,0
51.405601,-2.819226,16,16,0.00,39,16,16,11.11,39,8720,2018-07-12 14:02:16.049,2018-07-12 15:02:16.049,20,0,0.00,11.332000,51.405517,-2.819335,0.00,0.00,0.00,-1,0,39,0,1,0,55,99,-8374,2042,11332,3164.50,16,UNKNOWN,1,0,0,0,0,0,0,1531404136049,3781,3777,3773,0,0,0,13,,,,,,,0,0,0,18,-2,397,-350,0,397,38,49,0.00,119.50,0,0,0,0,,,100,100,0,1,0,0,0,2,0,,,,,0.0,0.0,0
51.405601,-2.819226,16,16,0.00,39,16,16,11.11,39,8818,2018-07-12 14:02:16.148,2018-07-12 15:02:16.148,20,0,0.00,11.332000,51.405517,-2.819335,0.00,0.00,0.00,-1,0,39,0,1,0,55,99,-8374,2042,11332,3164.50,16,UNKNOWN,1,0,0,0,0,0,0,1531404136147,3781,3777,3773,0,0,0,13,,,,,,,0,0,0,18,-4,397,-350,0,397,38,49,0.00,119.48,0,0,0,0,,,100,100,0,1,0,0,0,2,0,,,,,0.0,0.0,0
51.405601,-2.819226,16,16,0.00,39,16,16,11.11,39,8905,2018-07-12 14:02:16.330,2018-07-12 15:02:16.330,20,0,0.00,11.332000,51.405517,-2.819335,0.00,0.00,0.00,-1,0,39,0,1,0,55,99,-8374,2042,11332,3164.50,16,UNKNOWN,1,0,0,0,0,0,0,1531404136234,3781,3777,3773,0,0,0,13,,,,,,,0,0,0,16,-2,397,-350,0,397,38,49,0.00,119.46,0,0,0,0,,,100,100,0,1,0,0,0,2,0,,,,,0.0,0.0,0
51.405600,-2.819226,16,16,0.00,39,16,16,11.11,39,9004,2018-07-12 14:02:16.333,2018-07-12 15:02:16.333,20,0,0.00,11.332000,51.405517,-2.819335,0.00,0.00,0.00,-1,0,39,0,1,0,55,99,-8374,2042,11332,3164.50,16,UNKNOWN,1,0,0,0,0,0,0,1531404136333,3781,3777,3773,0,0,0,13,,,,,,,0,0,0,16,-2,397,-350,0,397,38,49,0.00,119.46,0,0,0,0,,,100,100,0,1,0,0,0,2,0,,,,,0.0,0.0,0
51.405600,-2.819226,16,16,0.00,39,16,16,11.11,39,9122,2018-07-12 14:02:16.452,2018-07-12 15:02:16.452,20,0,0.00,11.332000,51.405517,-2.819335,0.00,0.00,0.00,-1,0,39,0,1,0,55,99,-8374,2042,11332,3164.50,16,UNKNOWN,1,0,0,0,0,0,0,1531404136451,3781,3777,3773,0,0,0,13,,,,,,,0,0,0,15,-2,397,-350,0,397,38,49,0.00,119.44,0,0,0,0,,,100,100,0,1,0,0,0,2,0,,,,,0.0,0.0,0
51.405600,-2.819226,16,16,0.00,39,16,16,11.11,39,9242,2018-07-12 14:02:16.572,2018-07-12 15:02:16.572,20,0,0.00,11.332000,51.405517,-2.819335,0.00,0.00,0.00,-1,0,39,0,1,0,55,99,-8374,2042,11332,3164.50,16,UNKNOWN,1,0,0,0,0,0,0,1531404136571,3781,3777,3773,0,0,0,13,,,,,,,0,0,0,17,-2,397,-350,0,397,38,49,0.00,119.44,0,0,0,0,,,100,100,0,1,0,0,0,2,0,,,,,0.0,0.0,0
51.405600,-2.819226,16,16,0.00,39,16,16,11.11,39,9323,2018-07-12 14:02:16.652,2018-07-12 15:02:16.652,20,0,0.00,11.332000,51.405517,-2.819335,0.00,0.00,0.00,-1,0,39,0,1,0,55,99,-8330,2040,11332,3164.50,16,UNKNOWN,1,0,0,0,0,0,0,1531404136652,3781,3777,3773,0,0,0,13,,,,,,,0,0,0,16,-2,397,-350,0,397,38,49,0.00,119.45,0,0,0,0,,,100,100,0,1,0,0,0,2,0,,,,,0.0,0.0,0
51.405600,-2.819226,16,16,0.00,39,16,16,11.11,39,9407,2018-07-12 14:02:16.736,2018-07-12 15:02:16.736,20,0,0.00,11.332000,51.405517,-2.819335,0.00,0.00,0.00,-1,0,39,0,1,0,55,99,-8330,2040,11332,3164.50,16,UNKNOWN,1,0,0,0,0,0,0,1531404136736,3781,3777,3773,0,0,0,13,,,,,,,0,0,0,15,-2,397,-350,0,397,38,49,0.00,119.47,0,0,0,0,,,100,100,0,1,0,0,0,2,0,,,,,0.0,0.0,0
51.405600,-2.819226,16,16,0.00,39,16,16,11.11,39,9521,2018-07-12 14:02:16.850,2018-07-12 15:02:16.851,20,0,0.00,11.332000,51.405517,-2.819335,0.00,0.00,0.00,-1,0,39,0,1,0,55,99,-8330,2040,11332,3164.50,16,UNKNOWN,1,0,0,0,0,0,0,1531404136850,3781,3777,3773,0,0,0,13,,,,,,,0,0,0,13,-2,397,-350,0,397,38,49,0.00,119.51,0,0,0,0,,,100,100,0,1,0,0,0,2,0,,,,,0.0,0.0,0
51.405601,-2.819226,16,16,0.00,39,16,16,11.11,39,9606,2018-07-12 14:02:16.935,2018-07-12 15:02:16.935,20,0,0.00,11.332000,51.405517,-2.819335,0.00,0.00,0.00,-1,0,39,0,1,0,55,99,-8330,2040,11332,3164.50,16,UNKNOWN,1,0,0,0,0,0,0,1531404136935,3781,3777,3773,0,0,0,13,,,,,,,0,0,0,13,-2,397,-350,0,397,38,49,0.00,119.56,0,0,0,0,,,100,100,0,1,0,0,0,2,0,,,,,0.0,0.0,0
51.405601,-2.819226,16,16,0.00,39,16,16,11.11,39,9721,2018-07-12 14:02:17.052,2018-07-12 15:02:17.062,21,0,0.00,11.332000,51.405517,-2.819335,0.00,0.00,0.00,-1,0,39,0,1,0,55,99,-8330,2040,11332,3164.50,16,UNKNOWN,1,0,0,0,0,0,0,1531404137050,3781,3777,3773,0,0,0,13,,,,,,,0,0,0,11,-1,397,-350,0,397,38,49,0.00,119.56,0,0,0,0,,,100,100,0,1,0,0,0,2,0,,,,,0.0,0.0,0
51.405601,-2.819226,16,16,0.00,39,16,16,11.11,39,9810,2018-07-12 14:02:17.139,2018-07-12 15:02:17.139,21,0,0.00,11.332000,51.405517,-2.819335,0.00,0.00,0.00,-1,0,39,0,1,0,55,99,-8330,2040,11332,3164.50,16,UNKNOWN,1,0,0,0,0,0,0,1531404137139,3781,3777,3773,0,0,0,13,,,,,,,0,0,0,11,-1,396,-350,0,397,38,49,0.00,119.57,0,0,0,0,,,100,100,0,1,0,0,0,2,0,,,,,0.0,0.0,0
51.405601,-2.819226,16,16,0.00,39,16,16,11.11,39,9915,2018-07-12 14:02:17.326,2018-07-12 15:02:17.326,21,0,0.00,11.332000,51.405517,-2.819335,0.00,0.00,0.00,-1,0,39,0,1,0,55,99,-8330,2040,11332,3164.50,16,UNKNOWN,1,0,0,0,0,0,0,1531404137244,3781,3777,3773,0,0,0,13,,,,,,,0,0,0,11,-2,396,-350,0,397,38,49,0.00,119.59,0,0,0,0,,,100,100,0,1,0,0,0,2,0,,,,,0.0,0.0,0
51.405601,-2.819226,16,16,0.00,39,16,16,11.11,39,10009,2018-07-12 14:02:17.338,2018-07-12 15:02:17.338,21,0,0.00,11.332000,51.405517,-2.819335,0.00,0.00,0.00,-1,0,39,0,1,0,55,99,-8330,2040,11332,3164.50,16,UNKNOWN,1,0,0,0,0,0,0,1531404137338,3781,3777,3773,0,0,0,13,,,,,,,0,0,0,11,-1,395,-350,0,397,38,49,0.00,119.63,0,0,0,0,,,100,100,0,1,0,0,0,2,0,,,,,0.0,0.0,0
51.405601,-2.819226,16,16,0.00,39,16,16,11.11,39,10100,2018-07-12 14:02:17.429,2018-07-12 15:02:17.429,21,0,0.00,11.332000,51.405517,-2.819335,0.00,0.00,0.00,-1,0,39,0,1,0,55,99,-8330,2040,11332,3164.50,16,UNKNOWN,1,0,0,0,0,0,0,1531404137429,3781,3777,3773,0,0,0,13,,,,,,,0,0,0,11,-1,396,-350,0,397,38,49,0.00,119.65,0,0,0,0,,,100,100,0,1,0,0,0,2,0,,,,,0.0,0.0,0
51.405601,-2.819226,16,16,0.00,39,16,16,11.11,39,10235,2018-07-12 14:02:17.565,2018-07-12 15:02:17.565,21,0,0.00,11.332000,51.405517,-2.819335,0.00,0.00,0.00,-1,0,39,0,1,0,55,99,-8330,2040,11332,3164.50,16,UNKNOWN,1,0,0,0,0,0,0,1531404137564,3781,3777,3773,0,0,0,13,,,,,,,0,0,0,13,-1,396,-350,0,397,38,49,0.00,119.68,0,0,0,0,,,100,100,0,1,0,0,0,2,0,,,,,0.0,0.0,0
51.405601,-2.819226,16,16,0.00,39,16,16,11.11,39,10308,2018-07-12 14:02:17.637,2018-07-12 15:02:17.638,21,0,0.00,11.419000,51.405517,-2.819335,0.00,0.00,0.00,-1,0,39,0,1,0,55,99,-8314,2036,11419,3164.50,16,UNKNOWN,1,0,0,0,0,0,0,1531404137637,3781,3777,3773,0,0,0,13,,,,,,,0,0,0,11,-1,396,-350,0,397,38,49,0.00,119.70,0,0,0,0,,,100,100,0,1,0,0,0,2,0,,,,,0.0,0.0,0
51.405601,-2.819226,16,16,0.00,39,16,16,11.11,39,10409,2018-07-12 14:02:17.739,2018-07-12 15:02:17.739,21,0,0.00,11.419000,51.405517,-2.819335,0.00,0.00,0.00,-1,0,39,0,1,0,55,99,-8314,2036,11419,3164.50,16,UNKNOWN,1,0,0,0,0,0,0,1531404137738,3781,3777,3773,0,0,0,13,,,,,,,0,0,0,10,-1,397,-350,0,397,38,49,0.00,119.72,0,0,0,0,,,100,100,0,1,0,0,0,2,0,,,,,0.0,0.0,0
51.405601,-2.819226,16,16,0.00,39,16,16,11.11,39,10520,2018-07-12 14:02:17.850,2018-07-12 15:02:17.852,21,0,0.00,11.419000,51.405517,-2.819335,0.00,0.00,0.00,0,0,39,0,1,0,55,99,-8314,2036,11419,3164.50,16,UNKNOWN,1,0,0,0,0,0,0,1531404137849,3781,3777,3773,0,0,0,13,,,,,,,0,0,0,9,-2,396,-350,0,397,38,49,0.00,119.72,0,0,0,0,,,100,100,0,1,0,0,0,2,0,,,,,0.0,0.0,0
51.405601,-2.819226,16,16,0.00,39,16,16,11.11,39,10598,2018-07-12 14:02:17.927,2018-07-12 15:02:17.928,21,0,0.00,11.419000,51.405517,-2.819335,0.00,0.00,0.00,-1,0,39,0,1,0,55,99,-8314,2036,11419,3164.50,16,UNKNOWN,1,0,0,0,0,0,0,1531404137927,3781,3777,3773,0,0,0,13,,,,,,,0,0,0,10,-1,396,-350,0,397,38,49,0.00,119.73,0,0,0,0,,,100,100,0,1,0,0,0,2,0,,,,,0.0,0.0,0
51.405601,-2.819226,16,16,0.00,39,16,16,11.11,39,10709,2018-07-12 14:02:18.038,2018-07-12 15:02:18.038,21,0,0.00,11.419000,51.405517,-2.819335,0.00,0.00,0.00,-1,0,39,0,1,0,55,99,-8314,2036,11419,3164.50,16,UNKNOWN,1,0,0,0,0,0,0,1531404138038,3781,3777,3773,0,0,0,13,,,,,,,0,0,0,10,-1,396,-350,0,397,38,49,0.00,119.76,0,0,0,0,,,100,100,0,1,0,0,0,2,0,,,,,0.0,0.0,0
51.405601,-2.819226,16,16,0.00,39,16,16,11.11,39,10813,2018-07-12 14:02:18.144,2018-07-12 15:02:18.144,21,0,0.00,11.419000,51.405517,-2.819335,0.00,0.00,0.00,-1,0,39,0,1,0,55,99,-8314,2036,11419,3164.50,16,UNKNOWN,1,0,0,0,0,0,0,1531404138142,3781,3777,3773,0,0,0,13,,,,,,,0,0,0,11,-1,396,-350,0,397,38,49,0.00,119.79,0,0,0,0,,,100,100,0,1,0,0,0,2,0,,,,,0.0,0.0,0
51.405601,-2.819226,16,16,0.00,39,16,16,11.11,39,10902,2018-07-12 14:02:18.236,2018-07-12 15:02:18.236,21,0,0.00,11.419000,51.405517,-2.819335,0.00,0.00,0.00,-1,0,39,0,1,0,55,99,-8314,2036,11419,3164.50,16,UNKNOWN,1,0,0,0,0,0,0,1531404138231,3781,3777,3773,0,0,0,13,,,,,,,0,0,0,11,0,397,-350,0,397,38,49,0.00,119.77,0,0,0,0,,,100,100,0,1,0,0,0,2,0,,,,,0.0,0.0,0
51.405601,-2.819226,16,16,0.00,39,16,16,11.11,39,11000,2018-07-12 14:02:18.409,2018-07-12 15:02:18.409,21,0,0.00,11.419000,51.405517,-2.819335,0.00,0.00,0.00,-1,0,39,0,1,0,55,99,-8314,2036,11419,3164.50,16,P_GPS,1,0,0,0,0,0,0,1531404138329,3781,3777,3773,0,0,0,13,,,,,,,0,0,0,11,0,397,-350,0,397,6,49,0.00,119.76,0,0,0,0,,,100,100,0,1,0,0,0,2,0,,,,,0.0,0.0,0
51.405601,-2.819226,16,16,0.00,39,16,16,11.11,39,11098,2018-07-12 14:02:18.428,2018-07-12 15:02:18.428,21,0,0.00,11.419000,51.405517,-2.819335,0.00,0.00,0.00,-1,0,39,0,1,0,55,99,-8314,2036,11419,3164.50,16,P_GPS,1,0,0,0,0,0,0,1531404138427,3781,3777,3773,0,0,0,13,,,,,,,0,0,0,13,0,397,-350,0,397,6,49,0.00,119.76,0,0,0,0,,,100,100,0,1,0,0,0,2,0,,,,,0.0,0.0,0
51.405601,-2.819226,16,16,0.00,39,16,16,11.11,39,11198,2018-07-12 14:02:18.528,2018-07-12 15:02:18.528,21,0,0.00,11.419000,51.405517,-2.819335,0.00,0.00,0.00,-1,0,39,0,1,0,55,99,-8314,2036,11419,3164.50,16,P_GPS,1,0,0,0,0,0,0,1531404138527,3781,3777,3773,0,0,0,13,,,,,,,0,0,0,13,-2,397,-350,0,397,6,49,0.00,119.78,0,0,0,0,,,100,100,0,1,0,0,0,2,0,,,,,0.0,0.0,0
51.405601,-2.819226,16,16,0.00,39,16,16,11.11,39,11318,2018-07-12 14:02:18.648,2018-07-12 15:02:18.648,21,0,0.00,11.223000,51.405517,-2.819335,0.00,0.00,0.00,-1,0,39,0,1,0,55,99,-8314,2036,11223,3164.50,16,P_GPS,1,0,0,0,0,0,0,1531404138647,3781,3777,3773,0,0,0,13,,,,,,,0,0,0,13,-2,397,-350,0,397,6,49,0.00,119.76,0,0,0,0,,,100,100,0,1,0,0,0,2,0,,,,,0.0,0.0,0
51.405601,-2.819226,16,16,0.00,39,16,16,11.11,39,11409,2018-07-12 14:02:18.739,2018-07-12 15:02:18.740,21,0,0.00,11.223000,51.405517,-2.819335,0.00,0.00,0.00,-1,0,39,0,1,0,55,99,-8314,2036,11223,3164.50,16,P_GPS,1,0,0,0,0,0,0,1531404138738,3781,3777,3773,0,0,0,13,,,,,,,0,0,0,13,-1,396,-350,0,397,6,49,0.00,119.76,0,0,0,0,,,100,100,0,1,0,0,0,2,0,,,,,0.0,0.0,0
51.405601,-2.819226,16,16,0.00,39,16,16,11.11,39,11509,2018-07-12 14:02:18.838,2018-07-12 15:02:18.839,21,0,0.00,11.223000,51.405517,-2.819335,0.00,0.00,0.00,-1,0,39,0,1,0,55,99,-8314,2036,11223,3164.50,16,P_GPS,1,0,0,0,0,0,0,1531404138838,3781,3777,3773,0,0,0,13,,,,,,,0,0,0,13,-1,397,-350,0,397,6,49,0.00,119.78,0,0,0,0,,,100,100,0,1,0,0,0,2,0,,,,,0.0,0.0,0
51.405601,-2.819225,16,16,0.00,39,16,16,11.11,39,11600,2018-07-12 14:02:18.929,2018-07-12 15:02:18.929,21,0,0.00,11.223000,51.405517,-2.819335,0.00,0.00,0.00,-1,0,39,0,1,0,55,99,-8314,2036,11223,3164.50,16,P_GPS,1,0,0,0,0,0,0,1531404138929,3781,3777,3773,0,0,0,13,,,,,,,0,0,0,13,-1,396,-350,0,397,6,49,0.00,119.82,0,0,0,0,,,100,100,0,1,0,0,0,2,0,,,,,0.0,0.0,0
51.405601,-2.819225,16,16,0.00,39,16,16,11.11,39,11714,2018-07-12 14:02:19.044,2018-07-12 15:02:19.044,21,0,0.00,11.223000,51.405517,-2.819335,0.00,0.00,0.00,-1,0,39,0,1,0,55,99,-8314,2036,11223,3164.50,16,P_GPS,1,0,0,0,0,0,0,1531404139043,3781,3777,3773,0,0,0,13,,,,,,,0,0,0,11,-2,397,-350,0,397,6,49,0.00,119.82,0,0,0,0,,,100,100,0,1,0,0,0,2,0,,,,,0.0,0.0,0
51.405601,-2.819225,16,16,0.00,39,16,16,11.11,39,11825,2018-07-12 14:02:19.155,2018-07-12 15:02:19.155,21,0,0.00,11.223000,51.405517,-2.819335,0.00,0.00,0.00,-1,0,39,0,1,0,55,99,-8314,2036,11223,3164.50,16,P_GPS,1,0,0,0,0,0,0,1531404139154,3781,3777,3773,0,0,0,13,,,,,,,0,0,0,11,-2,397,-350,0,397,6,49,0.00,119.83,0,0,0,0,,,100,100,0,1,0,0,0,2,0,,,,,0.0,0.0,0
51.405601,-2.819225,16,16,0.00,39,16,16,11.11,39,11905,2018-07-12 14:02:19.234,2018-07-12 15:02:19.235,21,0,0.00,11.223000,51.405517,-2.819335,0.00,0.00,0.00,-1,0,39,0,1,0,55,99,-8314,2036,11223,3164.50,16,P_GPS,1,0,0,0,0,0,0,1531404139234,3781,3777,3773,0,0,0,13,,,,,,,0,0,0,11,-2,397,-350,0,397,6,49,0.00,119.83,0,0,0,0,,,100,100,0,1,0,0,0,2,0,,,,,0.0,0.0,0
51.405601,-2.819225,16,16,0.00,39,16,16,11.11,39,12011,2018-07-12 14:02:19.428,2018-07-12 15:02:19.428,21,0,0.00,11.223000,51.405517,-2.819335,0.00,0.00,0.00,-1,0,39,0,1,0,55,99,-8314,2036,11223,3164.50,16,P_GPS,1,0,0,0,0,0,0,1531404139340,3781,3777,3773,0,0,0,13,,,,,,,0,0,0,10,0,397,-350,0,397,6,49,0.00,119.85,0,0,0,0,,,100,100,0,1,0,0,0,2,0,,,,,0.0,0.0,0
51.405601,-2.819225,16,16,0.00,39,16,16,11.11,39,12100,2018-07-12 14:02:19.429,2018-07-12 15:02:19.429,21,0,0.00,11.223000,51.405517,-2.819335,0.00,0.00,0.00,-1,0,39,0,1,0,55,99,-8314,2036,11223,3164.50,16,P_GPS,1,0,0,0,0,0,0,1531404139429,3781,3777,3773,0,0,0,13,,,,,,,0,0,0,11,0,397,-350,0,397,6,49,0.00,119.87,0,0,0,0,,,100,100,0,1,0,0,0,2,0,,,,,0.0,0.0,0
51.405601,-2.819225,16,16,0.00,39,16,16,11.11,39,12206,2018-07-12 14:02:19.535,2018-07-12 15:02:19.535,21,0,0.00,11.223000,51.405517,-2.819335,0.00,0.00,0.00,-1,0,39,0,1,0,55,99,-8314,2036,11223,3164.50,16,P_GPS,1,0,0,0,0,0,0,1531404139535,3781,3777,3773,0,0,0,13,,,,,,,0,0,0,11,0,397,-350,0,397,6,49,0.00,119.90,0,0,0,0,,,100,100,0,1,0,0,0,2,0,,,,,0.0,0.0,0
51.405601,-2.819225,16,16,0.00,39,16,16,11.11,39,12376,2018-07-12 14:02:19.705,2018-07-12 15:02:19.705,21,0,0.00,11.267000,51.405517,-2.819335,0.00,0.00,0.00,-1,0,39,0,1,0,55,99,-8226,2034,11267,3164.50,16,P_GPS,1,0,0,0,0,0,0,1531404139705,3781,3777,3773,0,0,0,13,,,,,,,0,0,0,13,0,397,-350,0,397,6,49,0.00,119.92,0,0,0,0,,,100,100,0,1,0,0,0,2,0,,,,,0.0,0.0,0
51.405601,-2.819225,16,16,0.00,39,16,16,11.11,39,12420,2018-07-12 14:02:19.751,2018-07-12 15:02:19.751,21,0,0.00,11.267000,51.405517,-2.819335,0.00,0.00,0.00,-1,0,39,0,1,0,55,99,-8226,2034,11267,3164.50,16,P_GPS,1,0,0,0,0,0,0,1531404139749,3781,3777,3773,0,0,0,13,,,,,,,0,0,0,13,0,397,-350,0,397,6,49,0.00,119.95,0,0,0,0,,,100,100,0,1,0,0,0,2,0,,,,,0.0,0.0,0
51.405601,-2.819225,16,16,0.00,39,16,16,11.11,39,12506,2018-07-12 14:02:19.835,2018-07-12 15:02:19.836,21,0,0.00,11.267000,51.405517,-2.819335,0.00,0.00,0.00,-1,0,39,0,1,0,55,99,-8226,2034,11267,3164.50,16,P_GPS,1,0,0,0,0,0,0,1531404139835,3781,3777,3773,0,0,0,13,,,,,,,0,0,0,13,0,397,-350,0,397,6,49,0.00,119.95,0,0,0,0,,,100,100,0,1,0,0,0,2,0,,,,,0.0,0.0,0
51.405601,-2.819225,16,16,0.00,39,16,16,11.11,39,12619,2018-07-12 14:02:19.948,2018-07-12 15:02:19.948,21,0,0.00,11.267000,51.405517,-2.819335,0.00,0.00,0.00,-1,0,39,0,1,0,55,99,-8226,2034,11267,3164.50,16,P_GPS,1,0,0,0,0,0,0,1531404139948,3759,3754,3746,0,0,0,13,,,,,,,0,0,0,11,0,397,-350,0,397,6,49,0.00,119.97,0,0,0,0,,,100,100,0,1,0,0,0,2,0,,,,,0.0,0.0,0
51.405601,-2.819225,16,16,0.00,39,16,16,11.11,39,12701,2018-07-12 14:02:20.030,2018-07-12 15:02:20.030,21,0,0.00,11.267000,51.405517,-2.819335,0.00,0.00,0.00,-1,0,39,0,1,0,55,99,-8226,2034,11267,3164.50,16,P_GPS,1,0,0,0,0,0,0,1531404140030,3759,3754,3746,0,0,0,13,,,,,,,0,0,0,11,0,397,-350,0,397,6,49,0.00,119.97,0,0,0,0,,,100,100,0,1,0,0,0,2,0,,,,,0.0,0.0,0
51.405601,-2.819225,16,16,0.00,39,16,16,11.11,39,12807,2018-07-12 14:02:20.139,2018-07-12 15:02:20.139,21,0,0.00,11.267000,51.405517,-2.819335,0.00,0.00,0.00,-1,0,39,0,1,0,55,99,-8226,2034,11267,3164.50,16,P_GPS,1,0,0,0,0,0,0,1531404140136,3759,3754,3746,0,0,0,13,,,,,,,0,0,0,11,0,397,-350,0,397,6,49,0.00,119.97,0,0,0,0,,,100,100,0,1,0,0,0,2,0,,,,,0.0,0.0,0
51.405601,-2.819225,16,16,0.00,39,16,16,11.11,39,12908,2018-07-12 14:02:20.238,2018-07-12 15:02:20.238,21,0,0.00,11.267000,51.405517,-2.819335,0.00,0.00,0.00,-1,0,39,0,1,0,55,99,-8226,2034,11267,3164.50,16,P_GPS,1,0,0,0,0,0,0,1531404140237,3759,3754,3746,0,0,0,13,,,,,,,0,0,0,11,-1,397,-350,0,397,6,49,0.00,119.97,0,0,0,0,,,100,100,0,1,0,0,0,2,0,,,,,0.0,0.0,0
51.405601,-2.819225,16,16,0.00,39,16,16,11.11,39,13002,2018-07-12 14:02:20.333,2018-07-12 15:02:20.333,21,0,0.00,11.267000,51.405517,-2.819335,0.00,0.00,0.00,-1,0,39,0,1,0,55,99,-8226,2034,11267,3164.50,16,P_GPS,1,0,0,0,0,0,0,1531404140331,3759,3754,3746,0,0,0,13,,,,,,,0,0,0,13,-1,397,-350,0,397,6,49,0.00,119.99,0,0,0,0,,,100,100,0,1,0,0,0,2,0,,,,,0.0,0.0,0
51.405601,-2.819225,16,16,0.00,39,16,16,11.11,39,13104,2018-07-12 14:02:20.516,2018-07-12 15:02:20.516,21,0,0.00,11.267000,51.405517,-2.819335,0.00,0.00,0.00,-1,0,39,0,1,0,55,99,-8226,2034,11267,3164.50,16,UNKNOWN,1,0,0,0,0,0,0,1531404140433,3759,3754,3746,0,0,0,13,,,,,,,0,0,0,13,-1,397,-350,0,397,38,49,0.00,119.98,0,0,0,0,,,100,100,0,1,0,0,0,2,0,,,,,0.0,0.0,0
51.405601,-2.819225,16,16,0.00,39,16,16,11.11,39,13215,2018-07-12 14:02:20.544,2018-07-12 15:02:20.545,21,0,0.00,11.267000,51.405517,-2.819335,0.00,0.00,0.00,-1,0,39,0,1,0,55,99,-8226,2034,11267,3164.50,16,UNKNOWN,1,0,0,0,0,0,0,1531404140544,3759,3754,3746,0,0,0,13,,,,,,,0,0,0,13,0,397,-350,0,397,38,49,0.00,119.99,0,0,0,0,,,100,100,0,1,0,0,0,2,0,,,,,0.0,0.0,0
51.405601,-2.819225,16,16,0.00,39,16,16,11.11,39,13299,2018-07-12 14:02:20.629,2018-07-12 15:02:20.629,21,0,0.00,11.267000,51.405517,-2.819335,0.00,0.00,0.00,-1,0,39,0,1,0,55,99,-8166,2031,11267,3164.50,16,UNKNOWN,1,0,0,0,0,0,0,1531404140628,3759,3754,3746,0,0,0,13,,,,,,,0,0,0,13,-1,396,-350,0,397,38,49,0.00,120.01,0,0,0,0,,,100,100,0,1,0,0,0,2,0,,,,,0.0,0.0,0
51.405601,-2.819225,16,16,0.00,39,16,16,11.11,39,13453,2018-07-12 14:02:20.782,2018-07-12 15:02:20.783,21,0,0.00,11.267000,51.405517,-2.819335,0.00,0.00,0.00,-1,0,39,0,1,0,55,99,-8166,2031,11267,3164.50,16,UNKNOWN,1,0,0,0,0,0,0,1531404140782,3759,3754,3746,0,0,0,13,,,,,,,0,0,0,13,-1,397,-350,0,397,38,49,0.00,120.04,0,0,0,0,,,100,100,0,1,0,0,0,2,0,,,,,0.0,0.0,0
51.405601,-2.819225,16,16,0.00,39,16,16,11.11,39,13499,2018-07-12 14:02:20.828,2018-07-12 15:02:20.828,21,0,0.00,11.267000,51.405517,-2.819335,0.00,0.00,0.00,-1,0,39,0,1,0,55,99,-8166,2031,11267,3164.50,16,UNKNOWN,1,0,0,0,0,0,0,1531404140828,3759,3754,3746,0,0,0,13,,,,,,,0,0,0,11,-1,397,-350,0,397,38,49,0.00,120.05,0,0,0,0,,,100,100,0,1,0,0,0,2,0,,,,,0.0,0.0,0
51.405601,-2.819225,16,16,0.00,39,16,16,11.11,39,13623,2018-07-12 14:02:20.953,2018-07-12 15:02:20.953,21,0,0.00,11.267000,51.405517,-2.819335,0.00,0.00,0.00,-1,0,39,0,1,0,55,99,-8166,2031,11267,3164.50,16,UNKNOWN,1,0,0,0,0,0,0,1531404140952,3759,3754,3746,0,0,0,13,,,,,,,0,0,0,11,-2,397,-350,0,397,38,49,0.00,120.07,0,0,0,0,,,100,100,0,1,0,0,0,2,0,,,,,0.0,0.0,0
51.405601,-2.819225,16,16,0.00,39,16,16,11.11,39,13708,2018-07-12 14:02:21.038,2018-07-12 15:02:21.038,21,0,0.00,11.267000,51.405517,-2.819335,0.00,0.00,0.00,-1,0,39,0,1,0,55,99,-8166,2031,11267,3164.50,16,UNKNOWN,1,0,0,0,0,0,0,1531404141037,3759,3754,3746,0,0,0,13,,,,,,,0,0,0,11,-2,397,-350,0,397,38,49,0.00,120.08,0,0,0,0,,,100,100,0,1,0,0,0,2,0,,,,,0.0,0.0,0
51.405601,-2.819225,16,16,0.00,39,16,16,11.11,39,13802,2018-07-12 14:02:21.134,2018-07-12 15:02:21.135,21,0,0.00,11.267000,51.405517,-2.819335,0.00,0.00,0.00,-1,0,39,0,1,0,55,99,-8166,2031,11267,3164.50,16,UNKNOWN,1,0,0,0,0,0,0,1531404141131,3759,3754,3746,0,0,0,13,,,,,,,0,0,0,11,-2,397,-350,0,397,38,49,0.00,120.11,0,0,0,0,,,100,100,0,1,0,0,0,2,0,,,,,0.0,0.0,0
51.405601,-2.819225,16,16,0.00,39,16,16,11.11,39,13897,2018-07-12 14:02:21.227,2018-07-12 15:02:21.227,21,0,0.00,11.267000,51.405517,-2.819335,0.00,0.00,0.00,-1,0,39,0,1,0,55,99,-8166,2031,11267,3164.50,16,UNKNOWN,1,0,0,0,0,0,0,1531404141226,3759,3754,3746,0,0,0,13,,,,,,,0,0,0,11,-2,397,-350,0,397,38,49,0.00,120.14,0,0,0,0,,,100,100,0,1,0,0,0,2,0,,,,,0.0,0.0,0
51.405601,-2.819225,16,16,0.00,39,16,16,11.11,39,13999,2018-07-12 14:02:21.328,2018-07-12 15:02:21.328,21,0,0.00,11.267000,51.405517,-2.819335,0.00,0.00,0.00,-1,0,39,0,1,0,55,99,-8166,2031,11267,3164.50,16,UNKNOWN,1,0,0,0,0,0,0,1531404141328,3759,3754,3746,0,0,0,13,,,,,,,0,0,0,11,-2,397,-350,0,397,38,49,0.00,120.19,0,0,0,0,,,100,100,0,1,0,0,0,2,0,,,,,0.0,0.0,0
51.405601,-2.819225,16,16,0.00,39,16,16,11.11,39,14098,2018-07-12 14:02:21.427,2018-07-12 15:02:21.427,21,0,0.00,11.267000,51.405517,-2.819335,0.00,0.00,0.00,-1,0,39,0,1,0,55,99,-8166,2031,11267,3164.50,16,UNKNOWN,1,0,0,0,0,0,0,1531404141427,3759,3754,3746,0,0,0,13,,,,,,,0,0,0,11,-2,397,-350,0,397,38,49,0.00,120.20,0,0,0,0,,,100,100,0,1,0,0,0,2,0,,,,,0.0,0.0,0
51.405601,-2.819225,16,16,0.00,39,16,16,11.11,39,14207,2018-07-12 14:02:21.625,2018-07-12 15:02:21.625,21,0,0.00,11.288000,51.405517,-2.819335,0.00,0.00,0.00,-1,0,39,0,1,0,55,99,-8166,2031,11288,3164.50,16,UNKNOWN,1,0,0,0,0,0,0,1531404141536,3759,3754,3746,0,0,0,13,,,,,,,0,0,0,11,-2,397,-350,0,397,38,49,0.00,120.23,0,0,0,0,,,100,100,0,1,0,0,0,2,0,,,,,0.0,0.0,0
51.405601,-2.819225,16,16,0.00,39,16,16,11.11,39,14308,2018-07-12 14:02:21.638,2018-07-12 15:02:21.638,21,0,0.00,11.288000,51.405517,-2.819335,0.00,0.00,0.00,-1,0,39,0,1,0,55,99,-8166,2031,11288,3164.50,16,UNKNOWN,1,0,0,0,0,0,0,1531404141637,3759,3754,3746,0,0,0,13,,,,,,,0,0,0,11,-2,397,-350,0,397,38,49,0.00,120.24,0,0,0,0,,,100,100,0,1,0,0,0,2,0,,,,,0.0,0.0,0
51.405601,-2.819225,16,16,0.00,39,16,16,11.11,39,14406,2018-07-12 14:02:21.737,2018-07-12 15:02:21.737,21,0,0.00,11.288000,51.405517,-2.819335,0.00,0.00,0.00,-1,0,39,0,1,0,55,99,-8166,2031,11288,3164.50,16,UNKNOWN,1,0,0,0,0,0,0,1531404141735,3759,3754,3746,0,0,0,13,,,,,,,0,0,0,10,-2,397,-350,0,397,38,49,0.00,120.26,0,0,0,0,,,100,100,0,1,0,0,0,2,0,,,,,0.0,0.0,0
51.405601,-2.819225,16,16,0.00,39,16,16,11.11,39,14515,2018-07-12 14:02:21.844,2018-07-12 15:02:21.846,21,0,0.00,11.288000,51.405517,-2.819335,0.00,0.00,0.00,-1,0,39,0,1,0,55,99,-8166,2031,11288,3164.50,16,UNKNOWN,1,0,0,0,0,0,0,1531404141844,3759,3754,3746,0,0,0,13,,,,,,,0,0,0,10,-2,397,-350,0,397,38,49,0.00,120.25,0,0,0,0,,,100,100,0,1,0,0,0,2,0,,,,,0.0,0.0,0
51.405601,-2.819225,16,16,0.00,39,16,16,11.11,39,14607,2018-07-12 14:02:21.936,2018-07-12 15:02:21.936,21,0,0.00,11.288000,51.405517,-2.819335,0.00,0.00,0.00,-1,0,39,0,1,0,55,99,-8166,2031,11288,3164.50,16,UNKNOWN,1,0,0,0,0,0,0,1531404141936,3759,3754,3746,0,0,0,13,,,,,,,0,0,0,11,-2,397,-350,0,397,38,49,0.00,120.25,0,0,0,0,,,100,100,0,1,0,0,0,2,0,,,,,0.0,0.0,0
51.405601,-2.819225,16,16,0.00,39,16,16,11.11,39,14726,2018-07-12 14:02:22.056,2018-07-12 15:02:22.056,21,0,0.00,11.288000,51.405517,-2.819335,0.00,0.00,0.00,-1,0,39,0,1,0,55,99,-8166,2031,11288,3164.50,16,UNKNOWN,1,0,0,0,0,0,0,1531404142055,3759,3754,3746,0,0,0,13,,,,,,,0,0,0,10,-2,396,-350,0,397,38,49,0.00,120.26,0,0,0,0,,,100,100,0,1,0,0,0,2,0,,,,,0.0,0.0,0
51.405601,-2.819225,16,16,0.00,39,16,16,11.11,39,14826,2018-07-12 14:02:22.155,2018-07-12 15:02:22.155,21,0,0.00,11.288000,51.405517,-2.819335,0.00,0.00,0.00,-1,0,39,0,1,0,55,99,-8166,2031,11288,3164.50,16,UNKNOWN,1,0,0,0,0,0,0,1531404142155,3759,3754,3746,0,0,0,13,,,,,,,0,0,0,10,-2,397,-350,0,397,38,49,0.00,120.29,0,0,0,0,,,100,100,0,1,0,0,0,2,0,,,,,0.0,0.0,0
51.405601,-2.819225,16,16,0.00,39,16,16,11.11,39,14915,2018-07-12 14:02:22.245,2018-07-12 15:02:22.245,21,0,0.00,11.288000,51.405517,-2.819335,0.00,0.00,0.00,-1,0,39,0,1,0,55,99,-8166,2031,11288,3164.50,16,UNKNOWN,1,0,0,0,0,0,0,1531404142244,3759,3754,3746,0,0,0,13,,,,,,,0,0,0,11,-2,397,-350,0,397,38,49,0.00,120.28,0,0,0,0,,,100,100,0,1,0,0,0,2,0,,,,,0.0,0.0,0
51.405601,-2.819225,16,16,0.00,39,16,16,11.11,39,15006,2018-07-12 14:02:22.336,2018-07-12 15:02:22.336,21,0,0.00,11.288000,51.405517,-2.819335,0.00,0.00,0.00,-1,0,39,0,1,0,55,99,-8166,2031,11288,3164.50,16,UNKNOWN,1,0,0,0,0,0,0,1531404142335,3759,3754,3746,0,0,0,13,,,,,,,0,0,0,11,-2,397,-350,0,397,38,49,0.00,120.29,0,0,0,0,,,100,100,0,1,0,0,0,2,0,,,,,0.0,0.0,0
51.405601,-2.819225,16,16,0.00,39,16,16,11.11,39,15121,2018-07-12 14:02:22.450,2018-07-12 15:02:22.450,21,0,0.00,11.288000,51.405517,-2.819335,0.00,0.00,0.00,-1,0,39,0,1,0,55,99,-8166,2031,11288,3164.50,16,UNKNOWN,1,0,0,0,0,0,0,1531404142450,3759,3754,3746,0,0,0,13,,,,,,,0,0,0,11,-2,397,-350,0,397,38,49,0.00,120.26,0,0,0,0,,,100,100,0,1,0,0,0,2,0,,,,,0.0,0.0,0
51.405601,-2.819225,16,16,0.00,39,16,16,11.11,39,15216,2018-07-12 14:02:22.638,2018-07-12 15:02:22.638,21,0,0.00,11.375000,51.405517,-2.819335,0.00,0.00,0.00,-1,0,39,0,1,0,54,99,-8166,2025,11375,3164.50,16,UNKNOWN,1,0,0,0,0,0,0,1531404142545,3759,3754,3746,0,0,0,13,,,,,,,0,0,0,11,-2,397,-350,0,397,38,49,0.00,120.26,0,0,0,0,,,100,100,0,1,0,0,0,2,0,,,,,0.0,0.0,0
51.405601,-2.819225,16,16,0.00,39,16,16,11.11,39,15311,2018-07-12 14:02:22.641,2018-07-12 15:02:22.641,21,0,0.00,11.375000,51.405517,-2.819335,0.00,0.00,0.00,-1,0,39,0,1,0,54,99,-8166,2025,11375,3164.50,16,UNKNOWN,1,0,0,0,0,0,0,1531404142640,3759,3754,3746,0,0,0,13,,,,,,,0,0,0,13,-2,397,-350,0,397,38,49,0.00,120.22,0,0,0,0,,,100,100,0,1,0,0,0,2,0,,,,,0.0,0.0,0
51.405601,-2.819225,16,16,0.00,39,16,16,11.11,39,15400,2018-07-12 14:02:22.729,2018-07-12 15:02:22.730,21,0,0.00,11.375000,51.405517,-2.819335,0.00,0.00,0.00,-1,0,39,0,1,0,54,99,-8166,2025,11375,3164.50,16,UNKNOWN,1,0,0,0,0,0,0,1531404142729,3759,3754,3746,0,0,0,13,,,,,,,0,0,0,13,-2,397,-350,0,397,38,49,0.00,120.20,0,0,0,0,,,100,100,0,1,0,0,0,2,0,,,,,0.0,0.0,0
51.405601,-2.819225,16,16,0.00,39,16,16,11.11,39,15500,2018-07-12 14:02:22.830,2018-07-12 15:02:22.830,21,0,0.00,11.375000,51.405517,-2.819335,0.00,0.00,0.00,-1,0,39,0,1,0,54,99,-8166,2025,11375,3164.50,16,UNKNOWN,1,0,0,0,0,0,0,1531404142829,3759,3754,3746,0,0,0,13,,,,,,,0,0,0,11,-1,397,-350,0,397,38,49,0.00,120.16,0,0,0,0,,,100,100,0,1,0,0,0,2,0,,,,,0.0,0.0,0
51.405601,-2.819225,16,16,0.00,39,16,16,11.11,39,15625,2018-07-12 14:02:22.954,2018-07-12 15:02:22.954,21,0,0.00,11.375000,51.405517,-2.819335,0.00,0.00,0.00,-1,0,39,0,1,0,54,99,-8166,2025,11375,3164.50,16,UNKNOWN,1,0,0,0,0,0,0,1531404142954,3759,3754,3746,0,0,0,13,,,,,,,0,0,0,11,0,397,-350,0,397,38,49,0.00,120.14,0,0,0,0,,,100,100,0,1,0,0,0,2,0,,,,,0.0,0.0,0
51.405601,-2.819225,16,16,0.00,39,16,16,11.11,39,15710,2018-07-12 14:02:23.040,2018-07-12 15:02:23.040,21,0,0.00,11.375000,51.405517,-2.819335,0.00,0.00,0.00,-1,0,39,0,1,0,54,99,-8166,2025,11375,3164.50,16,UNKNOWN,1,0,0,0,0,0,0,1531404143039,3759,3754,3746,0,0,0,13,,,,,,,0,0,0,13,0,397,-350,0,397,38,49,0.00,120.09,0,0,0,0,,,100,100,0,1,0,0,0,2,0,,,,,0.0,0.0,0
51.405601,-2.819225,16,16,0.00,39,16,16,11.11,39,15818,2018-07-12 14:02:23.151,2018-07-12 15:02:23.151,21,0,0.00,11.375000,51.405517,-2.819335,0.00,0.00,0.00,-1,0,39,0,1,0,54,99,-8166,2025,11375,3164.50,16,UNKNOWN,1,0,0,0,0,0,0,1531404143147,3759,3754,3746,0,0,0,13,,,,,,,0,0,0,13,-1,397,-350,0,397,38,49,0.00,120.06,0,0,0,0,,,100,100,0,1,0,0,0,2,0,,,,,0.0,0.0,0
51.405601,-2.819226,16,16,0.00,39,16,16,11.11,39,15907,2018-07-12 14:02:23.236,2018-07-12 15:02:23.236,21,0,0.00,11.375000,51.405517,-2.819335,0.00,0.00,0.00,-1,0,39,0,1,0,54,99,-8166,2025,11375,3164.50,16,UNKNOWN,1,0,0,0,0,0,0,1531404143236,3759,3754,3746,0,0,0,13,,,,,,,0,0,0,13,-2,397,-350,0,397,38,49,0.00,120.00,0,0,0,0,,,100,100,0,1,0,0,0,2,0,,,,,0.0,0.0,0
51.405601,-2.819226,16,16,0.00,39,16,16,11.11,39,16007,2018-07-12 14:02:23.336,2018-07-12 15:02:23.337,21,0,0.00,11.375000,51.405517,-2.819335,0.00,0.00,0.00,-1,0,39,0,1,0,54,99,-8166,2025,11375,3164.50,16,UNKNOWN,1,0,0,0,0,0,0,1531404143336,3759,3754,3746,0,0,0,13,,,,,,,0,0,0,11,-2,397,-350,0,397,38,49,0.00,119.97,0,0,0,0,,,100,100,0,1,0,0,0,2,0,,,,,0.0,0.0,0
51.405601,-2.819226,16,16,0.00,39,16,16,11.11,39,16122,2018-07-12 14:02:23.451,2018-07-12 15:02:23.451,21,0,0.00,11.375000,51.405517,-2.819335,0.00,0.00,0.00,-1,0,39,0,1,0,54,99,-8166,2025,11375,3164.50,16,UNKNOWN,1,0,0,0,0,0,0,1531404143451,3759,3754,3746,0,0,0,13,,,,,,,0,0,0,13,-2,397,-350,0,397,38,49,0.00,119.92,0,0,0,0,,,100,100,0,1,0,0,0,2,0,,,,,0.0,0.0,0
