latitude,longitude,altitude(feet),ascent(feet),speed(mph),distance(feet),max_altitude(feet),max_ascent(feet),max_speed(mph),max_distance(feet),time(millisecond),datetime(utc),datetime(local),satellites,pressure(Pa),temperature(F),voltage(v),home_latitude,home_longitude,velocityX(mph),velocityY(mph),velocityZ(mph),pitch(deg),roll(deg),yaw(deg),powerlevel,isflying,istakingphoto,remainPowerPercent,remainLifePercent,currentCurrent,currentElectricity,currentVoltage,batteryTemperature,dischargeCount,flightmode,isMotorsOn,isTakingVideo,Rc_elevator,Rc_aileron,Rc_throttle,Rc_rudder,Rc_gyro,timestamp,Battery_Cell1,Battery_Cell2,Battery_Cell3,Battery_Cell4,Battery_Cell5,Battery_Cell6,Dronetype,AppVersion,Planename,FlyControllerSerialNumber,RemoteSerialNumber,BatterySerialNumber,CENTER_BATTERY.productDate,CENTER_BATTERY.serialNo,CENTER_BATTERY.fullCapacity,CENTER_BATTERY.productDateRaw,pitchRaw,rollRaw,yawRaw,gimbalPitchRaw,gimbalRollRaw,gimbalYawRaw,flyState,altitudeRaw,speedRaw,distanceRaw,velocityXRaw,velocityYRaw,velocityZRaw,data_reuse,App_Tip,App_Warning,downlinkSignalQuality,uplinkSignalQuality,transmissionChannel,rcModeSwitch,rcHome,rcPause,rcTransform,rcJoystickMode,appMode,FlyControllerSerialNumber_legacy,RemoteSerialNumber_legacy,BatterySerialNumber_legacy,Battery2SerialNumber,frontAvoidDist,backAvoidDist,isBrakingToAvoid
51.405525,-2.819245,32,32,2.25,23,32,32,5.14,23,0,43:21.0,43:21.0,21,0,0,11.264,51.405518,-2.819345,0.22,2.24,0,12,-8,56,0,1,0,46,100,-8040,1774,11264,3090.5,4,NAVI,1,0,0,0,0,0,0,1.5314E+12,3755,3749,3744,0,0,0,13,,,,,,,0,0,0,-125,-80,566,0,0,771,14,98,10.05,70.6,1,10,0,0,,,100,100,0,1,0,0,0,2,1,,,,,0,0,0
51.405525,-2.819244,32,32,1.57,23,32,32,5.14,23,103,43:21.0,43:21.0,21,0,0,11.264,51.405518,-2.819345,0,1.57,0,10,-9,47,0,1,0,46,100,-8040,1774,11264,3090.5,4,NAVI,1,0,0,0,0,0,0,1.5314E+12,3755,3749,3744,0,0,0,13,,,,,,,0,0,0,-109,-90,476,0,0,740,14,98,7,71.34,0,6,0,0,,,100,100,0,1,0,0,0,2,1,,,,,0,0,0
51.405525,-2.819243,32,32,0.89,23,32,32,5.14,23,171,43:21.1,43:21.1,21,0,0,11.264,51.405518,-2.819345,0,0.89,0,6,-7,40,0,1,0,46,100,-8040,1774,11264,3090.5,4,NAVI,1,0,0,0,0,0,0,1.5314E+12,3755,3749,3744,0,0,0,13,,,,,,,0,0,0,-60,-79,402,0,0,680,14,98,4,71.76,0,4,0,0,,,100,100,0,1,0,0,0,2,1,,,,,0,0,0
51.405525,-2.819243,32,32,0.45,23,32,32,5.14,23,266,43:21.6,43:21.6,21,0,0,11.264,51.405518,-2.819345,0,0,0,1,-5,35,0,1,0,46,100,-8040,1774,11264,3090.5,4,NAVI,1,0,0,0,0,0,0,1.5314E+12,3755,3749,3744,0,0,0,13,,,,,,,0,0,0,-15,-57,352,0,0,605,14,98,2,71.83,0,0,0,0,,,100,100,0,1,0,0,0,2,1,,,,,0,0,0
51.405525,-2.819244,32,32,0,23,32,32,5.14,23,366,43:21.6,43:21.6,21,0,0,11.264,51.405518,-2.819345,0,0,0,-2,0,25,0,1,0,46,100,-8040,1774,11264,3090.5,4,NAVI,1,0,0,0,0,0,0,1.5314E+12,3755,3749,3744,0,0,0,13,,,,,,,0,0,0,27,-8,258,0,0,382,14,98,0,70.81,0,0,0,0,,,100,100,0,1,0,0,0,2,1,,,,,0,0,0
51.405525,-2.819244,32,32,0,23,32,32,5.14,23,465,43:21.6,43:21.6,21,0,0,11.264,51.405518,-2.819345,0,0,0,-2,0,25,0,1,0,46,100,-8040,1774,11264,3090.5,4,NAVI,1,0,0,0,0,0,0,1.5314E+12,3755,3749,3744,0,0,0,13,,,,,,,0,0,0,27,-8,258,0,0,354,14,98,0,70.81,0,0,0,0,,,100,100,0,1,0,0,0,2,1,,,,,0,0,0
51.405525,-2.819244,32,32,0,23,32,32,5.14,23,571,43:21.6,43:21.6,21,0,0,11.264,51.405518,-2.819345,0,0,0,-2,0,25,0,1,0,46,100,-8040,1774,11264,3090.5,4,NAVI,1,0,0,0,0,0,0,1.5314E+12,3755,3749,3744,0,0,0,13,,,,,,,0,0,0,27,-8,258,0,0,354,14,98,0,70.81,0,0,0,0,,,100,100,0,1,0,0,0,2,1,,,,,0,0,0
51.405525,-2.819244,32,32,0,23,32,32,5.14,23,663,43:21.7,43:21.7,21,0,0,11.264,51.405518,-2.819345,0,0,0,-2,0,25,0,1,0,46,100,-8040,1774,11264,3090.5,4,NAVI,1,0,0,0,0,0,0,1.5314E+12,3755,3749,3744,0,0,0,13,,,,,,,0,0,0,27,-8,258,0,0,354,14,98,0,70.81,0,0,0,0,,,100,100,0,1,0,0,0,2,1,,,,,0,0,0
51.405525,-2.819245,32,32,0.22,23,32,32,5.14,23,774,43:21.7,43:21.7,21,0,0,11.242,51.405518,-2.819345,0,-0.22,0,-2,0,25,0,1,0,46,100,-8040,1774,11242,3090.5,4,NAVI,1,0,0,0,0,0,0,1.5314E+12,3755,3749,3744,0,0,0,13,,,,,,,0,0,0,28,-4,258,0,0,354,14,98,1,70.5,0,-1,0,0,,,100,100,0,1,0,0,0,2,1,,,,,0,0,0
51.405525,-2.819245,32,32,0.22,23,32,32,5.14,23,864,43:21.8,43:21.8,21,0,0,11.242,51.405518,-2.819345,0,-0.22,0,-3,0,25,0,1,0,46,100,-8040,1774,11242,3090.5,4,NAVI,1,1,0,0,0,0,0,1.5314E+12,3755,3749,3744,0,0,0,13,,,,,,,0,0,0,31,2,258,0,0,335,14,98,1,70.17,0,-1,0,0,,,100,100,0,1,0,0,0,2,1,,,,,0,0,0
51.405526,-2.819246,32,32,0.22,22,32,32,5.14,23,965,43:21.9,43:21.9,21,0,0,11.242,51.405518,-2.819345,0,-0.22,0,-7,7,24,0,1,0,46,100,-8040,1774,11242,3090.5,4,NAVI,1,1,0,0,0,0,0,1.5314E+12,3755,3749,3744,0,0,0,13,,,,,,,0,0,0,77,70,246,0,0,322,14,98,1,69.85,0,-1,0,0,,,100,100,0,1,0,0,0,2,1,,,,,0,0,0
51.405526,-2.819246,32,32,0,22,32,32,5.14,23,1104,43:22.0,43:22.0,21,0,0,11.242,51.405518,-2.819345,0,0,0,-10,9,23,0,1,0,46,100,-8040,1774,11242,3090.5,4,NAVI,1,1,0,0,0,0,0,1.5314E+12,3755,3749,3744,0,0,0,13,,,,,,,0,0,0,104,90,236,0,0,313,14,98,0,69.66,0,0,0,0,,,100,100,0,1,0,0,0,2,1,,,,,0,0,0
51.405526,-2.819246,32,32,0.22,22,32,32,5.14,23,1193,43:22.1,43:22.1,21,0,0,11.242,51.405518,-2.819345,0,0.22,0,-12,9,22,0,1,0,46,100,-8040,1774,11242,3090.5,4,NAVI,1,1,0,0,0,0,0,1.5314E+12,3755,3749,3744,0,0,0,13,,,,,,,0,0,0,120,91,226,0,0,306,14,98,1,69.67,0,1,0,0,,,100,100,0,1,0,0,0,2,1,,,,,0,0,0
51.405526,-2.819246,32,32,0.71,22,32,32,5.14,23,1268,43:22.2,43:22.2,21,0,0,11.242,51.405518,-2.819345,0.22,0.67,0,-12,9,22,0,1,0,46,100,-8040,1774,11242,3090.5,4,NAVI,1,1,0,0,0,0,0,1.5314E+12,3755,3749,3744,0,0,0,13,,,,,,,0,0,0,128,90,221,-3,0,298,14,98,3.16,69.91,1,3,0,0,,,100,100,0,1,0,0,0,2,1,,,,,0,0,0
51.405526,-2.819245,32,32,1.2,23,32,32,5.14,23,1367,43:22.4,43:22.4,21,0,0,11.242,51.405518,-2.819345,0.67,1.57,-0.22,-13,8,21,0,1,0,46,100,-8040,1774,11242,3090.5,4,NAVI,1,1,0,0,0,0,0,1.5314E+12,3755,3749,3744,0,0,0,13,,,,,,,0,0,0,131,85,215,-16,0,292,14,98,5.39,70.34,3,6,-1,0,,,100,100,0,1,0,0,0,2,1,,,,,0,0,0
51.405527,-2.819244,32,32,1.72,23,32,32,5.14,23,1467,43:22.4,43:22.4,21,0,0,11.242,51.405518,-2.819345,0.67,1.57,-0.22,-13,8,21,0,1,0,46,100,-8040,1774,11242,3090.5,4,NAVI,1,1,0,0,0,0,0,1.5314E+12,3755,3749,3744,0,0,0,13,,,,,,,0,0,0,131,83,211,-32,0,286,14,98,7.68,71.05,3,6,-1,0,,,100,100,0,1,0,0,0,2,1,,,,,0,0,0
51.405527,-2.819243,32,32,2,23,32,32,5.14,23,1567,43:22.5,43:22.5,21,0,0,11.242,51.405518,-2.819345,0.89,1.79,0,-13,8,20,0,1,0,46,100,-8040,1774,11242,3090.5,4,NAVI,1,1,0,0,0,0,0,1.5314E+12,3755,3749,3744,0,0,0,13,,,,,,,0,0,0,133,83,206,-54,0,280,14,98,8.94,71.92,4,8,0,0,,,100,100,0,1,0,0,0,2,1,,,,,0,0,0
51.405528,-2.819242,32,32,2.5,23,32,32,5.14,23,1667,43:22.6,43:22.6,21,0,0,11.242,51.405518,-2.819345,1.12,2.24,0,-12,8,20,0,1,0,46,100,-8040,1774,11242,3090.5,4,NAVI,1,1,0,0,0,0,0,1.5314E+12,3755,3749,3744,0,0,0,13,,,,,,,0,0,0,129,80,203,-76,0,273,14,98,11.18,73.05,5,10,0,0,,,100,100,0,1,0,0,0,2,1,,,,,0,0,0
51.405528,-2.81924,32,32,2.93,24,32,32,5.14,24,1768,43:22.7,43:22.7,21,0,0,11.352,51.405518,-2.819345,1.57,2.46,-0.22,-11,7,20,0,1,0,46,100,-8312,1769,11352,3090.5,4,NAVI,1,1,0,0,0,0,0,1.5314E+12,3755,3749,3744,0,0,0,13,,,,,,,0,0,0,114,70,203,-101,0,268,14,98,13.08,74.3,6,11,-1,0,,,100,100,0,1,0,0,0,2,1,,,,,0,0,0
51.405529,-2.819238,32,32,3.23,24,32,32,5.14,24,1872,43:22.8,43:22.8,21,0,0,11.352,51.405518,-2.819345,1.79,2.68,-0.22,-9,6,20,0,1,0,46,100,-8312,1769,11352,3090.5,4,NAVI,1,1,0,0,0,0,0,1.5314E+12,3755,3749,3744,0,0,0,13,,,,,,,0,0,0,98,62,200,-126,0,262,14,98,14.46,75.73,8,12,-1,0,,,100,100,0,1,0,0,0,2,1,,,,,0,0,0
51.40553,-2.819236,32,32,3.42,25,32,32,5.14,25,1966,43:22.9,43:22.9,21,0,0,11.352,51.405518,-2.819345,1.79,2.91,-0.22,-8,5,19,0,1,0,46,100,-8312,1769,11352,3090.5,4,NAVI,1,1,0,0,0,0,0,1.5314E+12,3755,3749,3744,0,0,0,13,,,,,,,0,0,0,84,52,198,-151,0,257,14,98,15.3,77.23,8,12,-1,0,,,100,100,0,1,0,0,0,2,1,,,,,0,0,0
51.405531,-2.819234,32,32,3.61,25,32,32,5.14,25,2066,43:23.0,43:23.0,21,0,0,11.352,51.405518,-2.819345,1.79,3.13,0,-7,4,19,0,1,0,46,100,-8312,1769,11352,3090.5,4,NAVI,1,1,0,0,0,0,0,1.5314E+12,3755,3749,3744,0,0,0,13,,,,,,,0,0,0,72,47,196,-176,0,252,14,98,16.12,78.81,8,13,0,0,,,100,100,0,1,0,0,0,2,1,,,,,0,0,0
51.405532,-2.819232,32,32,3.72,26,32,32,5.14,26,2222,43:23.1,43:23.1,21,0,0,11.352,51.405518,-2.819345,2.01,3.13,0,-6,4,19,0,1,0,46,100,-8312,1769,11352,3090.5,4,NAVI,1,1,0,0,0,0,0,1.5314E+12,3755,3749,3744,0,0,0,13,,,,,,,0,0,0,64,42,196,-197,0,247,14,98,16.64,80.43,8,13,0,0,,,100,100,0,1,0,0,0,2,1,,,,,0,0,0
51.405533,-2.81923,32,32,3.91,26,32,32,5.14,26,2323,43:23.2,43:23.2,21,0,0,11.352,51.405518,-2.819345,2.01,3.36,0,-5,3,19,0,1,0,46,100,-8312,1769,11352,3090.5,4,NAVI,1,1,0,0,0,0,0,1.5314E+12,3755,3749,3744,0,0,0,13,,,,,,,0,0,0,55,37,193,-217,0,242,14,98,17.49,82.07,8,15,0,0,,,100,100,0,1,0,0,0,2,1,,,,,0,0,0
51.405533,-2.819228,32,32,3.91,27,32,32,5.14,27,2370,43:23.3,43:23.3,21,0,0,11.352,51.405518,-2.819345,2.01,3.36,0,-5,3,18,0,1,0,46,100,-8312,1769,11352,3090.5,4,NAVI,1,1,0,0,0,0,0,1.5314E+12,3755,3749,3744,0,0,0,13,,,,,,,0,0,0,52,30,188,-236,0,238,14,98,17.49,83.71,8,15,0,0,,,100,100,0,1,0,0,0,2,1,,,,,0,0,0
51.405534,-2.819226,32,32,3.91,27,32,32,5.14,27,2466,43:23.5,43:23.5,21,0,0,11.352,51.405518,-2.819345,2.01,3.36,0,-5,2,18,0,1,0,46,100,-8312,1769,11352,3090.5,4,NAVI,1,1,0,0,0,0,0,1.5314E+12,3755,3749,3744,0,0,0,13,,,,,,,0,0,0,50,25,186,-250,0,233,14,98,17.49,85.33,8,15,0,0,,,100,100,0,1,0,0,0,2,1,,,,,0,0,0
51.405535,-2.819224,32,32,3.91,28,32,32,5.14,28,2567,43:23.5,43:23.5,21,0,0,11.352,51.405518,-2.819345,2.01,3.36,0,-4,2,18,0,1,0,46,100,-8312,1769,11352,3090.5,4,NAVI,1,1,0,0,0,0,0,1.5314E+12,3755,3749,3744,0,0,0,13,,,,,,,0,0,0,47,21,181,-260,0,230,14,98,17.49,86.95,8,15,0,0,,,100,100,0,1,0,0,0,2,1,,,,,0,0,0
51.405536,-2.819222,32,32,4.11,29,32,32,5.14,29,2669,43:23.6,43:23.6,21,0,0,11.352,51.405518,-2.819345,2.01,3.58,0,-4,1,17,0,1,0,46,100,-8312,1769,11352,3090.5,4,NAVI,1,1,0,0,0,0,0,1.5314E+12,3755,3749,3744,0,0,0,13,,,,,,,0,0,0,47,18,178,-260,0,226,14,98,18.36,88.5,8,16,0,0,,,100,100,0,1,0,0,0,2,1,,,,,0,0,0
51.405537,-2.81922,32,32,4.11,29,32,32,5.14,29,2769,43:23.7,43:23.7,21,0,0,11.088,51.405518,-2.819345,2.01,3.58,0,-4,1,17,0,1,0,46,100,-8312,1767,11088,3091.5,4,NAVI,1,1,0,0,0,0,0,1.5314E+12,3755,3749,3744,0,0,0,13,,,,,,,0,0,0,45,18,173,-257,0,222,14,98,18.36,90.05,8,16,0,0,,,100,100,0,1,0,0,0,2,1,,,,,0,0,0
51.405537,-2.819218,32,32,4.11,30,32,32,5.14,30,2867,43:23.8,43:23.8,21,0,0,11.088,51.405518,-2.819345,2.01,3.58,0,-4,1,17,0,1,0,46,100,-8312,1767,11088,3091.5,4,NAVI,1,1,0,0,0,0,0,1.5314E+12,3755,3749,3744,0,0,0,13,,,,,,,0,0,0,45,17,170,-256,0,217,14,98,18.36,91.51,8,16,0,0,,,100,100,0,1,0,0,0,2,1,,,,,0,0,0
51.405538,-2.819216,32,32,3.91,30,32,32,5.14,30,2969,43:23.9,43:23.9,21,0,0,11.088,51.405518,-2.819345,2.01,3.36,0,-4,1,16,0,1,0,46,100,-8312,1767,11088,3091.5,4,NAVI,1,1,0,0,0,0,0,1.5314E+12,3755,3749,3744,0,0,0,13,,,,,,,0,0,0,44,16,166,-253,0,212,14,98,17.49,93,8,15,0,0,,,100,100,0,1,0,0,0,2,1,,,,,0,0,0
51.405539,-2.819214,32,32,3.91,30,32,32,5.14,30,3066,43:24.0,43:24.0,21,0,0,11.088,51.405518,-2.819345,2.01,3.36,0,-4,1,16,0,1,0,46,100,-8312,1767,11088,3091.5,4,NAVI,1,1,0,0,0,0,0,1.5314E+12,3755,3749,3744,0,0,0,13,,,,,,,0,0,0,45,16,161,-251,0,208,14,98,17.49,94.41,8,15,0,0,,,100,100,0,1,0,0,0,2,1,,,,,0,0,0
51.40554,-2.819212,32,32,3.91,31,32,32,5.14,31,3172,43:24.1,43:24.1,21,0,0,11.088,51.405518,-2.819345,2.01,3.36,0,-4,1,15,0,1,0,46,100,-8312,1767,11088,3091.5,4,NAVI,1,1,0,0,0,0,0,1.5314E+12,3755,3749,3744,0,0,0,13,,,,,,,0,0,0,45,16,156,-247,0,203,14,98,17.49,95.84,8,15,0,0,,,100,100,0,1,0,0,0,2,1,,,,,0,0,0
51.405541,-2.819211,32,32,3.91,31,32,32,5.14,31,3267,43:24.2,43:24.2,21,0,0,11.088,51.405518,-2.819345,2.01,3.36,0,-4,1,15,0,1,0,46,100,-8312,1767,11088,3091.5,4,NAVI,1,1,0,0,0,0,0,1.5314E+12,3755,3749,3744,0,0,0,13,,,,,,,0,0,0,44,16,153,-243,0,200,14,98,17.49,97.2,8,15,0,0,,,100,100,0,1,0,0,0,2,1,,,,,0,0,0
51.405541,-2.819209,32,32,3.91,32,32,32,5.14,32,3366,43:24.3,43:24.3,21,0,0,11.088,51.405518,-2.819345,2.01,3.36,0,-4,1,14,0,1,0,46,100,-8312,1767,11088,3091.5,4,NAVI,1,1,0,0,0,0,0,1.5314E+12,3755,3749,3744,0,0,0,13,,,,,,,0,0,0,44,17,148,-242,0,196,14,98,17.49,98.59,8,15,0,0,,,100,100,0,1,0,0,0,2,1,,,,,0,0,0
51.405542,-2.819207,32,32,3.91,32,32,32,5.14,32,3468,43:24.5,43:24.5,21,0,0,11.088,51.405518,-2.819345,2.01,3.36,0,-4,1,14,0,1,0,46,100,-8312,1767,11088,3091.5,4,NAVI,1,1,0,0,0,0,0,1.5314E+12,3755,3749,3744,0,0,0,13,,,,,,,0,0,0,42,17,144,-240,0,191,14,98,17.49,99.93,8,15,0,0,,,100,100,0,1,0,0,0,2,1,,,,,0,0,0
51.405543,-2.819206,32,32,3.91,33,32,32,5.14,33,3566,43:24.5,43:24.5,21,0,0,11.088,51.405518,-2.819345,2.01,3.36,0,-4,1,13,0,1,0,46,100,-8312,1767,11088,3091.5,4,NAVI,1,1,0,0,0,0,0,1.5314E+12,3755,3749,3744,0,0,0,13,,,,,,,0,0,0,42,18,139,-237,0,187,14,98,17.49,101.29,8,15,0,0,,,100,100,0,1,0,0,0,2,1,,,,,0,0,0
51.405544,-2.819204,32,32,3.91,33,32,32,5.14,33,3662,43:24.6,43:24.6,21,0,0,11.088,51.405518,-2.819345,2.01,3.36,0,-4,1,13,0,1,0,46,100,-8312,1767,11088,3091.5,4,NAVI,1,1,0,0,0,0,0,1.5314E+12,3755,3749,3744,0,0,0,13,,,,,,,0,0,0,42,18,134,-236,0,182,14,98,17.49,102.63,8,15,0,0,,,100,100,0,1,0,0,0,2,1,,,,,0,0,0
51.405544,-2.819202,32,32,3.91,34,32,32,5.14,34,3769,43:24.7,43:24.7,21,0,0,11.088,51.405518,-2.819345,2.01,3.36,0,-4,2,12,0,1,0,46,100,-8312,1767,11088,3091.5,4,NAVI,1,1,0,0,0,0,0,1.5314E+12,3755,3749,3744,0,0,0,13,,,,,,,0,0,0,42,20,129,-236,0,177,14,98,17.49,103.97,8,15,0,0,,,100,100,0,1,0,0,0,2,1,,,,,0,0,0
51.405545,-2.819201,32,32,3.91,34,32,32,5.14,34,3864,43:24.8,43:24.8,21,0,0,11.396,51.405518,-2.819345,2.01,3.36,0,-4,2,12,0,1,0,46,100,-8040,1767,11396,3092.5,4,NAVI,1,1,0,0,0,0,0,1.5314E+12,3755,3749,3744,0,0,0,13,,,,,,,0,0,0,42,20,125,-236,0,172,14,98,17.49,105.27,8,15,0,0,,,100,100,0,1,0,0,0,2,1,,,,,0,0,0
51.405546,-2.819199,32,32,3.72,34,32,32,5.14,34,3974,43:24.9,43:24.9,21,0,0,11.396,51.405518,-2.819345,2.01,3.13,0,-4,2,12,0,1,0,46,100,-8040,1767,11396,3092.5,4,NAVI,1,1,0,0,0,0,0,1.5314E+12,3755,3749,3744,0,0,0,13,,,,,,,0,0,0,45,20,120,-236,0,168,14,98,16.64,106.58,8,13,0,0,,,100,100,0,1,0,0,0,2,1,,,,,0,0,0
51.405546,-2.819197,32,32,3.72,35,32,32,5.14,35,4067,43:25.0,43:25.0,21,0,0,11.396,51.405518,-2.819345,2.01,3.13,0,-4,2,11,0,1,0,46,100,-8040,1767,11396,3092.5,4,NAVI,1,1,0,0,0,0,0,1.5314E+12,3747,3742,3736,0,0,0,13,,,,,,,0,0,0,47,22,115,-236,0,163,14,98,16.64,107.87,8,13,0,0,,,100,100,0,1,0,0,0,2,1,,,,,0,0,0
51.405547,-2.819196,32,32,3.61,35,32,32,5.14,35,4167,43:25.1,43:25.1,21,0,0,11.396,51.405518,-2.819345,1.79,3.13,0,-4,2,11,0,1,0,46,100,-8040,1767,11396,3092.5,4,NAVI,1,1,0,0,0,0,0,1.5314E+12,3747,3742,3736,0,0,0,13,,,,,,,0,0,0,49,22,110,-237,0,160,14,98,16.12,109.17,8,13,0,0,,,100,100,0,1,0,0,0,2,1,,,,,0,0,0
51.405548,-2.819194,32,32,3.61,36,32,32,5.14,36,4278,43:25.2,43:25.2,21,0,0,11.396,51.405518,-2.819345,1.79,3.13,0,-5,2,10,0,1,0,46,100,-8040,1767,11396,3092.5,4,NAVI,1,1,0,0,0,0,0,1.5314E+12,3747,3742,3736,0,0,0,13,,,,,,,0,0,0,50,22,105,-237,0,155,14,98,16.12,110.47,8,13,0,0,,,100,100,0,1,0,0,0,2,1,,,,,0,0,0
51.405548,-2.819193,32,32,3.41,36,32,32,5.14,36,4365,43:25.3,43:25.3,21,0,0,11.396,51.405518,-2.819345,1.79,2.91,0,-5,2,10,0,1,0,46,100,-8040,1767,11396,3092.5,4,NAVI,1,1,0,0,0,0,0,1.5314E+12,3747,3742,3736,0,0,0,13,,,,,,,0,0,0,50,23,100,-238,0,150,14,98,15.26,111.78,8,12,0,0,,,100,100,0,1,0,0,0,2,1,,,,,0,0,0
51.405549,-2.819191,32,32,3.41,37,32,32,5.14,37,4463,43:25.4,43:25.4,21,0,0,11.396,51.405518,-2.819345,1.79,2.91,0,-5,2,9,0,1,0,46,100,-8040,1767,11396,3092.5,4,NAVI,1,1,0,0,0,0,0,1.5314E+12,3747,3742,3736,0,0,0,13,,,,,,,0,0,0,52,25,96,-241,0,146,14,98,15.26,113.13,8,12,0,0,,,100,100,0,1,0,0,0,2,1,,,,,0,0,0
51.40555,-2.819189,32,32,3.41,37,32,32,5.14,37,4566,43:25.6,43:25.6,21,0,0,11.396,51.405518,-2.819345,1.79,2.91,0,-5,2,9,0,1,0,46,100,-8040,1767,11396,3092.5,4,NAVI,1,1,0,0,0,0,0,1.5314E+12,3747,3742,3736,0,0,0,13,,,,,,,0,0,0,52,26,91,-242,0,141,14,98,15.26,114.48,8,12,0,0,,,100,100,0,1,0,0,0,2,1,,,,,0,0,0
51.40555,-2.819188,32,32,3.41,38,32,32,5.14,38,4664,43:25.6,43:25.6,21,0,0,11.396,51.405518,-2.819345,1.79,2.91,0,-5,2,8,0,1,0,46,100,-8040,1767,11396,3092.5,4,NAVI,1,1,0,0,0,0,0,1.5314E+12,3747,3742,3736,0,0,0,13,,,,,,,0,0,0,55,27,88,-245,0,136,14,98,15.26,115.83,8,12,0,0,,,100,100,0,1,0,0,0,2,1,,,,,0,0,0
51.405551,-2.819186,32,32,3.41,38,32,32,5.14,38,4764,43:25.7,43:25.7,21,0,0,11.396,51.405518,-2.819345,1.79,2.91,0,-5,2,8,0,1,0,46,100,-8040,1763,11396,3092.5,4,NAVI,1,1,0,0,0,0,0,1.5314E+12,3747,3742,3736,0,0,0,13,,,,,,,0,0,0,55,27,83,-247,0,131,14,98,15.26,117.19,8,12,0,0,,,100,100,0,1,0,0,0,2,1,,,,,0,0,0
51.405552,-2.819184,32,32,3.72,38,32,32,5.14,38,4866,43:25.8,43:25.8,21,0,0,11.396,51.405518,-2.819345,2.01,3.13,0,-5,2,7,0,1,0,46,100,-8040,1763,11396,3092.5,4,NAVI,1,1,0,0,0,0,0,1.5314E+12,3747,3742,3736,0,0,0,13,,,,,,,0,0,0,55,28,79,-247,0,128,14,98,16.64,118.53,8,13,0,0,,,100,100,0,1,0,0,0,2,1,,,,,0,0,0
51.405553,-2.819183,32,32,3.85,39,32,32,5.14,39,4964,43:25.9,43:25.9,21,0,0,11.396,51.405518,-2.819345,2.24,3.13,0,-5,2,7,0,1,0,46,100,-8040,1763,11396,3092.5,4,NAVI,1,1,0,0,0,0,0,1.5314E+12,3747,3742,3736,0,0,0,13,,,,,,,0,0,0,52,27,74,-250,0,123,14,98,17.2,119.89,10,13,0,0,,,100,100,0,1,0,0,0,2,1,,,,,0,0,0
51.405553,-2.819181,32,32,3.85,39,32,32,5.14,39,5066,43:26.0,43:26.0,21,0,0,11.396,51.405518,-2.819345,2.24,3.13,0,-5,2,7,0,1,0,46,100,-8040,1763,11396,3092.5,4,NAVI,1,1,0,0,0,0,0,1.5314E+12,3747,3742,3736,0,0,0,13,,,,,,,0,0,0,50,27,70,-251,0,118,14,98,17.2,121.27,10,13,0,0,,,100,100,0,1,0,0,0,2,1,,,,,0,0,0
51.405554,-2.819179,32,32,3.73,40,32,32,5.14,40,5170,43:26.1,43:26.1,21,0,0,11.396,51.405518,-2.819345,2.01,3.13,-0.22,-4,2,6,0,1,0,46,100,-8040,1763,11396,3092.5,4,NAVI,1,1,0,0,0,0,0,1.5314E+12,3747,3742,3736,0,0,0,13,,,,,,,0,0,0,47,25,65,-252,0,113,14,98,16.67,122.66,8,13,-1,0,,,100,100,0,1,0,0,0,2,1,,,,,0,0,0
51.405555,-2.819178,32,32,3.73,40,32,32,5.14,40,5271,43:26.2,43:26.2,21,0,0,11.396,51.405518,-2.819345,2.01,3.13,-0.22,-4,2,6,0,1,0,46,100,-8040,1763,11396,3092.5,4,NAVI,1,1,0,0,0,0,0,1.5314E+12,3747,3742,3736,0,0,0,13,,,,,,,0,0,0,47,25,62,-252,0,110,14,98,16.67,124.03,8,13,-1,0,,,100,100,0,1,0,0,0,2,1,,,,,0,0,0
51.405556,-2.819176,32,32,3.73,41,32,32,5.14,41,5414,43:26.3,43:26.3,21,0,0,11.396,51.405518,-2.819345,2.01,3.13,-0.22,-4,2,5,0,1,0,46,100,-8040,1763,11396,3092.5,4,NAVI,1,1,0,0,0,0,0,1.5314E+12,3747,3742,3736,0,0,0,13,,,,,,,0,0,0,47,23,57,-255,0,105,14,98,16.67,125.4,8,13,-1,0,,,100,100,0,1,0,0,0,2,1,,,,,0,0,0
51.405556,-2.819174,32,32,3.72,41,32,32,5.14,41,5525,43:26.4,43:26.4,21,0,0,11.396,51.405518,-2.819345,2.01,3.13,0,-4,2,5,0,1,0,46,100,-8040,1763,11396,3092.5,4,NAVI,1,1,0,0,0,0,0,1.5314E+12,3747,3742,3736,0,0,0,13,,,,,,,0,0,0,47,23,52,-256,0,101,14,98,16.64,126.77,8,13,0,0,,,100,100,0,1,0,0,0,2,1,,,,,0,0,0
51.405557,-2.819173,32,32,3.72,42,32,32,5.14,42,5570,43:26.5,43:26.5,21,0,0,11.396,51.405518,-2.819345,2.01,3.13,0,-4,2,4,0,1,0,46,100,-8040,1763,11396,3092.5,4,NAVI,1,1,0,0,0,0,0,1.5314E+12,3747,3742,3736,0,0,0,13,,,,,,,0,0,0,45,25,49,-257,0,96,14,98,16.64,128.14,8,13,0,0,,,100,100,0,1,0,0,0,2,1,,,,,0,0,0
51.405558,-2.819171,32,32,3.72,42,32,32,5.14,42,5664,43:26.7,43:26.7,21,0,0,11.396,51.405518,-2.819345,2.01,3.13,0,-4,2,4,0,1,0,46,100,-8040,1763,11396,3092.5,4,NAVI,1,1,0,0,0,0,0,1.5314E+12,3747,3742,3736,0,0,0,13,,,,,,,0,0,0,44,27,45,-258,0,91,14,100,16.64,129.49,8,13,0,0,,,100,100,0,1,0,0,0,2,1,,,,,0,0,0
51.405559,-2.819169,32,32,3.72,42,32,32,5.14,42,5781,43:26.7,43:26.7,21,0,0,11.198,51.405518,-2.819345,2.01,3.13,0,-4,2,4,0,1,0,46,100,-8246,1759,11198,3092.5,4,NAVI,1,1,0,0,0,0,0,1.5314E+12,3747,3742,3736,0,0,0,13,,,,,,,0,0,0,44,25,40,-260,0,88,14,100,16.64,130.84,8,13,0,0,,,100,100,0,1,0,0,0,2,1,,,,,0,0,0
51.405559,-2.819168,32,32,3.73,43,32,32,5.14,43,5868,43:26.8,43:26.8,21,0,0,11.198,51.405518,-2.819345,2.01,3.13,-0.22,-4,2,3,0,1,0,46,100,-8246,1759,11198,3092.5,4,NAVI,1,1,0,0,0,0,0,1.5314E+12,3747,3742,3736,0,0,0,13,,,,,,,0,0,0,45,23,37,-262,0,83,14,100,16.67,132.18,8,13,-1,0,,,100,100,0,1,0,0,0,2,1,,,,,0,0,0
51.40556,-2.819166,32,32,3.72,43,32,32,5.14,43,5972,43:26.9,43:26.9,21,0,0,11.198,51.405518,-2.819345,2.01,3.13,0,-4,2,3,0,1,0,46,100,-8246,1759,11198,3092.5,4,NAVI,1,1,0,0,0,0,0,1.5314E+12,3747,3742,3736,0,0,0,13,,,,,,,0,0,0,45,27,34,-262,0,79,14,100,16.64,133.53,8,13,0,0,,,100,100,0,1,0,0,0,2,1,,,,,0,0,0
51.405561,-2.819164,32,32,3.72,44,32,32,5.14,44,6066,43:27.0,43:27.0,21,0,0,11.198,51.405518,-2.819345,2.01,3.13,0,-4,2,3,0,1,0,46,100,-8246,1759,11198,3092.5,4,NAVI,1,1,0,0,0,0,0,1.5314E+12,3747,3742,3736,0,0,0,13,,,,,,,0,0,0,47,27,30,-265,0,75,14,100,16.64,134.86,8,13,0,0,,,100,100,0,1,0,0,0,2,1,,,,,0,0,0
51.405561,-2.819163,32,32,3.72,44,32,32,5.14,44,6169,43:27.1,43:27.1,21,0,0,11.198,51.405518,-2.819345,2.01,3.13,0,-4,2,2,0,1,0,46,100,-8246,1759,11198,3092.5,4,NAVI,1,1,0,0,0,0,0,1.5314E+12,3747,3742,3736,0,0,0,13,,,,,,,0,0,0,49,26,27,-267,0,70,14,100,16.64,136.21,8,13,0,0,,,100,100,0,1,0,0,0,2,1,,,,,0,0,0
51.405562,-2.819161,32,32,3.72,45,32,32,5.14,45,6270,43:27.2,43:27.2,21,0,0,11.198,51.405518,-2.819345,2.01,3.13,0,-4,2,2,0,1,0,46,100,-8246,1759,11198,3092.5,4,NAVI,1,1,0,0,0,0,0,1.5314E+12,3747,3742,3736,0,0,0,13,,,,,,,0,0,0,49,23,22,-267,0,68,14,100,16.64,137.54,8,13,0,0,,,100,100,0,1,0,0,0,2,1,,,,,0,0,0
51.405563,-2.81916,32,32,3.72,45,32,32,5.14,45,6378,43:27.3,43:27.3,21,0,0,11.198,51.405518,-2.819345,2.01,3.13,0,-5,2,1,0,1,0,46,100,-8246,1759,11198,3092.5,4,NAVI,1,1,0,0,0,0,0,1.5314E+12,3747,3742,3736,0,0,0,13,,,,,,,0,0,0,50,25,18,-270,0,64,14,100,16.64,138.88,8,13,0,0,,,100,100,0,1,0,0,0,2,1,,,,,0,0,0
51.405564,-2.819158,32,32,3.72,45,32,32,5.14,45,6469,43:27.4,43:27.4,21,0,0,11.198,51.405518,-2.819345,2.01,3.13,0,-4,2,1,0,1,0,46,100,-8246,1759,11198,3092.5,4,NAVI,1,1,0,0,0,0,0,1.5314E+12,3747,3742,3736,0,0,0,13,,,,,,,0,0,0,47,25,13,-271,0,59,14,100,16.64,140.21,8,13,0,0,,,100,100,0,1,0,0,0,2,1,,,,,0,0,0
51.405564,-2.819156,32,32,3.72,46,32,32,5.14,46,6565,43:27.5,43:27.5,21,0,0,11.198,51.405518,-2.819345,2.01,3.13,0,-4,2,0,0,1,0,46,100,-8246,1759,11198,3092.5,4,NAVI,1,1,0,0,0,0,0,1.5314E+12,3747,3742,3736,0,0,0,13,,,,,,,0,0,0,47,27,9,-272,0,55,14,100,16.64,141.55,8,13,0,0,,,100,100,0,1,0,0,0,2,1,,,,,0,0,0
51.405565,-2.819155,32,32,3.72,46,32,32,5.14,46,6664,43:27.7,43:27.7,21,0,0,11.198,51.405518,-2.819345,2.01,3.13,0,-4,2,0,0,1,0,46,100,-8246,1759,11198,3092.5,4,NAVI,1,1,0,0,0,0,0,1.5314E+12,3747,3742,3736,0,0,0,13,,,,,,,0,0,0,47,25,5,-275,0,50,14,100,16.64,142.89,8,13,0,0,,,100,100,0,1,0,0,0,2,1,,,,,0,0,0
51.405566,-2.819153,32,32,3.72,47,32,32,5.14,47,6774,43:27.7,43:27.7,21,0,0,11.198,51.405518,-2.819345,2.01,3.13,0,-4,2,0,0,1,0,46,100,-8246,1759,11198,3092.5,4,NAVI,1,1,0,0,0,0,0,1.5314E+12,3747,3742,3736,0,0,0,13,,,,,,,0,0,0,47,27,0,-276,0,46,14,100,16.64,144.23,8,13,0,0,,,100,100,0,1,0,0,0,2,1,,,,,0,0,0
51.405567,-2.819151,32,32,3.72,47,32,32,5.14,47,6864,43:27.8,43:27.8,21,0,0,11.198,51.405518,-2.819345,2.01,3.13,0,-4,2,0,0,1,0,46,100,-8246,1759,11198,3092.5,4,NAVI,1,1,0,0,0,0,0,1.5314E+12,3747,3742,3736,0,0,0,13,,,,,,,0,0,0,45,27,-2,-277,0,43,14,100,16.64,145.57,8,13,0,0,,,100,100,0,1,0,0,0,2,1,,,,,0,0,0
51.405567,-2.81915,32,32,3.72,48,32,32,5.14,48,6967,43:27.9,43:27.9,21,0,0,11.198,51.405518,-2.819345,2.01,3.13,0,-4,2,0,0,1,0,46,100,-8246,1759,11198,3092.5,4,NAVI,1,1,0,0,0,0,0,1.5314E+12,3747,3742,3736,0,0,0,13,,,,,,,0,0,0,42,28,-8,-278,0,37,14,100,16.64,146.92,8,13,0,0,,,100,100,0,1,0,0,0,2,1,,,,,0,0,0
51.405568,-2.819148,32,32,3.72,48,32,32,5.14,48,7067,43:28.0,43:28.0,21,0,0,11.198,51.405518,-2.819345,2.01,3.13,0,-4,2,-1,0,1,0,46,100,-8246,1759,11198,3092.5,4,NAVI,1,1,0,0,0,0,0,1.5314E+12,3747,3742,3736,0,0,0,13,,,,,,,0,0,0,44,27,-13,-280,0,34,14,100,16.64,148.3,8,13,0,0,,,100,100,0,1,0,0,0,2,1,,,,,0,0,0
51.405569,-2.819147,32,32,3.72,49,32,32,5.14,49,7166,43:28.1,43:28.1,21,0,0,11.198,51.405518,-2.819345,2.01,3.13,0,-4,2,-1,0,1,0,46,100,-8246,1759,11198,3092.5,4,NAVI,1,1,0,0,0,0,0,1.5314E+12,3747,3742,3736,0,0,0,13,,,,,,,0,0,0,44,27,-17,-281,0,30,14,100,16.64,149.69,8,13,0,0,,,100,100,0,1,0,0,0,2,1,,,,,0,0,0
51.40557,-2.819145,32,32,3.85,49,32,32,5.14,49,7266,43:28.2,43:28.2,21,0,0,11.198,51.405518,-2.819345,2.24,3.13,0,-4,2,-2,0,1,0,46,100,-8246,1759,11198,3092.5,4,NAVI,1,1,0,0,0,0,0,1.5314E+12,3747,3742,3736,0,0,0,13,,,,,,,0,0,0,45,27,-22,-282,0,25,14,100,17.2,151.05,10,13,0,0,,,100,100,0,1,0,0,0,2,1,,,,,0,0,0
51.40557,-2.819143,32,32,3.85,50,32,32,5.14,50,7363,43:28.3,43:28.3,21,0,0,11.198,51.405518,-2.819345,2.24,3.13,0,-4,2,-2,0,1,0,46,100,-8246,1759,11198,3092.5,4,NAVI,1,1,0,0,0,0,0,1.5314E+12,3747,3742,3736,0,0,0,13,,,,,,,0,0,0,42,25,-26,-283,0,20,14,100,17.2,152.42,10,13,0,0,,,100,100,0,1,0,0,0,2,1,,,,,0,0,0
51.405571,-2.819142,32,32,3.85,50,32,32,5.14,50,7488,43:28.4,43:28.4,21,0,0,11.198,51.405518,-2.819345,2.24,3.13,0,-4,2,-3,0,1,0,46,100,-8246,1759,11198,3092.5,4,NAVI,1,1,0,0,0,0,0,1.5314E+12,3747,3742,3736,0,0,0,13,,,,,,,0,0,0,40,26,-30,-286,0,16,14,100,17.2,153.8,10,13,0,0,,,100,100,0,1,0,0,0,2,1,,,,,0,0,0
51.405572,-2.81914,32,32,3.85,50,32,32,5.14,50,7589,43:28.5,43:28.5,21,0,0,11.198,51.405518,-2.819345,2.24,3.13,0,-3,2,-3,0,1,0,46,100,-8246,1759,11198,3092.5,4,NAVI,1,1,0,0,0,0,0,1.5314E+12,3747,3742,3736,0,0,0,13,,,,,,,0,0,0,39,27,-34,-287,0,12,14,100,17.2,155.2,10,13,0,0,,,100,100,0,1,0,0,0,2,1,,,,,0,0,0
51.405573,-2.819138,32,32,3.85,51,32,32,5.14,51,7664,43:28.6,43:28.6,21,0,0,11.198,51.405518,-2.819345,2.24,3.13,0,-4,2,-3,0,1,0,46,100,-8246,1759,11198,3092.5,4,NAVI,1,1,0,0,0,0,0,1.5314E+12,3747,3742,3736,0,0,0,13,,,,,,,0,0,0,40,25,-39,-288,0,6,14,100,17.2,156.56,10,13,0,0,,,100,100,0,1,0,0,0,2,1,,,,,0,0,0
51.405573,-2.819137,32,32,3.67,51,32,32,5.14,51,7778,43:28.8,43:28.8,21,0,0,11.154,51.405518,-2.819345,2.24,2.91,0,-4,2,-4,0,1,0,46,100,-8192,1757,11154,3092.5,4,NAVI,1,1,0,0,0,0,0,1.5314E+12,3747,3742,3736,0,0,0,13,,,,,,,0,0,0,40,26,-42,-290,0,3,14,100,16.4,157.92,10,12,0,0,,,100,100,0,1,0,0,0,2,1,,,,,0,0,0
51.405574,-2.819135,32,32,3.67,52,32,32,5.14,52,7863,43:28.9,43:28.9,21,0,0,11.154,51.405518,-2.819345,2.24,2.91,0,-3,2,-4,0,1,0,46,100,-8192,1757,11154,3092.5,4,NAVI,1,1,0,0,0,0,0,1.5314E+12,3747,3742,3736,0,0,0,13,,,,,,,0,0,0,37,28,-45,-292,0,-1,14,100,16.4,159.3,10,12,0,0,,,100,100,0,1,0,0,0,2,1,,,,,0,0,0
51.405575,-2.819134,32,32,3.67,52,32,32,5.14,52,7971,43:28.9,43:28.9,21,0,0,11.154,51.405518,-2.819345,2.24,2.91,0,-3,3,-5,0,1,0,46,100,-8192,1757,11154,3092.5,4,NAVI,1,1,0,0,0,0,0,1.5314E+12,3747,3742,3736,0,0,0,13,,,,,,,0,0,0,36,32,-50,-292,0,-5,14,100,16.4,160.68,10,12,0,0,,,100,100,0,1,0,0,0,2,1,,,,,0,0,0
51.405576,-2.819132,32,32,3.67,53,32,32,5.14,53,8065,43:29.0,43:29.0,21,0,0,11.154,51.405518,-2.819345,2.24,2.91,0,-3,3,-5,0,1,0,46,100,-8192,1757,11154,3092.5,4,NAVI,1,1,0,0,0,0,0,1.5314E+12,3747,3742,3736,0,0,0,13,,,,,,,0,0,0,37,32,-54,-293,0,-8,14,100,16.4,162.07,10,12,0,0,,,100,100,0,1,0,0,0,2,1,,,,,0,0,0
51.405577,-2.81913,32,32,3.67,53,32,32,5.14,53,8171,43:29.1,43:29.1,21,0,0,11.154,51.405518,-2.819345,2.24,2.91,0,-3,3,-6,0,1,0,46,100,-8192,1757,11154,3092.5,4,NAVI,1,1,0,0,0,0,0,1.5314E+12,3747,3742,3736,0,0,0,13,,,,,,,0,0,0,39,32,-60,-296,0,-12,14,100,16.4,163.45,10,12,0,0,,,100,100,0,1,0,0,0,2,1,,,,,0,0,0
51.405577,-2.819129,32,32,3.54,54,32,32,5.14,54,8266,43:29.2,43:29.2,21,0,0,11.154,51.405518,-2.819345,2.01,2.91,0,-3,3,-6,0,1,0,46,100,-8192,1757,11154,3092.5,4,NAVI,1,1,0,0,0,0,0,1.5314E+12,3747,3742,3736,0,0,0,13,,,,,,,0,0,0,37,32,-64,-297,0,-17,14,100,15.81,164.82,8,12,0,0,,,100,100,0,1,0,0,0,2,1,,,,,0,0,0
51.405578,-2.819127,32,32,3.67,54,32,32,5.14,54,8368,43:29.3,43:29.3,21,0,0,11.154,51.405518,-2.819345,2.24,2.91,0,-3,3,-6,0,1,0,46,100,-8192,1757,11154,3092.5,4,NAVI,1,1,0,0,0,0,0,1.5314E+12,3747,3742,3736,0,0,0,13,,,,,,,0,0,0,37,34,-69,-298,0,-22,14,100,16.4,166.18,10,12,0,0,,,100,100,0,1,0,0,0,2,1,,,,,0,0,0
51.405579,-2.819126,32,32,3.67,54,32,32,5.14,54,8462,43:29.4,43:29.4,21,0,0,11.154,51.405518,-2.819345,2.24,2.91,0,-3,3,-7,0,1,0,46,100,-8192,1757,11154,3092.5,4,NAVI,1,1,0,0,0,0,0,1.5314E+12,3747,3742,3736,0,0,0,13,,,,,,,0,0,0,37,35,-72,-301,0,-25,14,100,16.4,167.53,10,12,0,0,,,100,100,0,1,0,0,0,2,1,,,,,0,0,0
51.40558,-2.819124,33,33,3.67,55,33,33,5.14,55,8578,43:29.5,43:29.5,21,0,0,11.154,51.405518,-2.819345,2.24,2.91,0,-4,3,-7,0,1,0,46,100,-8192,1757,11154,3092.5,4,NAVI,1,1,0,0,0,0,0,1.5314E+12,3747,3742,3736,0,0,0,13,,,,,,,0,0,0,40,36,-77,-302,0,-30,14,101,16.4,168.89,10,12,0,0,,,100,100,0,1,0,0,0,2,1,,,,,0,0,0
51.40558,-2.819122,33,33,3.54,55,33,33,5.14,55,8666,43:29.6,43:29.6,21,0,0,11.154,51.405518,-2.819345,2.01,2.91,0,-3,3,-8,0,1,0,46,100,-8192,1757,11154,3092.5,4,NAVI,1,1,0,0,0,0,0,1.5314E+12,3747,3742,3736,0,0,0,13,,,,,,,0,0,0,39,35,-80,-303,0,-34,14,101,15.81,170.24,8,12,0,0,,,100,100,0,1,0,0,0,2,1,,,,,0,0,0
51.405581,-2.819121,33,33,3.54,56,33,33,5.14,56,8763,43:29.7,43:29.7,21,0,0,11.154,51.405518,-2.819345,2.01,2.91,0,-3,3,-8,0,1,0,46,100,-7890,1753,11154,3092.5,4,NAVI,1,1,0,0,0,0,0,1.5314E+12,3747,3742,3736,0,0,0,13,,,,,,,0,0,0,39,36,-85,-306,0,-39,14,101,15.81,171.61,8,12,0,0,,,100,100,0,1,0,0,0,2,1,,,,,0,0,0
51.405582,-2.819119,33,33,3.54,56,33,33,5.14,56,8864,43:29.9,43:29.9,21,0,0,11.154,51.405518,-2.819345,2.01,2.91,0,-3,3,-9,0,1,0,46,100,-7890,1753,11154,3092.5,4,NAVI,1,1,0,0,0,0,0,1.5314E+12,3747,3742,3736,0,0,0,13,,,,,,,0,0,0,39,35,-90,-307,0,-43,14,101,15.81,172.96,8,12,0,0,,,100,100,0,1,0,0,0,2,1,,,,,0,0,0
51.405583,-2.819118,33,33,3.54,57,33,33,5.14,57,8964,43:29.9,43:29.9,21,0,0,11.154,51.405518,-2.819345,2.01,2.91,0,-4,3,-9,0,1,0,46,100,-7890,1753,11154,3092.5,4,NAVI,1,1,0,0,0,0,0,1.5314E+12,3747,3742,3736,0,0,0,13,,,,,,,0,0,0,40,34,-94,-310,0,-46,14,101,15.81,174.33,8,12,0,0,,,100,100,0,1,0,0,0,2,1,,,,,0,0,0
51.405583,-2.819116,33,33,3.54,57,33,33,5.14,57,9072,43:30.0,43:30.0,21,0,0,11.154,51.405518,-2.819345,2.01,2.91,0,-4,3,-9,0,1,0,46,100,-7890,1753,11154,3092.5,4,NAVI,1,1,0,0,0,0,0,1.5314E+12,3747,3742,3736,0,0,0,13,,,,,,,0,0,0,40,32,-98,-312,0,-51,14,101,15.81,175.72,8,12,0,0,,,100,100,0,1,0,0,0,2,1,,,,,0,0,0
51.405584,-2.819114,33,33,3.54,58,33,33,5.14,58,9182,43:30.1,43:30.1,21,0,0,11.154,51.405518,-2.819345,2.01,2.91,0,-4,3,-10,0,1,0,46,100,-7890,1753,11154,3092.5,4,NAVI,1,1,0,0,0,0,0,1.5314E+12,3747,3742,3736,0,0,0,13,,,,,,,0,0,0,40,32,-103,-312,0,-55,14,101,15.81,177.12,8,12,0,0,,,100,100,0,1,0,0,0,2,1,,,,,0,0,0
51.405585,-2.819113,33,33,3.54,58,33,33,5.14,58,9266,43:30.2,43:30.2,21,0,0,11.154,51.405518,-2.819345,2.01,2.91,0,-4,3,-10,0,1,0,46,100,-7890,1753,11154,3092.5,4,NAVI,1,1,0,0,0,0,0,1.5314E+12,3747,3742,3736,0,0,0,13,,,,,,,0,0,0,40,34,-106,-315,0,-60,14,101,15.81,178.49,8,12,0,0,,,100,100,0,1,0,0,0,2,1,,,,,0,0,0
51.405586,-2.819111,33,33,3.54,59,33,33,5.14,59,9368,43:30.3,43:30.3,21,0,0,11.154,51.405518,-2.819345,2.01,2.91,0,-4,3,-11,0,1,0,46,100,-7890,1753,11154,3092.5,4,NAVI,1,1,0,0,0,0,0,1.5314E+12,3747,3742,3736,0,0,0,13,,,,,,,0,0,0,40,35,-111,-317,0,-65,14,101,15.81,179.85,8,12,0,0,,,100,100,0,1,0,0,0,2,1,,,,,0,0,0
51.405586,-2.819109,33,33,3.54,59,33,33,5.14,59,9475,43:30.4,43:30.4,21,0,0,11.154,51.405518,-2.819345,2.01,2.91,0,-3,3,-11,0,1,0,46,100,-7890,1753,11154,3092.5,4,NAVI,1,1,0,0,0,0,0,1.5314E+12,3747,3742,3736,0,0,0,13,,,,,,,0,0,0,39,36,-115,-317,0,-69,14,101,15.81,181.2,8,12,0,0,,,100,100,0,1,0,0,0,2,1,,,,,0,0,0
51.405587,-2.819108,33,33,3.54,59,33,33,5.14,59,9565,43:30.5,43:30.5,21,0,0,11.154,51.405518,-2.819345,2.01,2.91,0,-3,3,-12,0,1,0,46,100,-7890,1753,11154,3092.5,4,NAVI,1,1,0,0,0,0,0,1.5314E+12,3747,3742,3736,0,0,0,13,,,,,,,0,0,0,39,37,-120,-320,0,-74,14,101,15.81,182.55,8,12,0,0,,,100,100,0,1,0,0,0,2,1,,,,,0,0,0
51.405588,-2.819106,33,33,3.54,60,33,33,5.14,60,9664,43:30.7,43:30.7,21,0,0,11.154,51.405518,-2.819345,2.01,2.91,0,-3,3,-12,0,1,0,46,100,-7890,1753,11154,3092.5,4,NAVI,1,1,0,0,0,0,0,1.5314E+12,3747,3742,3736,0,0,0,13,,,,,,,0,0,0,39,37,-125,-320,0,-78,14,101,15.81,183.91,8,12,0,0,,,100,100,0,1,0,0,0,2,1,,,,,0,0,0
51.405589,-2.819105,33,33,3.54,60,33,33,5.14,60,9837,43:30.7,43:30.7,21,0,0,11.418,51.405518,-2.819345,2.01,2.91,0,-3,3,-13,0,1,0,45,100,-8246,1751,11418,3092.5,4,NAVI,1,1,0,0,0,0,0,1.5314E+12,3747,3742,3736,0,0,0,13,,,,,,,0,0,0,39,39,-130,-322,0,-81,14,101,15.81,185.29,8,12,0,0,,,100,100,0,1,0,0,0,2,1,,,,,0,0,0
51.405589,-2.819103,33,33,3.54,61,33,33,5.14,61,9869,43:30.9,43:30.9,21,0,0,11.418,51.405518,-2.819345,2.01,2.91,0,-3,3,-13,0,1,0,45,100,-8246,1751,11418,3092.5,4,NAVI,1,1,0,0,0,0,0,1.5314E+12,3747,3742,3736,0,0,0,13,,,,,,,0,0,0,39,37,-135,-324,0,-86,14,101,15.81,186.65,8,12,0,0,,,100,100,0,1,0,0,0,2,1,,,,,0,0,0
51.40559,-2.819101,33,33,3.54,61,33,33,5.14,61,9966,43:30.9,43:30.9,21,0,0,11.418,51.405518,-2.819345,2.01,2.91,0,-4,3,-13,0,1,0,45,100,-8246,1751,11418,3092.5,4,NAVI,1,1,0,0,0,0,0,1.5314E+12,3747,3742,3736,0,0,0,13,,,,,,,0,0,0,40,37,-139,-325,0,-91,14,101,15.81,188.01,8,12,0,0,,,100,100,0,1,0,0,0,2,1,,,,,0,0,0
51.405591,-2.8191,33,33,3.54,62,33,33,5.14,62,10074,43:31.0,43:31.0,21,0,0,11.418,51.405518,-2.819345,2.01,2.91,0,-3,3,-14,0,1,0,45,100,-8246,1751,11418,3092.5,4,NAVI,1,1,0,0,0,0,0,1.5314E+12,3747,3742,3736,0,0,0,13,,,,,,,0,0,0,39,39,-144,-327,0,-96,14,101,15.81,189.37,8,12,0,0,,,100,100,0,1,0,0,0,2,1,,,,,0,0,0
51.405592,-2.819098,33,33,3.54,62,33,33,5.14,62,10173,43:31.1,43:31.1,21,0,0,11.418,51.405518,-2.819345,2.01,2.91,0,-3,3,-14,0,1,0,45,100,-8246,1751,11418,3092.5,4,NAVI,1,1,0,0,0,0,0,1.5314E+12,3747,3742,3736,0,0,0,13,,,,,,,0,0,0,39,39,-148,-329,0,-100,14,101,15.81,190.74,8,12,0,0,,,100,100,0,1,0,0,0,2,1,,,,,0,0,0
51.405592,-2.819097,33,33,3.54,63,33,33,5.14,63,10265,43:31.2,43:31.2,21,0,0,11.418,51.405518,-2.819345,2.01,2.91,0,-4,3,-15,0,1,0,45,100,-8246,1751,11418,3092.5,4,NAVI,1,1,0,0,0,0,0,1.5314E+12,3747,3742,3736,0,0,0,13,,,,,,,0,0,0,40,37,-151,-330,0,-105,14,101,15.81,192.12,8,12,0,0,,,100,100,0,1,0,0,0,2,1,,,,,0,0,0
51.405593,-2.819095,33,33,3.54,63,33,33,5.14,63,10379,43:31.3,43:31.3,21,0,0,11.418,51.405518,-2.819345,2.01,2.91,0,-4,3,-15,0,1,0,45,100,-8246,1751,11418,3092.5,4,NAVI,1,1,0,0,0,0,0,1.5314E+12,3747,3742,3736,0,0,0,13,,,,,,,0,0,0,40,37,-156,-332,0,-108,14,101,15.81,193.52,8,12,0,0,,,100,100,0,1,0,0,0,2,1,,,,,0,0,0
51.405594,-2.819093,33,33,3.54,63,33,33,5.14,63,10464,43:31.4,43:31.4,21,0,0,11.418,51.405518,-2.819345,2.01,2.91,0,-3,3,-16,0,1,0,45,100,-8246,1751,11418,3092.5,4,NAVI,1,1,0,0,0,0,0,1.5314E+12,3747,3742,3736,0,0,0,13,,,,,,,0,0,0,39,37,-160,-334,0,-113,14,101,15.81,194.91,8,12,0,0,,,100,100,0,1,0,0,0,2,1,,,,,0,0,0
51.405595,-2.819092,33,33,3.54,64,33,33,5.14,64,10565,43:31.5,43:31.5,21,0,0,11.418,51.405518,-2.819345,2.01,2.91,0,-3,3,-16,0,1,0,45,100,-8246,1751,11418,3092.5,4,NAVI,1,1,0,0,0,0,0,1.5314E+12,3747,3742,3736,0,0,0,13,,,,,,,0,0,0,39,37,-165,-335,0,-118,14,101,15.81,196.3,8,12,0,0,,,100,100,0,1,0,0,0,2,1,,,,,0,0,0
51.405595,-2.81909,33,33,3.54,64,33,33,5.14,64,10688,43:31.6,43:31.6,21,0,0,11.418,51.405518,-2.819345,2.01,2.91,0,-4,3,-16,0,1,0,45,100,-8246,1751,11418,3092.5,4,NAVI,1,1,0,0,0,0,0,1.5314E+12,3747,3742,3736,0,0,0,13,,,,,,,0,0,0,40,36,-168,-337,0,-121,14,101,15.81,197.68,8,12,0,0,,,100,100,0,1,0,0,0,2,1,,,,,0,0,0
51.405596,-2.819088,33,33,3.54,65,33,33,5.14,65,10782,43:31.7,43:31.7,21,0,0,11.418,51.405518,-2.819345,2.01,2.91,0,-3,3,-17,0,1,0,45,100,-8246,1751,11418,3092.5,4,NAVI,1,1,0,0,0,0,0,1.5314E+12,3747,3742,3736,0,0,0,13,,,,,,,0,0,0,39,37,-173,-337,0,-126,14,101,15.81,199.05,8,12,0,0,,,100,100,0,1,0,0,0,2,1,,,,,0,0,0
51.405597,-2.819087,33,33,3.54,65,33,33,5.14,65,10864,43:31.8,43:31.8,21,0,0,11.308,51.405518,-2.819345,2.01,2.91,0,-3,3,-17,0,1,0,45,100,-8246,1749,11308,3092.5,4,NAVI,1,1,0,0,0,0,0,1.5314E+12,3747,3742,3736,0,0,0,13,,,,,,,0,0,0,35,37,-178,-340,0,-131,14,101,15.81,200.43,8,12,0,0,,,100,100,0,1,0,0,0,2,1,,,,,0,0,0
51.405598,-2.819085,33,33,3.54,66,33,33,5.14,66,10964,43:32.0,43:32.0,21,0,0,11.308,51.405518,-2.819345,2.01,2.91,0,-3,3,-18,0,1,0,45,100,-8246,1749,11308,3092.5,4,NAVI,1,1,0,0,0,0,0,1.5314E+12,3747,3742,3736,0,0,0,13,,,,,,,0,0,0,37,39,-181,-340,0,-136,14,101,15.81,201.81,8,12,0,0,,,100,100,0,1,0,0,0,2,1,,,,,0,0,0
51.405598,-2.819083,33,33,3.54,66,33,33,5.14,66,11066,43:32.0,43:32.0,21,0,0,11.308,51.405518,-2.819345,2.01,2.91,0,-3,3,-18,0,1,0,45,100,-8246,1749,11308,3092.5,4,NAVI,1,1,0,0,0,0,0,1.5314E+12,3747,3742,3736,0,0,0,13,,,,,,,0,0,0,37,39,-186,-342,0,-140,14,101,15.81,203.21,8,12,0,0,,,100,100,0,1,0,0,0,2,1,,,,,0,0,0
51.405599,-2.819082,33,33,3.67,67,33,33,5.14,67,11203,43:32.1,43:32.1,21,0,0,11.308,51.405518,-2.819345,2.24,2.91,0,-3,3,-19,0,1,0,45,100,-8246,1749,11308,3092.5,4,NAVI,1,1,0,0,0,0,0,1.5314E+12,3747,3742,3736,0,0,0,13,,,,,,,0,0,0,36,37,-190,-345,0,-145,14,101,16.4,204.63,10,12,0,0,,,100,100,0,1,0,0,0,2,1,,,,,0,0,0
51.4056,-2.81908,33,33,3.67,67,33,33,5.14,67,11266,43:32.2,43:32.2,21,0,0,11.308,51.405518,-2.819345,2.24,2.91,0,-3,3,-19,0,1,0,45,100,-8246,1749,11308,3092.5,4,NAVI,1,1,0,0,0,0,0,1.5314E+12,3747,3742,3736,0,0,0,13,,,,,,,0,0,0,34,37,-195,-347,0,-148,14,101,16.4,206.04,10,12,0,0,,,100,100,0,1,0,0,0,2,1,,,,,0,0,0
51.405601,-2.819079,33,33,3.67,68,33,33,5.14,68,11365,43:32.3,43:32.3,21,0,0,11.308,51.405518,-2.819345,2.24,2.91,0,-3,3,-19,0,1,0,45,100,-8246,1749,11308,3092.5,4,NAVI,1,1,0,0,0,0,0,1.5314E+12,3747,3742,3736,0,0,0,13,,,,,,,0,0,0,35,37,-198,-347,0,-153,14,101,16.4,207.45,10,12,0,0,,,100,100,0,1,0,0,0,2,1,,,,,0,0,0
51.405601,-2.819077,33,33,3.67,68,33,33,5.14,68,11466,43:32.4,43:32.4,21,0,0,11.308,51.405518,-2.819345,2.24,2.91,0,-3,3,-20,0,1,0,45,100,-8246,1749,11308,3092.5,4,NAVI,1,1,0,0,0,0,0,1.5314E+12,3747,3742,3736,0,0,0,13,,,,,,,0,0,0,32,36,-201,-350,0,-156,14,101,16.4,208.87,10,12,0,0,,,100,100,0,1,0,0,0,2,1,,,,,0,0,0
51.405602,-2.819075,33,33,3.67,68,33,33,5.14,68,11566,43:32.5,43:32.5,21,0,0,11.308,51.405518,-2.819345,2.24,2.91,0,-3,3,-20,0,1,0,45,100,-8246,1749,11308,3092.5,4,NAVI,1,1,0,0,0,0,0,1.5314E+12,3747,3742,3736,0,0,0,13,,,,,,,0,0,0,32,35,-206,-352,0,-161,14,101,16.4,210.3,10,12,0,0,,,100,100,0,1,0,0,0,2,1,,,,,0,0,0
51.405603,-2.819074,33,33,3.67,69,33,33,5.14,69,11665,43:32.6,43:32.6,21,0,0,11.308,51.405518,-2.819345,2.24,2.91,0,-3,3,-21,0,1,0,45,100,-8246,1749,11308,3092.5,4,NAVI,1,1,0,0,0,0,0,1.5314E+12,3747,3742,3736,0,0,0,13,,,,,,,0,0,0,32,32,-210,-352,0,-166,14,101,16.4,211.72,10,12,0,0,,,100,100,0,1,0,0,0,2,1,,,,,0,0,0
51.405604,-2.819072,33,33,3.67,69,33,33,5.14,69,11773,43:32.7,43:32.7,21,0,0,11.22,51.405518,-2.819345,2.24,2.91,0,-3,3,-21,0,1,0,45,100,-8400,1749,11220,3092.5,4,NAVI,1,1,0,0,0,0,0,1.5314E+12,3747,3742,3736,0,0,0,13,,,,,,,0,0,0,34,32,-215,-355,0,-170,14,101,16.4,213.14,10,12,0,0,,,100,100,0,1,0,0,0,2,1,,,,,0,0,0
51.405605,-2.81907,33,33,3.67,70,33,33,5.14,70,11879,43:32.8,43:32.8,21,0,0,11.22,51.405518,-2.819345,2.24,2.91,0,-3,3,-21,0,1,0,45,100,-8400,1749,11220,3092.5,4,NAVI,1,1,0,0,0,0,0,1.5314E+12,3747,3742,3736,0,0,0,13,,,,,,,0,0,0,32,32,-218,-355,0,-173,14,101,16.4,214.56,10,12,0,0,,,100,100,0,1,0,0,0,2,1,,,,,0,0,0
51.405605,-2.819069,33,33,3.67,70,33,33,5.14,70,11970,43:33.1,43:33.1,21,0,0,11.22,51.405518,-2.819345,2.24,2.91,0,-3,3,-22,0,1,0,45,100,-8400,1749,11220,3092.5,4,NAVI,1,1,0,0,0,0,0,1.5314E+12,3747,3742,3736,0,0,0,13,,,,,,,0,0,0,32,32,-223,-357,0,-177,14,101,16.4,215.98,10,12,0,0,,,100,100,0,1,0,0,0,2,1,,,,,0,0,0
51.405606,-2.819067,33,33,3.67,71,33,33,5.14,71,12065,43:33.1,43:33.1,21,0,0,11.22,51.405518,-2.819345,2.24,2.91,0,-3,3,-22,0,1,0,45,100,-8400,1749,11220,3092.5,4,NAVI,1,1,0,0,0,0,0,1.5314E+12,3747,3742,3736,0,0,0,13,,,,,,,0,0,0,32,35,-228,-360,0,-182,14,101,16.4,217.4,10,12,0,0,,,100,100,0,1,0,0,0,2,1,,,,,0,0,0
51.405607,-2.819065,33,33,3.67,71,33,33,5.14,71,12173,43:33.1,43:33.1,21,0,0,11.22,51.405518,-2.819345,2.24,2.91,0,-3,3,-23,0,1,0,45,100,-8400,1749,11220,3092.5,4,NAVI,1,1,0,0,0,0,0,1.5314E+12,3747,3742,3736,0,0,0,13,,,,,,,0,0,0,31,34,-233,-360,0,-187,14,101,16.4,218.83,10,12,0,0,,,100,100,0,1,0,0,0,2,1,,,,,0,0,0
51.405608,-2.819064,33,33,3.67,72,33,33,5.14,72,12267,43:33.2,43:33.2,21,0,0,11.22,51.405518,-2.819345,2.24,2.91,0,-3,3,-23,0,1,0,45,100,-8400,1749,11220,3092.5,4,NAVI,1,1,0,0,0,0,0,1.5314E+12,3747,3742,3736,0,0,0,13,,,,,,,0,0,0,30,35,-236,-360,0,-187,14,101,16.4,220.26,10,12,0,0,,,100,100,0,1,0,0,0,2,1,,,,,0,0,0
51.405608,-2.819062,33,33,3.67,72,33,33,5.14,72,12368,43:33.3,43:33.3,21,0,0,11.22,51.405518,-2.819345,2.24,2.91,0,-2,3,-24,0,1,0,45,100,-8400,1749,11220,3092.5,4,NAVI,1,1,0,0,0,0,0,1.5314E+12,3747,3742,3736,0,0,0,13,,,,,,,0,0,0,28,36,-240,-362,0,-192,14,101,16.4,221.69,10,12,0,0,,,100,100,0,1,0,0,0,2,1,,,,,0,0,0
51.405609,-2.81906,33,33,3.67,73,33,33,5.14,73,12482,43:33.4,43:33.4,21,0,0,11.22,51.405518,-2.819345,2.24,2.91,0,-3,3,-24,0,1,0,45,100,-8400,1749,11220,3092.5,4,NAVI,1,1,0,0,0,0,0,1.5314E+12,3747,3742,3736,0,0,0,13,,,,,,,0,0,0,32,36,-246,-364,0,-196,14,101,16.4,223.09,10,12,0,0,,,100,100,0,1,0,0,0,2,1,,,,,0,0,0
51.40561,-2.819059,33,33,3.54,73,33,33,5.14,73,12570,43:33.5,43:33.5,21,0,0,11.22,51.405518,-2.819345,2.01,2.91,0,-3,3,-25,0,1,0,45,100,-8400,1749,11220,3092.5,4,NAVI,1,1,0,0,0,0,0,1.5314E+12,3747,3742,3736,0,0,0,13,,,,,,,0,0,0,30,36,-250,-365,0,-200,14,101,15.81,224.5,8,12,0,0,,,100,100,0,1,0,0,0,2,1,,,,,0,0,0
51.405611,-2.819057,33,33,3.67,74,33,33,5.14,74,12662,43:33.6,43:33.6,21,0,0,11.22,51.405518,-2.819345,2.24,2.91,0,-3,3,-25,0,1,0,45,100,-8400,1749,11220,3092.5,4,NAVI,1,1,0,0,0,0,0,1.5314E+12,3747,3742,3736,0,0,0,13,,,,,,,0,0,0,32,37,-255,-367,0,-205,14,101,16.4,225.88,10,12,0,0,,,100,100,0,1,0,0,0,2,1,,,,,0,0,0
51.405611,-2.819055,33,33,3.54,74,33,33,5.14,74,12761,43:33.7,43:33.7,21,0,0,11.22,51.405518,-2.819345,2.01,2.91,0,-3,3,-26,0,1,0,45,100,-8400,1749,11220,3092.5,4,NAVI,1,1,0,0,0,0,0,1.5314E+12,3747,3742,3736,0,0,0,13,,,,,,,0,0,0,32,37,-261,-367,0,-208,14,101,15.81,227.27,8,12,0,0,,,100,100,0,1,0,0,0,2,1,,,,,0,0,0
51.405612,-2.819054,33,33,3.54,75,33,33,5.14,75,12867,43:33.8,43:33.8,21,0,0,11.22,51.405518,-2.819345,2.01,2.91,0,-3,3,-26,0,1,0,45,100,-8272,1742,11220,3092.5,4,NAVI,1,1,0,0,0,0,0,1.5314E+12,3747,3742,3736,0,0,0,13,,,,,,,0,0,0,34,36,-265,-369,0,-212,14,101,15.81,228.66,8,12,0,0,,,100,100,0,1,0,0,0,2,1,,,,,0,0,0
51.405613,-2.819052,33,33,3.67,75,33,33,5.14,75,12964,43:33.9,43:33.9,21,0,0,11.22,51.405518,-2.819345,2.24,2.91,0,-3,3,-26,0,1,0,45,100,-8272,1742,11220,3092.5,4,NAVI,1,1,0,0,0,0,0,1.5314E+12,3747,3742,3736,0,0,0,13,,,,,,,0,0,0,36,36,-268,-370,0,-217,14,101,16.4,230.05,10,12,0,0,,,100,100,0,1,0,0,0,2,1,,,,,0,0,0
51.405614,-2.81905,33,33,3.54,75,33,33,5.14,75,13063,43:34.2,43:34.2,21,0,0,11.22,51.405518,-2.819345,2.24,2.91,0,-3,4,-27,0,1,0,45,100,-8272,1742,11220,3092.5,4,NAVI,1,1,0,0,0,0,0,1.5314E+12,3747,3742,3736,0,0,0,13,,,,,,,0,0,0,35,40,-273,-370,0,-222,14,101,15.81,231.42,10,12,0,0,,,100,100,0,1,0,0,0,2,1,,,,,0,0,0
51.405614,-2.819049,33,33,3.67,76,33,33,5.14,76,13191,43:34.2,43:34.2,21,0,0,11.22,51.405518,-2.819345,2.24,2.91,0,-3,4,-27,0,1,0,45,100,-8272,1742,11220,3092.5,4,NAVI,1,1,0,0,0,0,0,1.5314E+12,3747,3742,3736,0,0,0,13,,,,,,,0,0,0,32,42,-276,-374,0,-231,14,101,16.4,232.79,10,12,0,0,,,100,100,0,1,0,0,0,2,1,,,,,0,0,0
51.405615,-2.819047,33,33,3.67,76,33,33,5.14,76,13266,43:34.2,43:34.2,21,0,0,11.22,51.405518,-2.819345,2.24,2.91,0,-3,4,-28,0,1,0,45,100,-8272,1742,11220,3092.5,4,NAVI,1,1,0,0,0,0,0,1.5314E+12,3747,3742,3736,0,0,0,13,,,,,,,0,0,0,30,44,-281,-374,0,-231,14,101,16.4,234.14,10,12,0,0,,,100,100,0,1,0,0,0,2,1,,,,,0,0,0
51.405616,-2.819046,33,33,3.54,77,33,33,5.14,77,13369,43:34.3,43:34.3,21,0,0,11.22,51.405518,-2.819345,2.01,2.91,0,-3,4,-28,0,1,0,45,100,-8272,1742,11220,3092.5,4,NAVI,1,1,0,0,0,0,0,1.5314E+12,3747,3742,3736,0,0,0,13,,,,,,,0,0,0,30,42,-283,-375,0,-236,14,103,15.81,235.49,8,12,0,0,,,100,100,0,1,0,0,0,2,1,,,,,0,0,0
51.405617,-2.819044,33,33,3.54,77,33,33,5.14,77,13462,43:34.4,43:34.4,21,0,0,11.22,51.405518,-2.819345,2.01,2.91,0,-3,4,-29,0,1,0,45,100,-8272,1742,11220,3092.5,4,NAVI,1,1,0,0,0,0,0,1.5314E+12,3747,3742,3736,0,0,0,13,,,,,,,0,0,0,31,44,-290,-375,0,-240,14,103,15.81,236.86,8,12,0,0,,,100,100,0,1,0,0,0,2,1,,,,,0,0,0
51.405617,-2.819042,33,33,3.54,78,33,33,5.14,78,13566,43:34.5,43:34.5,21,0,0,11.22,51.405518,-2.819345,2.01,2.91,0,-3,4,-29,0,1,0,45,100,-8272,1742,11220,3092.5,4,NAVI,1,1,0,0,0,0,0,1.5314E+12,3747,3742,3736,0,0,0,13,,,,,,,0,0,0,32,42,-293,-377,0,-243,14,103,15.81,238.24,8,12,0,0,,,100,100,0,1,0,0,0,2,1,,,,,0,0,0
51.405618,-2.819041,33,33,3.67,78,33,33,5.14,78,13666,43:34.6,43:34.6,21,0,0,11.22,51.405518,-2.819345,2.24,2.91,0,-3,4,-29,0,1,0,45,100,-8272,1742,11220,3092.5,4,NAVI,1,1,0,0,0,0,0,1.5314E+12,3747,3742,3736,0,0,0,13,,,,,,,0,0,0,31,44,-298,-377,0,-247,14,103,16.4,239.62,10,12,0,0,,,100,100,0,1,0,0,0,2,1,,,,,0,0,0
51.405619,-2.819039,33,33,3.67,79,33,33,5.14,79,13765,43:34.7,43:34.7,21,0,0,11.198,51.405518,-2.819345,2.24,2.91,0,-2,4,-30,0,1,0,45,100,-8272,1742,11198,3092.5,4,NAVI,1,1,0,0,0,0,0,1.5314E+12,3747,3742,3736,0,0,0,13,,,,,,,0,0,0,28,42,-301,-380,0,-252,14,103,16.4,241.02,10,12,0,0,,,100,100,0,1,0,0,0,2,1,,,,,0,0,0
51.40562,-2.819038,33,33,3.67,79,33,33,5.14,79,13874,43:34.8,43:34.8,21,0,0,11.198,51.405518,-2.819345,2.24,2.91,0,-2,4,-30,0,1,0,45,100,-8272,1742,11198,3092.5,4,NAVI,1,1,0,0,0,0,0,1.5314E+12,3747,3742,3736,0,0,0,13,,,,,,,0,0,0,28,42,-307,-380,0,-257,14,103,16.4,242.4,10,12,0,0,,,100,100,0,1,0,0,0,2,1,,,,,0,0,0
51.40562,-2.819036,33,33,3.67,79,33,33,5.14,79,13971,43:34.9,43:34.9,21,0,0,11.198,51.405518,-2.819345,2.24,2.91,0,-2,4,-31,0,1,0,45,100,-8272,1742,11198,3092.5,4,NAVI,1,1,0,0,0,0,0,1.5314E+12,3747,3742,3736,0,0,0,13,,,,,,,0,0,0,26,40,-311,-382,0,-261,14,103,16.4,243.81,10,12,0,0,,,100,100,0,1,0,0,0,2,1,,,,,0,0,0
51.405621,-2.819034,33,33,3.67,80,33,33,5.14,80,14064,43:35.0,43:35.0,21,0,0,11.198,51.405518,-2.819345,2.24,2.91,0,-2,4,-31,0,1,0,45,100,-8272,1742,11198,3092.5,4,NAVI,1,1,0,0,0,0,0,1.5314E+12,3740,3734,3729,0,0,0,13,,,,,,,0,0,0,25,40,-316,-382,0,-266,14,103,16.4,245.22,10,12,0,0,,,100,100,0,1,0,0,0,2,1,,,,,0,0,0
51.405622,-2.819033,33,33,3.67,80,33,33,5.14,80,14163,43:35.3,43:35.3,21,0,0,11.198,51.405518,-2.819345,2.24,2.91,0,-2,3,-32,0,1,0,45,100,-8272,1742,11198,3092.5,4,NAVI,1,1,0,0,0,0,0,1.5314E+12,3740,3734,3729,0,0,0,13,,,,,,,0,0,0,22,37,-321,-384,0,-270,14,103,16.4,246.64,10,12,0,0,,,100,100,0,1,0,0,0,2,1,,,,,0,0,0
51.405623,-2.819031,33,33,3.67,81,33,33,5.14,81,14266,43:35.3,43:35.3,21,0,0,11.198,51.405518,-2.819345,2.24,2.91,0,-2,3,-32,0,1,0,45,100,-8272,1742,11198,3092.5,4,NAVI,1,1,0,0,0,0,0,1.5314E+12,3740,3734,3729,0,0,0,13,,,,,,,0,0,0,23,36,-323,-385,0,-278,14,103,16.4,248.06,10,12,0,0,,,100,100,0,1,0,0,0,2,1,,,,,0,0,0
51.405624,-2.819029,33,33,3.67,81,33,33,5.14,81,14367,43:35.3,43:35.3,21,0,0,11.198,51.405518,-2.819345,2.24,2.91,0,-2,3,-32,0,1,0,45,100,-8272,1742,11198,3092.5,4,NAVI,1,1,0,0,0,0,0,1.5314E+12,3740,3734,3729,0,0,0,13,,,,,,,0,0,0,22,36,-327,-385,0,-278,14,103,16.4,249.47,10,12,0,0,,,100,100,0,1,0,0,0,2,1,,,,,0,0,0
51.405624,-2.819028,33,33,3.67,82,33,33,5.14,82,14466,43:35.4,43:35.4,21,0,0,11.198,51.405518,-2.819345,2.24,2.91,0,-2,3,-33,0,1,0,45,100,-8272,1742,11198,3092.5,4,NAVI,1,1,0,0,0,0,0,1.5314E+12,3740,3734,3729,0,0,0,13,,,,,,,0,0,0,25,37,-332,-387,0,-283,14,103,16.4,250.87,10,12,0,0,,,100,100,0,1,0,0,0,2,1,,,,,0,0,0
51.405625,-2.819026,33,33,3.67,82,33,33,5.14,82,14567,43:35.5,43:35.5,21,0,0,11.198,51.405518,-2.819345,2.24,2.91,0,-2,3,-33,0,1,0,45,100,-8272,1742,11198,3092.5,4,NAVI,1,1,0,0,0,0,0,1.5314E+12,3740,3734,3729,0,0,0,13,,,,,,,0,0,0,22,37,-337,-387,0,-287,14,103,16.4,252.27,10,12,0,0,,,100,100,0,1,0,0,0,2,1,,,,,0,0,0
51.405626,-2.819025,33,33,3.67,83,33,33,5.14,83,14665,43:35.6,43:35.6,21,0,0,11.198,51.405518,-2.819345,2.24,2.91,0,-2,3,-34,0,1,0,45,100,-8272,1742,11198,3092.5,4,NAVI,1,1,0,0,0,0,0,1.5314E+12,3740,3734,3729,0,0,0,13,,,,,,,0,0,0,25,39,-341,-389,0,-292,14,103,16.4,253.66,10,12,0,0,,,100,100,0,1,0,0,0,2,1,,,,,0,0,0
51.405627,-2.819023,33,33,3.67,83,33,33,5.14,83,14768,43:35.7,43:35.7,21,0,0,11.396,51.405518,-2.819345,2.24,2.91,0,-2,4,-34,0,1,0,45,100,-8442,1740,11396,3092.5,4,NAVI,1,1,0,0,0,0,0,1.5314E+12,3740,3734,3729,0,0,0,13,,,,,,,0,0,0,25,40,-345,-390,0,-297,14,103,16.4,255.06,10,12,0,0,,,100,100,0,1,0,0,0,2,1,,,,,0,0,0
51.405627,-2.819021,33,33,3.67,84,33,33,5.14,84,14863,43:35.8,43:35.8,21,0,0,11.396,51.405518,-2.819345,2.24,2.91,0,-2,4,-34,0,1,0,45,100,-8442,1740,11396,3092.5,4,NAVI,1,1,0,0,0,0,0,1.5314E+12,3740,3734,3729,0,0,0,13,,,,,,,0,0,0,26,40,-348,-390,0,-301,14,103,16.4,256.46,10,12,0,0,,,100,100,0,1,0,0,0,2,1,,,,,0,0,0
51.405628,-2.81902,33,33,3.67,84,33,33,5.14,84,14972,43:35.9,43:35.9,21,0,0,11.396,51.405518,-2.819345,2.24,2.91,0,-2,3,-35,0,1,0,45,100,-8442,1740,11396,3092.5,4,NAVI,1,1,0,0,0,0,0,1.5314E+12,3740,3734,3729,0,0,0,13,,,,,,,0,0,0,27,39,-352,-390,0,-305,14,103,16.4,257.86,10,12,0,0,,,100,100,0,1,0,0,0,2,1,,,,,0,0,0
51.405629,-2.819018,33,33,3.67,85,33,33,5.14,85,15108,43:36.0,43:36.0,21,0,0,11.396,51.405518,-2.819345,2.24,2.91,0,-2,4,-35,0,1,0,45,100,-8442,1740,11396,3092.5,4,NAVI,1,1,0,0,0,0,0,1.5314E+12,3740,3734,3729,0,0,0,13,,,,,,,0,0,0,27,40,-357,-392,0,-310,14,103,16.4,259.22,10,12,0,0,,,100,100,0,1,0,0,0,2,1,,,,,0,0,0
51.40563,-2.819017,33,33,3.54,85,33,33,5.14,85,15170,43:36.1,43:36.1,21,0,0,11.396,51.405518,-2.819345,2.01,2.91,0,-2,4,-36,0,1,0,45,100,-8442,1740,11396,3092.5,4,NAVI,1,1,0,0,0,0,0,1.5314E+12,3740,3734,3729,0,0,0,13,,,,,,,0,0,0,27,42,-360,-392,0,-313,14,103,15.81,260.57,8,12,0,0,,,100,100,0,1,0,0,0,2,1,,,,,0,0,0
51.40563,-2.819015,33,33,3.54,85,33,33,5.14,85,15267,43:36.3,43:36.3,21,0,0,11.396,51.405518,-2.819345,2.01,2.91,0,-2,4,-36,0,1,0,45,100,-8442,1740,11396,3092.5,4,NAVI,1,1,0,0,0,0,0,1.5314E+12,3740,3734,3729,0,0,0,13,,,,,,,0,0,0,27,45,-363,-392,0,-317,14,103,15.81,261.93,8,12,0,0,,,100,100,0,1,0,0,0,2,1,,,,,0,0,0
51.405631,-2.819013,33,33,3.54,86,33,33,5.14,86,15366,43:36.3,43:36.3,21,0,0,11.396,51.405518,-2.819345,2.01,2.91,0,-2,4,-36,0,1,0,45,100,-8442,1740,11396,3092.5,4,NAVI,1,1,0,0,0,0,0,1.5314E+12,3740,3734,3729,0,0,0,13,,,,,,,0,0,0,27,45,-367,-392,0,-322,14,103,15.81,263.29,8,12,0,0,,,100,100,0,1,0,0,0,2,1,,,,,0,0,0
51.405632,-2.819012,33,33,3.54,86,33,33,5.14,86,15464,43:36.4,43:36.4,21,0,0,11.396,51.405518,-2.819345,2.01,2.91,0,-2,4,-37,0,1,0,45,100,-8442,1740,11396,3092.5,4,NAVI,1,1,0,0,0,0,0,1.5314E+12,3740,3734,3729,0,0,0,13,,,,,,,0,0,0,27,45,-372,-392,0,-325,14,103,15.81,264.65,8,12,0,0,,,100,100,0,1,0,0,0,2,1,,,,,0,0,0
51.405632,-2.81901,33,33,3.54,87,33,33,5.14,87,15578,43:36.5,43:36.5,21,0,0,11.396,51.405518,-2.819345,2.01,2.91,0,-3,4,-37,0,1,0,45,100,-8442,1740,11396,3092.5,4,NAVI,1,1,0,0,0,0,0,1.5314E+12,3740,3734,3729,0,0,0,13,,,,,,,0,0,0,30,47,-376,-394,0,-330,14,103,15.81,266.02,8,12,0,0,,,100,100,0,1,0,0,0,2,1,,,,,0,0,0
51.405633,-2.819009,33,33,3.54,87,33,33,5.14,87,15662,43:36.6,43:36.6,21,0,0,11.396,51.405518,-2.819345,2.01,2.91,0,-2,4,-38,0,1,0,45,100,-8442,1740,11396,3092.5,4,NAVI,1,1,0,0,0,0,0,1.5314E+12,3740,3734,3729,0,0,0,13,,,,,,,0,0,0,27,47,-381,-394,0,-334,14,103,15.81,267.39,8,12,0,0,,,100,100,0,1,0,0,0,2,1,,,,,0,0,0
51.405634,-2.819007,33,33,3.54,88,33,33,5.14,88,15766,43:36.7,43:36.7,21,0,0,11.396,51.405518,-2.819345,2.01,2.91,0,-2,4,-38,0,1,0,45,100,-8442,1740,11396,3092.5,4,NAVI,1,1,0,0,0,0,0,1.5314E+12,3740,3734,3729,0,0,0,13,,,,,,,0,0,0,26,47,-385,-394,0,-337,14,103,15.81,268.77,8,12,0,0,,,100,100,0,1,0,0,0,2,1,,,,,0,0,0
51.405635,-2.819005,33,33,3.54,88,33,33,5.14,88,15863,43:36.8,43:36.8,21,0,0,11.22,51.405518,-2.819345,2.01,2.91,0,-2,4,-38,0,1,0,45,100,-8462,1736,11220,3092.5,4,NAVI,1,1,0,0,0,0,0,1.5314E+12,3740,3734,3729,0,0,0,13,,,,,,,0,0,0,23,47,-388,-395,0,-342,14,103,15.81,270.14,8,12,0,0,,,100,100,0,1,0,0,0,2,1,,,,,0,0,0
51.405636,-2.819004,33,33,3.54,89,33,33,5.14,89,15965,43:36.9,43:36.9,21,0,0,11.22,51.405518,-2.819345,2.01,2.91,0,-2,4,-39,0,1,0,45,100,-8462,1736,11220,3092.5,4,NAVI,1,1,0,0,0,0,0,1.5314E+12,3740,3734,3729,0,0,0,13,,,,,,,0,0,0,23,47,-393,-395,0,-345,14,103,15.81,271.52,8,12,0,0,,,100,100,0,1,0,0,0,2,1,,,,,0,0,0
51.405636,-2.819002,33,33,3.54,89,33,33,5.14,89,16069,43:37.0,43:37.0,21,0,0,11.22,51.405518,-2.819345,2.01,2.91,0,-2,4,-39,0,1,0,45,100,-8462,1736,11220,3092.5,4,NAVI,1,1,0,0,0,0,0,1.5314E+12,3740,3734,3729,0,0,0,13,,,,,,,0,0,0,26,45,-397,-395,0,-350,14,103,15.81,272.9,8,12,0,0,,,100,100,0,1,0,0,0,2,1,,,,,0,0,0
51.405637,-2.819001,33,33,3.49,89,33,33,5.14,89,16182,43:37.1,43:37.1,21,0,0,11.22,51.405518,-2.819345,2.24,2.68,0,-2,4,-40,0,1,0,45,100,-8462,1736,11220,3092.5,4,NAVI,1,1,0,0,0,0,0,1.5314E+12,3740,3734,3729,0,0,0,13,,,,,,,0,0,0,22,45,-402,-395,0,-354,14,103,15.62,274.3,10,12,0,0,,,100,100,0,1,0,0,0,2,1,,,,,0,0,0
51.405638,-2.818999,33,33,3.49,90,33,33,5.14,90,16264,43:37.4,43:37.4,21,0,0,11.22,51.405518,-2.819345,2.24,2.68,0,-2,4,-40,0,1,0,45,100,-8462,1736,11220,3092.5,4,NAVI,1,1,0,0,0,0,0,1.5314E+12,3740,3734,3729,0,0,0,13,,,,,,,0,0,0,23,45,-407,-395,0,-357,14,103,15.62,275.7,10,12,0,0,,,100,100,0,1,0,0,0,2,1,,,,,0,0,0
51.405639,-2.818997,33,33,3.49,90,33,33,5.14,90,16367,43:37.4,43:37.4,21,0,0,11.22,51.405518,-2.819345,2.24,2.68,0,-2,4,-41,0,1,0,45,100,-8462,1736,11220,3092.5,4,NAVI,1,1,0,0,0,0,0,1.5314E+12,3740,3734,3729,0,0,0,13,,,,,,,0,0,0,22,45,-410,-395,0,-367,14,103,15.62,277.12,10,12,0,0,,,100,100,0,1,0,0,0,2,1,,,,,0,0,0
51.405639,-2.818996,33,33,3.49,91,33,33,5.14,91,16470,43:37.4,43:37.4,21,0,0,11.22,51.405518,-2.819345,2.24,2.68,0,-2,4,-41,0,1,0,45,100,-8462,1736,11220,3092.5,4,NAVI,1,1,0,0,0,0,0,1.5314E+12,3740,3734,3729,0,0,0,13,,,,,,,0,0,0,21,45,-415,-395,0,-367,14,103,15.62,278.54,10,12,0,0,,,100,100,0,1,0,0,0,2,1,,,,,0,0,0
51.40564,-2.818994,33,33,3.49,91,33,33,5.14,91,16570,43:37.5,43:37.5,21,0,0,11.22,51.405518,-2.819345,2.24,2.68,0,-1,4,-41,0,1,0,45,100,-8462,1736,11220,3092.5,4,NAVI,1,1,0,0,0,0,0,1.5314E+12,3740,3734,3729,0,0,0,13,,,,,,,0,0,0,18,44,-418,-395,0,-370,14,103,15.62,279.98,10,12,0,0,,,100,100,0,1,0,0,0,2,1,,,,,0,0,0
51.405641,-2.818993,33,33,3.49,92,33,33,5.14,92,16672,43:37.6,43:37.6,21,0,0,11.22,51.405518,-2.819345,2.24,2.68,0,-1,4,-42,0,1,0,45,100,-8462,1736,11220,3092.5,4,NAVI,1,1,0,0,0,0,0,1.5314E+12,3740,3734,3729,0,0,0,13,,,,,,,0,0,0,17,42,-423,-395,0,-375,14,103,15.62,281.41,10,12,0,0,,,100,100,0,1,0,0,0,2,1,,,,,0,0,0
51.405642,-2.818991,33,33,3.49,92,33,33,5.14,92,16771,43:37.8,43:37.8,21,0,0,11.308,51.405518,-2.819345,2.24,2.68,0,-1,4,-42,0,1,0,45,100,-8462,1734,11308,3092.5,4,NAVI,1,1,0,0,0,0,0,1.5314E+12,3740,3734,3729,0,0,0,13,,,,,,,0,0,0,13,40,-428,-395,0,-380,14,103,15.62,282.83,10,12,0,0,,,100,100,0,1,0,0,0,2,1,,,,,0,0,0
51.405643,-2.818989,33,33,3.49,93,33,33,5.14,93,16865,43:37.8,43:37.8,21,0,0,11.308,51.405518,-2.819345,2.24,2.68,0,-1,4,-43,0,1,0,45,100,-8462,1734,11308,3092.5,4,NAVI,1,1,0,0,0,0,0,1.5314E+12,3740,3734,3729,0,0,0,13,,,,,,,0,0,0,13,42,-432,-395,0,-384,14,103,15.62,284.25,10,12,0,0,,,100,100,0,1,0,0,0,2,1,,,,,0,0,0
51.405644,-2.818988,33,33,3.49,93,33,33,5.14,93,16972,43:37.9,43:37.9,21,0,0,11.308,51.405518,-2.819345,2.24,2.68,0,0,4,-43,0,1,0,45,100,-8462,1734,11308,3092.5,4,NAVI,1,1,0,0,0,0,0,1.5314E+12,3740,3734,3729,0,0,0,13,,,,,,,0,0,0,9,40,-437,-395,0,-389,14,103,15.62,285.68,10,12,0,0,,,100,100,0,1,0,0,0,2,1,,,,,0,0,0
51.405644,-2.818986,33,33,3.49,94,33,33,5.14,94,17100,43:38.0,43:38.0,21,0,0,11.308,51.405518,-2.819345,2.24,2.68,0,0,4,-44,0,1,0,45,100,-8462,1734,11308,3092.5,4,NAVI,1,1,0,0,0,0,0,1.5314E+12,3740,3734,3729,0,0,0,13,,,,,,,0,0,0,4,40,-442,-395,0,-394,14,103,15.62,287.08,10,12,0,0,,,100,100,0,1,0,0,0,2,1,,,,,0,0,0
51.405645,-2.818985,33,33,3.49,94,33,33,5.14,94,17291,43:38.1,43:38.1,21,0,0,11.308,51.405518,-2.819345,2.24,2.68,0,0,4,-44,0,1,0,45,100,-8462,1734,11308,3092.5,4,NAVI,1,1,0,0,0,0,0,1.5314E+12,3740,3734,3729,0,0,0,13,,,,,,,0,0,0,2,42,-447,-395,0,-397,14,103,15.62,288.48,10,12,0,0,,,100,100,0,1,0,0,0,2,1,,,,,0,0,0
51.405646,-2.818983,33,33,3.49,95,33,33,5.14,95,17296,43:38.2,43:38.2,21,0,0,11.308,51.405518,-2.819345,2.24,2.68,0,0,4,-45,0,1,0,45,100,-8462,1734,11308,3092.5,4,NAVI,1,1,0,0,0,0,0,1.5314E+12,3740,3734,3729,0,0,0,13,,,,,,,0,0,0,2,42,-451,-395,0,-402,14,103,15.62,289.9,10,12,0,0,,,100,100,0,1,0,0,0,2,1,,,,,0,0,0
51.405647,-2.818981,33,33,3.49,95,33,33,5.14,95,17392,43:38.4,43:38.4,21,0,0,11.308,51.405518,-2.819345,2.24,2.68,0,0,4,-45,0,1,0,45,100,-8462,1734,11308,3092.5,4,NAVI,1,1,0,0,0,0,0,1.5314E+12,3740,3734,3729,0,0,0,13,,,,,,,0,0,0,5,40,-456,-395,0,-407,14,103,15.62,291.32,10,12,0,0,,,100,100,0,1,0,0,0,2,1,,,,,0,0,0
51.405648,-2.81898,33,33,3.49,96,33,33,5.14,96,17466,43:38.5,43:38.5,21,0,0,11.308,51.405518,-2.819345,2.24,2.68,0,0,4,-46,0,1,0,45,100,-8462,1734,11308,3092.5,4,NAVI,1,1,0,0,0,0,0,1.5314E+12,3740,3734,3729,0,0,0,13,,,,,,,0,0,0,6,40,-460,-394,0,-417,14,103,15.62,292.75,10,12,0,0,,,100,100,0,1,0,0,0,2,1,,,,,0,0,0
51.405648,-2.818978,33,33,3.49,96,33,33,5.14,96,17566,43:38.5,43:38.5,21,0,0,11.308,51.405518,-2.819345,2.24,2.68,0,0,4,-46,0,1,0,45,100,-8462,1734,11308,3092.5,4,NAVI,1,1,0,0,0,0,0,1.5314E+12,3740,3734,3729,0,0,0,13,,,,,,,0,0,0,6,40,-463,-394,0,-417,14,103,15.62,294.17,10,12,0,0,,,100,100,0,1,0,0,0,2,1,,,,,0,0,0
51.405649,-2.818976,33,33,3.49,96,33,33,5.14,96,17664,43:38.6,43:38.6,21,0,0,11.308,51.405518,-2.819345,2.24,2.68,0,0,4,-46,0,1,0,45,100,-8462,1734,11308,3092.5,4,NAVI,1,1,0,0,0,0,0,1.5314E+12,3740,3734,3729,0,0,0,13,,,,,,,0,0,0,6,42,-468,-392,0,-420,14,103,15.62,295.58,10,12,0,0,,,100,100,0,1,0,0,0,2,1,,,,,0,0,0
51.40565,-2.818975,33,33,3.49,97,33,33,5.14,97,17771,43:38.7,43:38.7,21,0,0,11.308,51.405518,-2.819345,2.24,2.68,0,0,4,-47,0,1,0,45,100,-8462,1734,11308,3092.5,4,NAVI,1,1,0,0,0,0,0,1.5314E+12,3740,3734,3729,0,0,0,13,,,,,,,0,0,0,5,40,-472,-392,0,-425,14,103,15.62,296.98,10,12,0,0,,,100,100,0,1,0,0,0,2,1,,,,,0,0,0
51.405651,-2.818973,33,33,3.49,97,33,33,5.14,97,17867,43:38.8,43:38.8,21,0,0,11.242,51.405518,-2.819345,2.24,2.68,0,0,4,-47,0,1,0,45,100,-8650,1734,11242,3092.5,4,NAVI,1,1,0,0,0,0,0,1.5314E+12,3740,3734,3729,0,0,0,13,,,,,,,0,0,0,2,45,-477,-392,0,-430,14,103,15.62,298.36,10,12,0,0,,,100,100,0,1,0,0,0,2,1,,,,,0,0,0
51.405651,-2.818972,33,33,3.49,98,33,33,5.14,98,17972,43:38.9,43:38.9,21,0,0,11.242,51.405518,-2.819345,2.24,2.68,0,0,4,-48,0,1,0,45,100,-8650,1734,11242,3092.5,4,NAVI,1,1,0,0,0,0,0,1.5314E+12,3740,3734,3729,0,0,0,13,,,,,,,0,0,0,6,44,-482,-392,0,-435,14,103,15.62,299.74,10,12,0,0,,,100,100,0,1,0,0,0,2,1,,,,,0,0,0
51.405652,-2.81897,33,33,3.49,98,33,33,5.14,98,18064,43:39.0,43:39.0,21,0,0,11.242,51.405518,-2.819345,2.24,2.68,0,0,4,-48,0,1,0,45,100,-8650,1734,11242,3092.5,4,NAVI,1,1,0,0,0,0,0,1.5314E+12,3740,3734,3729,0,0,0,13,,,,,,,0,0,0,5,42,-487,-390,0,-440,14,103,15.62,301.13,10,12,0,0,,,100,100,0,1,0,0,0,2,1,,,,,0,0,0
51.405653,-2.818968,33,33,3.49,99,33,33,5.14,99,18187,43:39.1,43:39.1,21,0,0,11.242,51.405518,-2.819345,2.24,2.68,0,0,4,-49,0,1,0,45,100,-8650,1734,11242,3092.5,4,NAVI,1,1,0,0,0,0,0,1.5314E+12,3740,3734,3729,0,0,0,13,,,,,,,0,0,0,5,44,-491,-390,0,-444,14,103,15.62,302.52,10,12,0,0,,,100,100,0,1,0,0,0,2,1,,,,,0,0,0
51.405654,-2.818967,33,33,3.49,99,33,33,5.14,99,18294,43:39.2,43:39.2,21,0,0,11.242,51.405518,-2.819345,2.24,2.68,0,0,4,-49,0,1,0,45,100,-8650,1734,11242,3092.5,4,NAVI,1,1,0,0,0,0,0,1.5314E+12,3740,3734,3729,0,0,0,13,,,,,,,0,0,0,5,45,-496,-390,0,-449,14,103,15.62,303.91,10,12,0,0,,,100,100,0,1,0,0,0,2,1,,,,,0,0,0
51.405654,-2.818965,33,33,3.49,100,33,33,5.14,100,18370,43:39.3,43:39.3,21,0,0,11.242,51.405518,-2.819345,2.24,2.68,0,0,4,-49,0,1,0,45,100,-8650,1734,11242,3092.5,4,NAVI,1,1,0,0,0,0,0,1.5314E+12,3740,3734,3729,0,0,0,13,,,,,,,0,0,0,5,44,-498,-389,0,-452,14,103,15.62,305.32,10,12,0,0,,,100,100,0,1,0,0,0,2,1,,,,,0,0,0
51.405655,-2.818964,33,33,3.49,100,33,33,5.14,100,18474,43:39.6,43:39.6,21,0,0,11.242,51.405518,-2.819345,2.24,2.68,0,0,4,-50,0,1,0,45,100,-8650,1734,11242,3092.5,4,NAVI,1,1,0,0,0,0,0,1.5314E+12,3740,3734,3729,0,0,0,13,,,,,,,0,0,0,4,42,-502,-389,0,-457,14,103,15.62,306.71,10,12,0,0,,,100,100,0,1,0,0,0,2,1,,,,,0,0,0
51.405656,-2.818962,33,33,3.49,101,33,33,5.14,101,18577,43:39.6,43:39.6,21,0,0,11.242,51.405518,-2.819345,2.24,2.68,0,0,4,-50,0,1,0,45,100,-8650,1734,11242,3092.5,4,NAVI,1,1,0,0,0,0,0,1.5314E+12,3740,3734,3729,0,0,0,13,,,,,,,0,0,0,1,42,-507,-387,0,-465,14,103,15.62,308.1,10,12,0,0,,,100,100,0,1,0,0,0,2,1,,,,,0,0,0
51.405657,-2.81896,33,33,3.49,101,33,33,5.14,101,18667,43:39.7,43:39.7,21,0,0,11.242,51.405518,-2.819345,2.24,2.68,0,0,4,-51,0,1,0,45,100,-8650,1734,11242,3092.5,4,NAVI,1,1,0,0,0,0,0,1.5314E+12,3740,3734,3729,0,0,0,13,,,,,,,0,0,0,4,42,-512,-387,0,-465,14,103,15.62,309.5,10,12,0,0,,,100,100,0,1,0,0,0,2,1,,,,,0,0,0
