latitude,longitude,altitude(feet),ascent(feet),speed(mph),distance(feet),max_altitude(feet),max_ascent(feet),max_speed(mph),max_distance(feet),time(millisecond),datetime(utc),datetime(local),satellites,pressure(Pa),temperature(F),voltage(v),home_latitude,home_longitude,velocityX(mph),velocityY(mph),velocityZ(mph),pitch(deg),roll(deg),yaw(deg),powerlevel,isflying,istakingphoto,remainPowerPercent,remainLifePercent,currentCurrent,currentElectricity,currentVoltage,batteryTemperature,dischargeCount,flightmode,isMotorsOn,isTakingVideo,Rc_elevator,Rc_aileron,Rc_throttle,Rc_rudder,Rc_gyro,timestamp,Battery_Cell1,Battery_Cell2,Battery_Cell3,Battery_Cell4,Battery_Cell5,Battery_Cell6,Dronetype,AppVersion,Planename,FlyControllerSerialNumber,RemoteSerialNumber,BatterySerialNumber,CENTER_BATTERY.productDate,CENTER_BATTERY.serialNo,CENTER_BATTERY.fullCapacity,CENTER_BATTERY.productDateRaw,pitchRaw,rollRaw,yawRaw,gimbalPitchRaw,gimbalRollRaw,gimbalYawRaw,flyState,altitudeRaw,speedRaw,distanceRaw,velocityXRaw,velocityYRaw,velocityZRaw,data_reuse,App_Tip,App_Warning,downlinkSignalQuality,uplinkSignalQuality,transmissionChannel,rcModeSwitch,rcHome,rcPause,rcTransform,rcJoystickMode,appMode,FlyControllerSerialNumber_legacy,RemoteSerialNumber_legacy,BatterySerialNumber_legacy,Battery2SerialNumber,frontAvoidDist,backAvoidDist,isBrakingToAvoid
51.405509,-2.819328,2,2,5.37,2,2,2,5.37,2,0,2018-07-12 14:00:00.084,2018-07-12 15:00:00.084,21,0,0.00,11.462000,51.405514,-2.819333,0.00,0.00,-5.37,-1,0,50,0,1,0,62,99,-1252,2338,11462,3147.50,16,P_GPS,1,0,0,0,660,3,0,1531404000077,3863,3859,3854,0,0,0,13,Litchi_4.7-g,markmavic,08RDE3400101DF,08XUE3E0013AD2,093AE2Q03102B9,,0,0,0,18,0,507,-30,0,505,6,8,24.00,6.70,0,0,-24,0,,,100,100,0,1,0,0,0,2,0,,,,,0.0,0.0,0
51.405509,-2.819329,3,3,6.26,0,3,3,6.26,2,57,2018-07-12 14:00:00.134,2018-07-12 15:00:00.135,21,0,0.00,11.462000,51.405509,-2.819328,0.00,0.00,-6.26,-1,0,50,0,1,0,62,99,-1252,2338,11462,3147.50,16,P_GPS,1,0,0,0,660,26,0,1531404000134,3863,3859,3854,0,0,0,13,,,,,,,0,0,0,16,-5,507,-30,0,505,6,12,28.00,0.89,0,0,-27,0,,,100,100,0,1,0,0,0,2,0,,,,,0.0,0.0,0
51.405508,-2.819329,4,4,7.16,0,4,4,7.16,2,159,2018-07-12 14:00:00.236,2018-07-12 15:00:00.236,21,0,0.00,11.462000,51.405509,-2.819328,0.00,0.00,-7.16,-1,-1,50,0,1,0,62,99,-1252,2338,11462,3147.50,16,P_GPS,1,0,0,0,660,9,0,1531404000236,3863,3859,3854,0,0,0,13,,,,,,,0,0,0,11,-10,507,-30,0,505,6,15,32.00,1.11,0,0,-32,0,,,100,100,0,1,0,0,0,2,0,,,,,5.9,0.0,0
51.405508,-2.819329,5,5,7.83,0,5,5,7.83,2,248,2018-07-12 14:00:00.326,2018-07-12 15:00:00.326,21,0,0.00,11.462000,51.405509,-2.819328,0.00,0.00,-7.83,-1,0,50,0,1,0,62,99,-1252,2338,11462,3147.50,16,P_GPS,1,0,0,0,660,9,0,1531404000325,3863,3859,3854,0,0,0,13,,,,,,,0,0,0,10,-6,507,-30,0,505,6,17,35.00,1.30,0,0,-35,0,,,100,100,0,1,0,0,0,2,0,,,,,5.9,0.0,0
51.405508,-2.819329,7,7,8.50,0,7,7,8.50,2,370,2018-07-12 14:00:00.448,2018-07-12 15:00:00.448,21,0,0.00,11.462000,51.405509,-2.819328,0.00,0.00,-8.50,-1,0,50,0,1,0,62,99,-1252,2338,11462,3147.50,16,P_GPS,1,0,0,0,56,0,0,1531404000447,3863,3859,3854,0,0,0,13,,,,,,,0,0,0,13,-5,507,-30,0,505,6,22,38.00,1.47,0,0,-37,0,,,100,100,0,1,0,0,0,2,0,,,,,6.0,0.0,0
51.405508,-2.819329,8,8,8.72,0,8,8,8.72,2,455,2018-07-12 14:00:00.532,2018-07-12 15:00:00.532,21,0,0.00,11.462000,51.405509,-2.819328,0.00,0.00,-8.72,-1,0,50,0,1,0,62,99,-1252,2338,11462,3147.50,16,P_GPS,1,0,29,0,0,0,0,1531404000532,3863,3859,3854,0,0,0,13,,,,,,,0,0,0,16,-9,507,-30,0,505,6,25,39.00,1.63,0,0,-39,0,,,100,100,0,1,0,0,0,2,0,,,,,6.0,0.0,0
51.405508,-2.819330,9,9,8.50,0,9,9,8.72,2,561,2018-07-12 14:00:00.639,2018-07-12 15:00:00.639,21,0,0.00,11.484000,51.405509,-2.819328,0.00,0.00,-8.50,-1,0,50,0,1,0,62,99,-3184,2338,11484,3147.50,16,P_GPS,1,0,251,0,0,0,0,1531404000638,3863,3859,3854,0,0,0,13,,,,,,,0,0,0,15,-6,507,-30,0,505,6,30,38.00,1.85,0,0,-37,0,,,100,100,0,1,0,0,0,2,0,,,,,9.6,0.0,0
51.405508,-2.819330,11,11,8.28,0,11,11,8.72,2,657,2018-07-12 14:00:00.735,2018-07-12 15:00:00.735,21,0,0.00,11.484000,51.405509,-2.819328,0.00,0.00,-8.28,-1,0,50,0,1,0,62,99,-3184,2338,11484,3147.50,16,P_GPS,1,0,660,0,0,0,0,1531404000734,3863,3859,3854,0,0,0,13,,,,,,,0,0,0,18,-5,506,-30,0,505,6,34,37.00,2.03,0,0,-37,0,,,100,100,0,1,0,0,0,2,0,,,,,9.6,0.0,0
51.405508,-2.819330,12,12,7.83,0,12,12,8.72,2,755,2018-07-12 14:00:00.832,2018-07-12 15:00:00.832,21,0,0.00,11.484000,51.405509,-2.819328,0.00,0.00,-7.83,-6,0,50,0,1,0,62,99,-3184,2338,11484,3147.50,16,P_GPS,1,0,660,0,0,0,0,1531404000832,3863,3859,3854,0,0,0,13,,,,,,,0,0,0,60,-1,506,-30,0,505,6,37,35.00,2.17,0,0,-35,0,,,100,100,0,1,0,0,0,2,0,,,,,0.0,0.0,0
51.405508,-2.819330,13,13,7.38,0,13,13,8.72,2,857,2018-07-12 14:00:00.934,2018-07-12 15:00:00.934,21,0,0.00,11.484000,51.405509,-2.819328,0.00,0.00,-7.38,-7,0,50,0,1,0,62,99,-3184,2338,11484,3147.50,16,P_GPS,1,0,660,0,0,0,0,1531404000934,3863,3859,3854,0,0,0,13,,,,,,,0,0,0,79,-1,507,-30,0,505,6,40,33.00,2.25,0,0,-32,0,,,100,100,0,1,0,0,0,2,0,,,,,0.0,0.0,0
51.405508,-2.819330,14,14,6.49,0,14,14,8.72,2,960,2018-07-12 14:00:01.121,2018-07-12 15:00:01.121,21,0,0.00,11.484000,51.405509,-2.819328,0.00,0.22,-6.49,-9,0,50,0,1,0,62,99,-3184,2338,11484,3147.50,16,P_GPS,1,0,660,0,0,0,0,1531404001037,3863,3859,3854,0,0,0,13,,,,,,,0,0,0,99,-1,507,-30,0,505,6,44,29.02,2.22,0,1,-29,0,,,100,100,0,1,0,0,0,2,0,,,,,0.0,0.0,0
51.405508,-2.819330,15,15,5.60,0,15,15,8.72,2,1058,2018-07-12 14:00:01.135,2018-07-12 15:00:01.136,21,0,0.00,11.484000,51.405509,-2.819328,0.22,0.22,-5.59,-11,0,50,0,1,0,62,99,-3184,2338,11484,3147.50,16,P_GPS,1,0,660,0,0,0,0,1531404001135,3863,3859,3854,0,0,0,13,,,,,,,0,0,0,116,-2,507,-30,0,505,6,46,25.04,2.10,1,1,-25,0,,,100,100,0,1,0,0,0,2,0,,,,,0.0,0.0,0
51.405508,-2.819330,16,16,4.74,0,16,16,8.72,2,1160,2018-07-12 14:00:01.237,2018-07-12 15:00:01.237,21,0,0.00,11.484000,51.405509,-2.819328,0.45,0.45,-4.70,-13,0,50,0,1,0,62,99,-3184,2338,11484,3147.50,16,P_GPS,1,0,660,0,0,0,0,1531404001237,3863,3859,3854,0,0,0,13,,,,,,,0,0,0,131,-1,507,-30,0,505,6,49,21.19,1.85,2,2,-20,0,,,100,100,0,1,0,0,0,2,0,,,,,0.0,0.0,0
51.405508,-2.819330,16,16,3.70,0,16,16,8.72,2,1253,2018-07-12 14:00:01.330,2018-07-12 15:00:01.331,21,0,0.00,11.484000,51.405509,-2.819328,0.67,0.67,-3.58,-14,0,50,0,1,0,62,99,-3184,2338,11484,3147.50,16,P_GPS,1,0,660,0,0,0,0,1531404001330,3863,3859,3854,0,0,0,13,,,,,,,0,0,0,146,-1,507,-30,0,505,6,50,16.55,1.49,3,3,-16,0,,,100,100,0,1,0,0,0,2,0,,,,,0.0,0.0,0
51.405509,-2.819329,17,17,2.77,0,17,17,8.72,2,1352,2018-07-12 14:00:01.430,2018-07-12 15:00:01.430,21,0,0.00,11.484000,51.405509,-2.819328,0.89,0.89,-2.46,-16,0,50,0,1,0,62,99,-3184,2338,11484,3147.50,16,P_GPS,1,0,660,0,0,0,0,1531404001429,3863,3859,3854,0,0,0,13,,,,,,,0,0,0,163,-1,507,-30,0,505,6,51,12.37,1.00,4,4,-11,0,,,100,100,0,1,0,0,0,2,0,,,,,0.0,0.0,0
51.405509,-2.819328,17,17,1.96,0,17,17,8.72,2,1460,2018-07-12 14:00:01.537,2018-07-12 15:00:01.538,21,0,0.00,11.484000,51.405509,-2.819328,0.89,1.12,-1.34,-18,0,50,0,1,0,62,99,-3184,2338,11484,3147.50,16,P_GPS,1,0,660,45,0,0,0,1531404001537,3863,3859,3854,0,0,0,13,,,,,,,0,0,0,181,-1,507,-30,0,505,6,53,8.77,0.39,4,5,-6,0,,,100,100,0,1,0,0,0,2,0,,,,,0.0,0.0,0
51.405510,-2.819327,17,17,1.80,0,17,17,8.72,2,1560,2018-07-12 14:00:01.637,2018-07-12 15:00:01.637,21,0,0.00,11.332000,51.405509,-2.819328,1.12,1.34,-0.45,-19,0,50,0,1,0,62,99,-12472,2331,11332,3147.50,16,P_GPS,1,0,660,45,0,0,0,1531404001637,3863,3859,3854,0,0,0,13,,,,,,,0,0,0,198,0,507,-30,0,505,6,53,8.06,0.55,5,6,-2,0,,,100,100,0,1,0,0,0,2,0,,,,,0.0,0.0,0
51.405510,-2.819326,17,17,2.24,0,17,17,8.72,2,1660,2018-07-12 14:00:01.737,2018-07-12 15:00:01.737,21,0,0.00,11.332000,51.405509,-2.819328,1.34,1.79,0.00,-21,0,50,0,1,0,62,99,-12472,2331,11332,3147.50,16,P_GPS,1,0,660,29,0,0,0,1531404001737,3863,3859,3854,0,0,0,13,,,,,,,0,0,0,211,1,506,-30,0,505,6,53,10.00,1.63,6,8,0,0,,,100,100,0,1,0,0,0,2,0,,,,,0.0,0.0,0
51.405511,-2.819324,17,17,2.90,1,17,17,8.72,2,1763,2018-07-12 14:00:01.840,2018-07-12 15:00:01.840,21,0,0.00,11.332000,51.405509,-2.819328,1.79,2.24,0.45,-22,0,50,0,1,0,62,99,-12472,2331,11332,3147.50,16,P_GPS,1,0,660,0,0,0,0,1531404001840,3863,3859,3854,0,0,0,13,,,,,,,0,0,0,223,2,506,-30,0,505,6,53,12.96,3.07,8,10,2,0,,,100,100,0,1,0,0,0,2,0,,,,,0.0,0.0,0
51.405512,-2.819322,17,17,3.73,1,17,17,8.72,2,1860,2018-07-12 14:00:01.938,2018-07-12 15:00:01.938,21,0,0.00,11.332000,51.405509,-2.819328,2.24,2.91,0.67,-22,0,50,0,1,0,62,99,-12472,2331,11332,3147.50,16,P_GPS,1,0,660,0,0,0,0,1531404001937,3863,3859,3854,0,0,0,13,,,,,,,0,0,0,228,-1,503,-30,0,505,6,51,16.67,4.80,10,12,3,0,,,100,100,0,1,0,0,0,2,0,,,,,0.0,0.0,0
51.405513,-2.819320,17,17,4.50,2,17,17,8.72,2,2006,2018-07-12 14:00:02.189,2018-07-12 15:00:02.189,21,0,0.00,11.332000,51.405509,-2.819328,3.13,4.03,0.00,-21,0,50,0,1,0,62,99,-12472,2331,11332,3147.50,16,P_GPS,1,0,660,0,0,0,0,1531404002083,3863,3859,3854,0,0,0,13,,,,,,,0,0,0,211,-4,505,-30,0,505,6,51,20.10,7.06,13,17,0,0,,,100,100,0,1,0,0,0,2,0,,,,,0.0,0.0,0
51.405515,-2.819317,17,17,5.10,3,17,17,8.72,3,2114,2018-07-12 14:00:02.191,2018-07-12 15:00:02.191,21,0,0.00,11.332000,51.405509,-2.819328,3.13,4.03,0.00,-19,0,50,0,1,0,62,99,-12472,2331,11332,3147.50,16,P_GPS,1,0,660,0,0,0,0,1531404002191,3863,3859,3854,0,0,0,13,,,,,,,0,0,0,193,-5,506,-30,0,505,6,51,22.80,9.60,13,17,0,0,,,100,100,0,1,0,0,0,2,0,,,,,0.0,0.0,0
51.405516,-2.819314,17,17,5.73,4,17,17,8.72,4,2162,2018-07-12 14:00:02.239,2018-07-12 15:00:02.240,21,0,0.00,11.332000,51.405509,-2.819328,3.58,4.47,0.00,-17,0,50,0,1,0,62,99,-12472,2331,11332,3147.50,16,P_GPS,1,0,660,0,0,0,0,1531404002239,3863,3859,3854,0,0,0,13,,,,,,,0,0,0,178,-5,507,-30,0,505,6,51,25.61,12.53,16,20,0,0,,,100,100,0,1,0,0,0,2,0,,,,,0.0,0.0,0
51.405518,-2.819310,17,17,6.22,5,17,17,8.72,5,2281,2018-07-12 14:00:02.358,2018-07-12 15:00:02.358,21,0,0.00,11.332000,51.405509,-2.819328,3.80,4.92,0.00,-16,0,50,0,1,0,62,99,-12472,2331,11332,3147.50,16,P_GPS,1,0,660,0,0,0,0,1531404002358,3863,3859,3854,0,0,0,13,,,,,,,0,0,0,168,-2,507,-30,0,505,6,53,27.80,15.64,17,22,0,0,,,100,100,0,1,0,0,0,2,0,,,,,0.0,0.0,0
51.405520,-2.819307,17,17,6.54,6,17,17,8.72,6,2350,2018-07-12 14:00:02.427,2018-07-12 15:00:02.427,21,0,0.00,11.332000,51.405509,-2.819328,4.03,5.14,-0.22,-15,0,50,0,1,0,62,99,-12472,2331,11332,3147.50,16,P_GPS,1,0,660,0,0,0,0,1531404002427,3863,3859,3854,0,0,0,13,,,,,,,0,0,0,156,-2,507,-30,0,505,6,53,29.22,18.93,17,22,-1,0,,,100,100,0,1,0,0,0,2,0,,,,,0.0,0.0,0
51.405522,-2.819303,17,17,7.03,7,17,17,8.72,7,2458,2018-07-12 14:00:02.536,2018-07-12 15:00:02.536,21,0,0.00,11.332000,51.405509,-2.819328,4.25,5.59,-0.22,-15,0,50,0,1,0,62,99,-12472,2331,11332,3147.50,16,P_GPS,1,0,660,0,0,0,0,1531404002535,3863,3859,3854,0,0,0,13,,,,,,,0,0,0,154,-1,507,-30,0,505,6,53,31.42,22.36,18,25,-1,0,,,100,100,0,1,0,0,0,2,0,,,,,0.0,0.0,0
51.405524,-2.819299,17,17,7.35,8,17,17,8.72,8,2561,2018-07-12 14:00:02.639,2018-07-12 15:00:02.639,21,0,0.00,11.506000,51.405509,-2.819328,4.47,5.82,-0.45,-15,0,50,0,1,0,62,99,-5670,2331,11506,3147.50,16,P_GPS,1,0,660,0,0,0,0,1531404002638,3863,3859,3854,0,0,0,13,,,,,,,0,0,0,155,-2,507,-30,0,505,6,54,32.86,25.94,20,25,-2,0,,,100,100,0,1,0,0,0,2,0,,,,,0.0,0.0,0
51.405526,-2.819294,17,17,7.65,9,17,17,8.72,9,2663,2018-07-12 14:00:02.741,2018-07-12 15:00:02.741,21,0,0.00,11.506000,51.405509,-2.819328,4.70,6.04,-0.22,-15,0,50,0,1,0,62,99,-5670,2331,11506,3147.50,16,P_GPS,1,0,660,0,0,0,0,1531404002740,3863,3859,3854,0,0,0,13,,,,,,,0,0,0,154,-4,507,-30,0,505,6,54,34.22,29.67,20,27,-1,0,,,100,100,0,1,0,0,0,2,0,,,,,0.0,0.0,0
51.405528,-2.819290,17,17,7.83,10,17,17,8.72,10,2757,2018-07-12 14:00:02.834,2018-07-12 15:00:02.834,21,0,0.00,11.506000,51.405509,-2.819328,4.70,6.26,-0.22,-15,0,50,0,1,0,62,99,-5670,2331,11506,3147.50,16,P_GPS,1,0,660,0,0,0,0,1531404002834,3863,3859,3854,0,0,0,13,,,,,,,0,0,0,156,0,507,-30,0,505,6,54,35.01,33.41,20,27,-1,0,,,100,100,0,1,0,0,0,2,0,,,,,0.0,0.0,0
51.405530,-2.819286,17,17,8.15,12,17,17,8.72,12,2861,2018-07-12 14:00:02.939,2018-07-12 15:00:02.939,21,0,0.00,11.506000,51.405509,-2.819328,4.92,6.49,-0.22,-15,0,50,0,1,0,62,99,-5670,2331,11506,3147.50,16,P_GPS,1,0,649,0,0,116,0,1531404002938,3863,3859,3854,0,0,0,13,,,,,,,0,0,0,156,-5,507,-30,0,505,6,54,36.41,37.31,22,29,-1,0,,,100,100,0,1,0,0,0,2,0,,,,,0.0,0.0,0
51.405532,-2.819281,17,17,8.46,13,17,17,8.72,13,2972,2018-07-12 14:00:03.049,2018-07-12 15:00:03.049,21,0,0.00,11.506000,51.405509,-2.819328,5.14,6.71,0.00,-15,0,50,0,1,0,62,99,-5670,2331,11506,3147.50,16,P_GPS,1,0,499,0,0,271,0,1531404003049,3863,3859,3854,0,0,0,13,,,,,,,0,0,0,155,-5,507,-30,0,505,6,54,37.80,41.20,22,30,0,0,,,100,100,0,1,0,0,0,2,0,,,,,0.0,0.0,0
51.405534,-2.819277,17,17,8.63,14,17,17,8.72,14,3088,2018-07-12 14:00:03.265,2018-07-12 15:00:03.265,21,0,0.00,11.506000,51.405509,-2.819328,5.37,7.16,0.00,-15,0,50,0,1,0,62,99,-5670,2331,11506,3147.50,16,P_GPS,1,0,0,0,0,564,0,1531404003165,3863,3859,3854,0,0,0,13,,,,,,,0,0,0,151,-5,507,-30,0,507,6,54,38.60,45.28,24,32,0,0,,,100,100,0,1,0,0,0,2,0,,,,,0.0,0.0,0
51.405537,-2.819272,17,17,8.95,16,17,17,8.95,16,3191,2018-07-12 14:00:03.268,2018-07-12 15:00:03.268,21,0,0.00,11.506000,51.405509,-2.819328,5.37,7.16,0.00,-14,-1,51,0,1,0,62,99,-5670,2331,11506,3147.50,16,P_GPS,1,0,0,0,0,564,0,1531404003268,3863,3859,3854,0,0,0,13,,,,,,,0,0,0,149,-11,512,-30,0,542,6,54,40.00,49.41,24,32,0,0,,,100,100,0,1,0,0,0,2,0,,,,,0.0,0.0,0
51.405539,-2.819267,17,17,9.26,17,17,17,9.26,17,3258,2018-07-12 14:00:03.336,2018-07-12 15:00:03.336,21,0,0.00,11.506000,51.405509,-2.819328,5.59,7.38,0.00,-11,-1,53,0,1,0,62,99,-5670,2331,11506,3147.50,16,P_GPS,1,0,0,0,0,654,0,1531404003335,3863,3859,3854,0,0,0,13,,,,,,,0,0,0,119,-13,530,-30,0,542,6,54,41.40,53.75,25,32,0,0,,,100,100,0,1,0,0,0,2,0,,,,,0.0,0.0,0
51.405541,-2.819262,17,17,9.57,19,17,17,9.57,19,3374,2018-07-12 14:00:03.451,2018-07-12 15:00:03.451,21,0,0.00,11.506000,51.405509,-2.819328,5.82,7.61,0.00,6,0,56,0,1,0,62,99,-5670,2331,11506,3147.50,16,P_GPS,1,0,0,0,0,660,0,1531404003451,3863,3859,3854,0,0,0,13,,,,,,,0,0,0,-68,-2,565,-30,0,595,6,54,42.80,58.21,25,34,0,0,,,100,100,0,1,0,0,0,2,0,,,,,0.0,0.0,0
51.405544,-2.819257,17,17,9.09,20,17,17,9.57,20,3469,2018-07-12 14:00:03.546,2018-07-12 15:00:03.546,21,0,0.00,11.506000,51.405509,-2.819328,5.59,7.16,-0.22,15,3,62,0,1,0,62,99,-5670,2331,11506,3147.50,16,P_GPS,1,0,0,0,0,660,0,1531404003546,3863,3859,3854,0,0,0,13,,,,,,,0,0,0,-158,34,627,-30,0,675,6,54,40.62,62.57,25,32,-1,0,,,100,100,0,1,0,0,0,2,0,,,,,0.0,0.0,0
51.405546,-2.819253,18,18,8.14,21,18,18,9.57,21,3563,2018-07-12 14:00:03.640,2018-07-12 15:00:03.640,21,0,0.00,11.506000,51.405509,-2.819328,4.92,6.49,0.00,11,5,71,0,1,0,62,99,-7852,2327,11506,3147.50,16,P_GPS,1,0,0,0,26,660,0,1531404003640,3863,3859,3854,0,0,0,13,,,,,,,0,0,0,-119,52,712,-30,0,765,6,55,36.40,66.36,22,29,0,0,,,100,100,0,1,0,0,0,2,0,,,,,0.0,0.0,0
51.405548,-2.819249,17,17,7.34,22,18,18,9.57,22,3657,2018-07-12 14:00:03.734,2018-07-12 15:00:03.734,21,0,0.00,11.506000,51.405509,-2.819328,4.47,5.82,0.00,11,7,79,0,1,0,62,99,-7852,2327,11506,3147.50,16,P_GPS,1,0,0,0,40,660,0,1531404003734,3863,3859,3854,0,0,0,13,,,,,,,0,0,0,-110,73,799,-30,0,855,6,54,32.80,69.89,20,25,0,0,,,100,100,0,1,0,0,0,2,0,,,,,0.0,0.0,0
51.405549,-2.819245,17,17,6.58,23,18,18,9.57,23,3762,2018-07-12 14:00:03.839,2018-07-12 15:00:03.839,21,0,0.00,11.506000,51.405509,-2.819328,3.80,5.37,0.22,10,10,88,0,1,0,62,99,-7852,2327,11506,3147.50,16,P_GPS,1,0,0,0,43,571,0,1531404003839,3863,3859,3854,0,0,0,13,,,,,,,0,0,0,-109,105,887,-30,0,945,6,54,29.43,72.96,17,24,1,0,,,100,100,0,1,0,0,0,2,0,,,,,0.0,0.0,0
51.405551,-2.819242,17,17,5.77,24,18,18,9.57,24,3862,2018-07-12 14:00:03.940,2018-07-12 15:00:03.940,21,0,0.00,11.506000,51.405509,-2.819328,3.36,4.70,0.00,10,12,97,0,1,0,62,99,-7852,2327,11506,3147.50,16,P_GPS,1,0,0,0,0,16,0,1531404003939,3863,3859,3854,0,0,0,13,,,,,,,0,0,0,-101,121,975,-30,0,1035,6,54,25.81,75.78,15,20,0,0,,,100,100,0,1,0,0,0,2,0,,,,,0.0,0.0,0
51.405552,-2.819239,17,17,5.15,25,18,18,9.57,25,3979,2018-07-12 14:00:04.056,2018-07-12 15:00:04.057,21,0,0.00,11.506000,51.405509,-2.819328,2.91,4.25,0.00,8,14,105,0,1,0,62,99,-7852,2327,11506,3147.50,16,P_GPS,1,0,0,0,0,0,0,1531404004056,3863,3859,3854,0,0,0,13,,,,,,,0,0,0,-81,141,1059,-30,0,1123,6,54,23.02,78.18,12,18,0,0,,,100,100,0,1,0,0,0,2,0,,,,,0.0,0.0,0
51.405553,-2.819236,17,17,4.72,26,18,18,9.57,26,4055,2018-07-12 14:00:04.132,2018-07-12 15:00:04.133,21,0,0.00,11.506000,51.405509,-2.819328,2.46,4.03,0.22,6,15,111,0,1,0,62,99,-7852,2327,11506,3147.50,16,P_GPS,1,0,0,0,0,0,0,1531404004132,3863,3859,3854,0,0,0,13,,,,,,,0,0,0,-67,153,1110,-30,0,1145,6,54,21.12,80.34,11,17,1,0,,,100,100,0,1,0,0,0,2,0,,,,,0.0,0.0,0
51.405554,-2.819234,17,17,4.01,26,18,18,9.57,26,4150,2018-07-12 14:00:04.664,2018-07-12 15:00:04.664,21,0,0.00,11.506000,51.405509,-2.819328,0.45,1.57,0.00,6,15,113,0,1,0,62,99,-7852,2327,11506,3147.50,16,P_GPS,1,0,0,0,0,0,0,1531404004227,3863,3859,3854,0,0,0,13,,,,,,,0,0,0,-68,151,1135,-30,0,1145,6,54,17.92,82.04,2,6,0,0,,,100,100,0,1,0,0,0,2,0,,,,,0.0,0.0,0
51.405555,-2.819229,17,17,1.63,28,18,18,9.57,28,4592,2018-07-12 14:00:04.669,2018-07-12 15:00:04.669,21,0,0.00,11.506000,51.405509,-2.819328,0.45,1.57,0.00,7,5,115,0,1,0,62,99,-7852,2327,11506,3147.50,16,P_GPS,1,0,0,0,0,0,0,1531404004669,3863,3859,3854,0,0,0,13,,,,,,,0,0,0,-73,59,1152,-30,0,1145,6,54,7.28,85.52,2,6,0,0,,,100,100,0,1,0,0,0,2,0,,,,,0.0,0.0,0
51.405555,-2.819229,17,17,1.63,28,18,18,9.57,28,4596,2018-07-12 14:00:04.673,2018-07-12 15:00:04.673,21,0,0.00,11.506000,51.405509,-2.819328,0.45,1.57,0.00,7,5,115,0,1,0,62,99,-7852,2327,11506,3147.50,16,P_GPS,1,0,0,0,0,0,0,1531404004673,3863,3859,3854,0,0,0,13,,,,,,,0,0,0,-73,59,1152,-30,0,1145,6,54,7.28,85.52,2,6,0,0,,,100,100,0,1,0,0,0,2,0,,,,,0.0,0.0,0
51.405555,-2.819229,17,17,1.63,28,18,18,9.57,28,4628,2018-07-12 14:00:04.705,2018-07-12 15:00:04.705,21,0,0.00,11.506000,51.405509,-2.819328,0.45,1.57,0.00,7,5,115,0,1,0,62,99,-7852,2327,11506,3147.50,16,P_GPS,1,0,0,0,0,0,0,1531404004705,3863,3859,3854,0,0,0,13,,,,,,,0,0,0,-73,59,1152,-30,0,1145,6,54,7.28,85.52,2,6,0,0,,,100,100,0,1,0,0,0,2,0,,,,,0.0,0.0,0
51.405555,-2.819229,17,17,1.63,28,18,18,9.57,28,4633,2018-07-12 14:00:04.711,2018-07-12 15:00:04.711,21,0,0.00,11.506000,51.405509,-2.819328,0.45,1.57,0.00,7,5,115,0,1,0,62,99,-7852,2327,11506,3147.50,16,P_GPS,1,0,0,0,0,0,0,1531404004710,3863,3859,3854,0,0,0,13,,,,,,,0,0,0,-73,59,1152,-30,0,1145,6,54,7.28,85.52,2,6,0,0,,,100,100,0,1,0,0,0,2,0,,,,,0.0,0.0,0
51.405555,-2.819228,17,17,1.20,28,18,18,9.57,28,4662,2018-07-12 14:00:04.739,2018-07-12 15:00:04.739,21,0,0.00,11.506000,51.405509,-2.819328,0.45,1.12,0.00,5,4,115,0,1,0,62,99,-7852,2327,11506,3147.50,16,P_GPS,1,0,0,0,0,0,0,1531404004739,3863,3859,3854,0,0,0,13,,,,,,,0,0,0,-55,40,1150,-30,0,1145,6,54,5.39,85.75,2,5,0,0,,,100,100,0,1,0,0,0,2,0,,,,,0.0,0.0,0
51.405555,-2.819228,17,17,0.92,28,18,18,9.57,28,4756,2018-07-12 14:00:04.834,2018-07-12 15:00:04.834,21,0,0.00,11.506000,51.405509,-2.819328,0.22,0.89,0.00,4,2,115,0,1,0,62,99,-7852,2327,11506,3147.50,16,P_GPS,1,0,0,0,0,0,0,1531404004833,3863,3859,3854,0,0,0,13,,,,,,,0,0,0,-42,27,1150,-30,0,1145,6,54,4.12,85.81,1,4,0,0,,,100,100,0,1,0,0,0,2,0,,,,,0.0,0.0,0
51.405555,-2.819228,17,17,0.71,28,18,18,9.57,28,4857,2018-07-12 14:00:04.935,2018-07-12 15:00:04.935,21,0,0.00,11.506000,51.405509,-2.819328,0.22,0.67,0.00,3,1,115,0,1,0,62,99,-7852,2327,11506,3147.50,16,P_GPS,1,0,0,0,0,0,0,1531404004934,3863,3859,3854,0,0,0,13,,,,,,,0,0,0,-32,18,1150,-30,0,1145,6,54,3.16,85.82,1,3,0,0,,,100,100,0,1,0,0,0,2,0,,,,,0.0,0.0,0
51.405554,-2.819228,17,17,0.45,28,18,18,9.57,28,4960,2018-07-12 14:00:05.039,2018-07-12 15:00:05.040,21,0,0.00,11.506000,51.405509,-2.819328,0.00,0.45,0.00,2,1,115,0,1,0,62,99,-7852,2327,11506,3147.50,16,P_GPS,1,0,0,0,0,0,0,1531404005037,3863,3859,3854,0,0,0,13,,,,,,,0,0,0,-27,17,1150,-30,0,1145,6,54,2.00,85.82,0,2,0,0,,,100,100,0,1,0,0,0,2,0,,,,,0.0,0.0,0
51.405554,-2.819228,17,17,0.22,28,18,18,9.57,28,5055,2018-07-12 14:00:05.133,2018-07-12 15:00:05.133,21,0,0.00,11.506000,51.405509,-2.819328,0.00,0.22,0.00,2,1,114,0,1,0,62,99,-7852,2327,11506,3147.50,16,P_GPS,1,0,0,0,0,0,0,1531404005132,3863,3859,3854,0,0,0,13,,,,,,,0,0,0,-21,11,1149,-30,0,1145,6,54,1.00,85.77,0,1,0,0,,,100,100,0,1,0,0,0,2,0,,,,,0.0,0.0,0
51.405554,-2.819228,17,17,0.22,28,18,18,9.57,28,5193,2018-07-12 14:00:05.708,2018-07-12 15:00:05.708,21,0,0.00,11.397000,51.405509,-2.819328,0.00,0.00,0.00,1,0,114,0,1,0,62,99,-8678,2323,11397,3147.50,16,P_GPS,1,0,0,0,660,0,0,1531404005270,3863,3859,3854,0,0,0,13,,,,,,,0,0,0,-17,5,1148,-30,0,1145,6,54,1.00,85.79,0,0,0,0,,,100,100,0,1,0,0,0,2,0,,,,,0.0,0.0,0
51.405554,-2.819228,17,17,0.00,28,18,18,9.57,28,5633,2018-07-12 14:00:05.710,2018-07-12 15:00:05.710,21,0,0.00,11.397000,51.405509,-2.819328,0.00,0.00,0.00,0,0,114,0,1,0,62,99,-8678,2323,11397,3147.50,16,P_GPS,1,0,0,0,660,0,0,1531404005710,3863,3859,3854,0,0,0,13,,,,,,,0,0,0,-2,-2,1145,-30,0,1145,6,54,0.00,85.77,0,0,0,0,,,100,100,0,1,0,0,0,2,0,,,,,0.0,0.0,0
51.405554,-2.819228,17,17,0.00,28,18,18,9.57,28,5640,2018-07-12 14:00:05.717,2018-07-12 15:00:05.717,21,0,0.00,11.397000,51.405509,-2.819328,0.00,0.00,0.00,0,0,114,0,1,0,62,99,-8678,2323,11397,3147.50,16,P_GPS,1,0,0,0,660,0,0,1531404005717,3863,3859,3854,0,0,0,13,,,,,,,0,0,0,-2,-2,1145,-30,0,1145,6,54,0.00,85.77,0,0,0,0,,,100,100,0,1,0,0,0,2,0,,,,,0.0,0.0,0
51.405554,-2.819228,17,17,0.00,28,18,18,9.57,28,5649,2018-07-12 14:00:05.727,2018-07-12 15:00:05.727,21,0,0.00,11.397000,51.405509,-2.819328,0.00,0.00,0.00,0,0,114,0,1,0,62,99,-8678,2323,11397,3147.50,16,P_GPS,1,0,0,0,660,0,0,1531404005726,3863,3859,3854,0,0,0,13,,,,,,,0,0,0,-2,-2,1145,-30,0,1145,6,54,0.00,85.77,0,0,0,0,,,100,100,0,1,0,0,0,2,0,,,,,0.0,0.0,0
51.405554,-2.819228,17,17,0.00,28,18,18,9.57,28,5656,2018-07-12 14:00:05.733,2018-07-12 15:00:05.734,21,0,0.00,11.397000,51.405509,-2.819328,0.00,0.00,0.00,0,0,114,0,1,0,62,99,-8678,2323,11397,3147.50,16,P_GPS,1,0,0,0,660,0,0,1531404005733,3863,3859,3854,0,0,0,13,,,,,,,0,0,0,-2,-2,1145,-30,0,1145,6,54,0.00,85.77,0,0,0,0,,,100,100,0,1,0,0,0,2,0,,,,,0.0,0.0,0
51.405554,-2.819228,17,17,0.22,28,18,18,9.57,28,5662,2018-07-12 14:00:05.739,2018-07-12 15:00:05.739,21,0,0.00,11.397000,51.405509,-2.819328,0.00,0.00,-0.22,0,0,114,0,1,0,62,99,-8678,2323,11397,3147.50,16,P_GPS,1,0,0,0,660,0,0,1531404005739,3863,3859,3854,0,0,0,13,,,,,,,0,0,0,1,0,1145,-30,0,1145,6,54,1.00,85.75,0,0,-1,0,,,100,100,0,1,0,0,0,2,0,,,,,0.0,0.0,0
51.405554,-2.819228,17,17,0.89,28,18,18,9.57,28,5760,2018-07-12 14:00:05.838,2018-07-12 15:00:05.838,21,0,0.00,11.397000,51.405509,-2.819328,0.00,0.00,-0.89,0,0,114,0,1,0,62,99,-8678,2323,11397,3147.50,16,P_GPS,1,0,0,0,660,0,0,1531404005837,3863,3859,3854,0,0,0,13,,,,,,,0,0,0,2,-2,1147,-30,0,1145,6,54,4.00,85.79,0,0,-4,0,,,100,100,0,1,0,0,0,2,0,,,,,0.0,0.0,0
51.405554,-2.819227,18,18,2.01,28,18,18,9.57,28,5869,2018-07-12 14:00:05.946,2018-07-12 15:00:05.946,21,0,0.00,11.397000,51.405509,-2.819328,0.00,0.00,-2.01,0,0,114,0,1,0,62,99,-8678,2323,11397,3147.50,16,P_GPS,1,0,0,0,660,0,0,1531404005946,3863,3859,3854,0,0,0,13,,,,,,,0,0,0,-2,-5,1147,-30,0,1145,6,55,9.00,85.77,0,0,-8,0,,,100,100,0,1,0,0,0,2,0,,,,,0.0,0.0,0
51.405554,-2.819227,18,18,3.13,28,18,18,9.57,28,5962,2018-07-12 14:00:06.039,2018-07-12 15:00:06.039,21,0,0.00,11.397000,51.405509,-2.819328,0.00,0.00,-3.13,0,0,114,0,1,0,62,99,-8678,2323,11397,3147.50,16,P_GPS,1,0,0,0,660,0,0,1531404006039,3863,3859,3854,0,0,0,13,,,,,,,0,0,0,-2,-5,1145,-30,0,1145,6,55,14.00,85.77,0,0,-13,0,,,100,100,0,1,0,0,0,2,0,,,,,0.0,0.0,0
51.405554,-2.819227,19,19,4.47,28,19,19,9.57,28,6050,2018-07-12 14:00:06.128,2018-07-12 15:00:06.128,21,0,0.00,11.397000,51.405509,-2.819328,0.00,0.00,-4.47,0,0,114,0,1,0,62,99,-8678,2323,11397,3147.50,16,P_GPS,1,0,0,0,660,0,0,1531404006127,3863,3859,3854,0,0,0,13,,,,,,,0,0,0,-8,-5,1145,-30,0,1145,6,58,20.00,85.73,0,0,-20,0,,,100,100,0,1,0,0,0,2,0,,,,,0.0,0.0,0
51.405554,-2.819227,20,20,5.59,28,20,20,9.57,28,6153,2018-07-12 14:00:06.230,2018-07-12 15:00:06.230,21,0,0.00,11.397000,51.405509,-2.819328,0.00,0.00,-5.59,0,0,114,0,1,0,62,99,-8678,2323,11397,3147.50,16,P_GPS,1,0,0,0,660,0,0,1531404006230,3863,3859,3854,0,0,0,13,,,,,,,0,0,0,-5,-5,1144,-30,0,1145,6,60,25.00,85.68,0,0,-25,0,,,100,100,0,1,0,0,0,2,0,,,,,0.0,0.0,0
51.405554,-2.819227,20,20,6.93,28,20,20,9.57,28,6280,2018-07-12 14:00:06.448,2018-07-12 15:00:06.448,21,0,0.00,11.397000,51.405509,-2.819328,0.00,0.00,-7.83,0,0,114,0,1,0,62,99,-8678,2323,11397,3147.50,16,P_GPS,1,0,0,0,660,0,0,1531404006357,3863,3859,3854,0,0,0,13,,,,,,,0,0,0,4,-5,1145,-30,0,1145,6,64,31.00,85.59,0,0,-35,0,,,100,100,0,1,0,0,0,2,0,,,,,0.0,0.0,0
51.405553,-2.819227,21,21,7.83,28,21,21,9.57,28,6372,2018-07-12 14:00:06.449,2018-07-12 15:00:06.449,21,0,0.00,11.397000,51.405509,-2.819328,0.00,0.00,-7.83,0,-1,114,0,1,0,62,99,-8678,2323,11397,3147.50,16,P_GPS,1,0,0,0,660,0,0,1531404006449,3863,3859,3854,0,0,0,13,,,,,,,0,0,0,8,-10,1147,-30,0,1145,6,66,35.00,85.47,0,0,-35,0,,,100,100,0,1,0,0,0,2,0,,,,,0.0,0.0,0
51.405553,-2.819228,23,23,8.72,27,23,23,9.57,28,6464,2018-07-12 14:00:06.542,2018-07-12 15:00:06.542,21,0,0.00,11.397000,51.405509,-2.819328,0.00,0.00,-8.72,0,-1,114,0,1,0,62,99,-8678,2323,11397,3147.50,16,P_GPS,1,0,0,0,660,0,0,1531404006541,3863,3859,3854,0,0,0,13,,,,,,,0,0,0,5,-16,1147,-30,0,1145,6,70,39.00,85.34,0,0,-39,0,,,100,100,0,1,0,0,0,2,0,,,,,0.0,0.0,0
51.405553,-2.819228,24,24,9.17,27,24,24,9.57,28,6548,2018-07-12 14:00:06.626,2018-07-12 15:00:06.626,21,0,0.00,11.593000,51.405509,-2.819328,0.00,0.00,-9.17,0,-1,114,0,1,0,62,99,-8678,2323,11593,3148.50,16,P_GPS,1,0,0,0,660,0,0,1531404006625,3863,3859,3854,0,0,0,13,,,,,,,0,0,0,2,-18,1145,-30,0,1145,6,75,41.00,85.18,0,0,-40,0,,,100,100,0,1,0,0,0,2,0,,,,,0.0,0.0,0
51.405553,-2.819228,26,26,9.85,27,26,26,9.85,28,6655,2018-07-12 14:00:06.732,2018-07-12 15:00:06.733,21,0,0.00,11.593000,51.405509,-2.819328,-0.22,0.00,-9.84,0,-2,114,0,1,0,62,99,-8678,2323,11593,3148.50,16,P_GPS,1,0,0,0,660,0,0,1531404006732,3863,3859,3854,0,0,0,13,,,,,,,0,0,0,0,-22,1145,-30,0,1145,6,81,44.01,85.04,-1,0,-44,0,,,100,100,0,1,0,0,0,2,0,,,,,0.0,0.0,0
51.405553,-2.819228,27,27,10.07,27,27,27,10.07,28,6759,2018-07-12 14:00:06.837,2018-07-12 15:00:06.837,21,0,0.00,11.593000,51.405509,-2.819328,-0.22,0.00,-10.07,0,-3,114,0,1,0,62,99,-8678,2323,11593,3148.50,16,P_GPS,1,0,0,0,660,0,0,1531404006836,3863,3859,3854,0,0,0,13,,,,,,,0,0,0,-1,-32,1145,-30,0,1145,6,85,45.01,84.92,-1,0,-45,0,,,100,100,0,1,0,0,0,2,0,,,,,0.0,0.0,0
51.405553,-2.819228,29,29,9.85,27,29,29,10.07,28,6864,2018-07-12 14:00:06.942,2018-07-12 15:00:06.942,21,0,0.00,11.593000,51.405509,-2.819328,-0.22,0.00,-9.84,0,-3,114,0,1,0,62,99,-8678,2323,11593,3148.50,16,P_GPS,1,0,0,0,660,0,0,1531404006941,3863,3859,3854,0,0,0,13,,,,,,,0,0,0,0,-32,1145,-30,0,1145,6,90,44.01,84.83,-1,0,-44,0,,,100,100,0,1,0,0,0,2,0,,,,,0.0,0.0,0
51.405553,-2.819228,30,30,9.84,27,30,30,10.07,28,6961,2018-07-12 14:00:07.038,2018-07-12 15:00:07.038,21,0,0.00,11.593000,51.405509,-2.819328,0.00,0.00,-9.84,0,-2,114,0,1,0,62,99,-8678,2323,11593,3148.50,16,P_GPS,1,0,0,0,660,0,0,1531404007038,3863,3859,3854,0,0,0,13,,,,,,,0,0,0,4,-28,1145,-30,0,1145,6,93,44.00,84.77,0,0,-44,0,,,100,100,0,1,0,0,0,2,0,,,,,0.0,0.0,0
51.405553,-2.819228,32,32,9.62,27,32,32,10.07,28,7064,2018-07-12 14:00:07.141,2018-07-12 15:00:07.142,21,0,0.00,11.593000,51.405509,-2.819328,0.00,0.00,-9.62,0,-2,114,0,1,0,62,99,-8678,2323,11593,3148.50,16,P_GPS,1,0,0,0,660,0,0,1531404007141,3863,3859,3854,0,0,0,13,,,,,,,0,0,0,5,-22,1145,-30,0,1145,6,98,43.00,84.76,0,0,-43,0,,,100,100,0,1,0,0,0,2,0,,,,,0.0,0.0,0
51.405553,-2.819228,33,33,9.40,27,33,33,10.07,28,7158,2018-07-12 14:00:07.235,2018-07-12 15:00:07.236,21,0,0.00,11.593000,51.405509,-2.819328,0.00,0.00,-9.40,0,-1,114,0,1,0,62,99,-8678,2323,11593,3148.50,16,P_GPS,1,0,0,0,660,0,0,1531404007235,3863,3859,3854,0,0,0,13,,,,,,,0,0,0,9,-13,1145,-30,0,1145,6,103,42.00,84.75,0,0,-41,0,,,100,100,0,1,0,0,0,2,0,,,,,0.0,0.0,0
51.405553,-2.819229,35,35,9.40,27,35,35,10.07,28,7251,2018-07-12 14:00:07.328,2018-07-12 15:00:07.328,21,0,0.00,11.593000,51.405509,-2.819328,0.00,0.00,-9.40,-1,-1,114,0,1,0,62,99,-8678,2323,11593,3148.50,16,P_GPS,1,0,0,0,660,0,0,1531404007328,3863,3859,3854,0,0,0,13,,,,,,,0,0,0,13,-10,1145,-30,0,1145,6,106,42.00,84.77,0,0,-41,0,,,100,100,0,1,0,0,0,2,0,,,,,0.0,0.0,0
51.405554,-2.819229,36,36,9.17,27,36,36,10.07,28,7357,2018-07-12 14:00:07.524,2018-07-12 15:00:07.525,21,0,0.00,11.593000,51.405509,-2.819328,0.00,0.00,-9.17,0,-1,114,0,1,0,62,99,-8678,2323,11593,3148.50,16,P_GPS,1,0,0,0,660,0,0,1531404007434,3863,3859,3854,0,0,0,13,,,,,,,0,0,0,8,-13,1145,-30,0,1145,6,111,41.00,84.78,0,0,-40,0,,,100,100,0,1,0,0,0,2,0,,,,,0.0,0.0,0
51.405554,-2.819229,37,37,8.95,27,37,37,10.07,28,7456,2018-07-12 14:00:07.533,2018-07-12 15:00:07.533,21,0,0.00,11.593000,51.405509,-2.819328,0.22,0.00,-8.95,0,-1,114,0,1,0,62,99,-8678,2323,11593,3148.50,16,P_GPS,1,0,0,0,660,0,0,1531404007533,3863,3859,3854,0,0,0,13,,,,,,,0,0,0,2,-10,1145,-30,0,1145,6,115,40.01,84.82,1,0,-40,0,,,100,100,0,1,0,0,0,2,0,,,,,0.0,0.0,0
51.405554,-2.819229,39,39,8.73,27,39,39,10.07,28,7556,2018-07-12 14:00:07.633,2018-07-12 15:00:07.634,21,0,0.00,11.354000,51.405509,-2.819328,0.22,0.00,-8.72,0,0,114,0,1,0,62,99,-9522,2313,11354,3148.50,16,P_GPS,1,0,0,0,660,0,0,1531404007633,3863,3859,3854,0,0,0,13,,,,,,,0,0,0,5,-6,1145,-30,0,1145,6,118,39.01,84.85,1,0,-39,0,,,100,100,0,1,0,0,0,2,0,,,,,0.0,0.0,0
51.405554,-2.819229,40,40,8.73,27,40,40,10.07,28,7656,2018-07-12 14:00:07.733,2018-07-12 15:00:07.733,21,0,0.00,11.354000,51.405509,-2.819328,0.22,0.00,-8.72,0,0,114,0,1,0,62,99,-9522,2313,11354,3148.50,16,P_GPS,1,0,0,0,660,0,0,1531404007733,3863,3859,3854,0,0,0,13,,,,,,,0,0,0,0,-6,1145,-30,0,1145,6,123,39.01,84.90,1,0,-39,0,,,100,100,0,1,0,0,0,2,0,,,,,0.0,0.0,0
51.405554,-2.819229,41,41,8.50,27,41,41,10.07,28,7758,2018-07-12 14:00:07.835,2018-07-12 15:00:07.836,21,0,0.00,11.354000,51.405509,-2.819328,0.22,0.00,-8.50,0,0,114,0,1,0,62,99,-9522,2313,11354,3148.50,16,P_GPS,1,0,0,0,660,0,0,1531404007835,3863,3859,3854,0,0,0,13,,,,,,,0,0,0,5,-1,1145,-30,0,1145,6,126,38.01,84.94,1,0,-37,0,,,100,100,0,1,0,0,0,2,0,,,,,0.0,0.0,0
51.405554,-2.819229,42,42,8.28,27,42,42,10.07,28,7858,2018-07-12 14:00:07.936,2018-07-12 15:00:07.936,21,0,0.00,11.354000,51.405509,-2.819328,0.00,0.00,-8.28,0,0,114,0,1,0,62,99,-9522,2313,11354,3148.50,16,P_GPS,1,0,0,0,660,0,0,1531404007935,3863,3859,3854,0,0,0,13,,,,,,,0,0,0,9,-2,1145,-30,0,1145,6,131,37.00,84.97,0,0,-37,0,,,100,100,0,1,0,0,0,2,0,,,,,0.0,0.0,0
51.405554,-2.819229,43,43,8.05,27,43,43,10.07,28,7957,2018-07-12 14:00:08.035,2018-07-12 15:00:08.035,21,0,0.00,11.354000,51.405509,-2.819328,0.00,0.00,-8.05,-1,0,114,0,1,0,62,99,-9522,2313,11354,3148.50,16,P_GPS,1,0,0,0,660,0,0,1531404008034,3863,3859,3854,0,0,0,13,,,,,,,0,0,0,11,0,1147,-30,0,1145,6,133,36.00,84.95,0,0,-35,0,,,100,100,0,1,0,0,0,2,0,,,,,0.0,0.0,0
51.405554,-2.819229,45,45,8.05,27,45,45,10.07,28,8057,2018-07-12 14:00:08.134,2018-07-12 15:00:08.134,21,0,0.00,11.354000,51.405509,-2.819328,0.00,0.00,-8.05,0,0,114,0,1,0,62,99,-9522,2313,11354,3148.50,16,P_GPS,1,0,0,0,660,0,0,1531404008134,3863,3859,3854,0,0,0,13,,,,,,,0,0,0,5,-2,1147,-30,0,1145,6,138,36.00,84.94,0,0,-35,0,,,100,100,0,1,0,0,0,2,0,,,,,0.0,0.0,0
51.405554,-2.819229,46,46,8.05,27,46,46,10.07,28,8161,2018-07-12 14:00:08.238,2018-07-12 15:00:08.238,21,0,0.00,11.354000,51.405509,-2.819328,0.00,0.00,-8.05,0,-1,114,0,1,0,62,99,-9522,2313,11354,3148.50,16,P_GPS,1,0,0,0,660,0,0,1531404008238,3863,3859,3854,0,0,0,13,,,,,,,0,0,0,2,-10,1145,-30,0,1145,6,141,36.00,84.86,0,0,-35,0,,,100,100,0,1,0,0,0,2,0,,,,,0.0,0.0,0
51.405554,-2.819230,47,47,8.05,27,47,47,10.07,28,8260,2018-07-12 14:00:08.337,2018-07-12 15:00:08.337,21,0,0.00,11.354000,51.405509,-2.819328,0.00,0.00,-8.05,0,-1,114,0,1,0,62,99,-9522,2313,11354,3148.50,16,P_GPS,1,0,0,0,660,0,0,1531404008337,3863,3859,3854,0,0,0,13,,,,,,,0,0,0,4,-13,1145,-30,0,1145,6,145,36.00,84.79,0,0,-35,0,,,100,100,0,1,0,0,0,2,0,,,,,0.0,0.0,0
51.405554,-2.819230,48,48,8.05,27,48,48,10.07,28,8402,2018-07-12 14:00:08.586,2018-07-12 15:00:08.586,21,0,0.00,11.680000,51.405509,-2.819328,0.00,0.00,-8.28,0,-1,114,0,1,0,62,99,-12136,2313,11680,3148.50,16,P_GPS,1,0,0,0,660,0,0,1531404008479,3863,3859,3854,0,0,0,13,,,,,,,0,0,0,8,-16,1145,-30,0,1145,6,148,36.00,84.70,0,0,-37,0,,,100,100,0,1,0,0,0,2,0,,,,,0.0,0.0,0
51.405554,-2.819230,49,49,8.28,27,49,49,10.07,28,8520,2018-07-12 14:00:08.598,2018-07-12 15:00:08.598,21,0,0.00,11.680000,51.405509,-2.819328,0.00,0.00,-8.28,0,-1,114,0,1,0,62,99,-12136,2313,11680,3148.50,16,P_GPS,1,0,0,0,660,0,0,1531404008597,3863,3859,3854,0,0,0,13,,,,,,,0,0,0,8,-17,1145,-30,0,1145,6,151,37.00,84.63,0,0,-37,0,,,100,100,0,1,0,0,0,2,0,,,,,0.0,0.0,0
51.405554,-2.819230,51,51,8.28,27,51,51,10.07,28,8551,2018-07-12 14:00:08.628,2018-07-12 15:00:08.628,21,0,0.00,11.680000,51.405509,-2.819328,0.00,0.00,-8.28,0,-1,114,0,1,0,62,99,-12136,2313,11680,3148.50,16,P_GPS,1,0,0,0,660,0,0,1531404008628,3863,3859,3854,0,0,0,13,,,,,,,0,0,0,8,-16,1145,-30,0,1145,6,156,37.00,84.55,0,0,-37,0,,,100,100,0,1,0,0,0,2,0,,,,,0.0,0.0,0
51.405554,-2.819230,52,52,8.28,27,52,52,10.07,28,8655,2018-07-12 14:00:08.732,2018-07-12 15:00:08.733,21,0,0.00,11.680000,51.405509,-2.819328,0.00,0.00,-8.28,0,-1,114,0,1,0,62,99,-12136,2313,11680,3148.50,16,P_GPS,1,0,0,0,660,0,0,1531404008732,3863,3859,3854,0,0,0,13,,,,,,,0,0,0,9,-15,1145,-30,0,1145,6,158,37.00,84.51,0,0,-37,0,,,100,100,0,1,0,0,0,2,0,,,,,0.0,0.0,0
51.405554,-2.819230,53,53,8.50,27,53,53,10.07,28,8759,2018-07-12 14:00:08.836,2018-07-12 15:00:08.836,21,0,0.00,11.680000,51.405509,-2.819328,0.00,0.00,-8.50,-1,-1,114,0,1,0,62,99,-12136,2313,11680,3148.50,16,P_GPS,1,0,0,0,660,0,0,1531404008836,3863,3859,3854,0,0,0,13,,,,,,,0,0,0,10,-13,1145,-30,0,1145,6,162,38.00,84.49,0,0,-37,0,,,100,100,0,1,0,0,0,2,0,,,,,0.0,0.0,0
51.405554,-2.819230,54,54,8.50,27,54,54,10.07,28,8855,2018-07-12 14:00:08.934,2018-07-12 15:00:08.934,21,0,0.00,11.680000,51.405509,-2.819328,0.00,0.00,-8.50,-1,-1,114,0,1,0,62,99,-12136,2313,11680,3148.50,16,P_GPS,1,0,0,0,660,0,0,1531404008932,3863,3859,3854,0,0,0,13,,,,,,,0,0,0,11,-15,1145,-30,0,1145,6,167,38.00,84.49,0,0,-37,0,,,100,100,0,1,0,0,0,2,0,,,,,0.0,0.0,0
51.405554,-2.819230,56,56,8.50,27,56,56,10.07,28,8963,2018-07-12 14:00:09.040,2018-07-12 15:00:09.040,21,0,0.00,11.680000,51.405509,-2.819328,0.00,0.00,-8.50,-1,-1,114,0,1,0,62,99,-12136,2313,11680,3148.50,16,P_GPS,1,0,0,0,660,0,0,1531404009040,3863,3859,3854,0,0,0,13,,,,,,,0,0,0,10,-16,1145,-30,0,1145,6,171,38.00,84.47,0,0,-37,0,,,100,100,0,1,0,0,0,2,0,,,,,0.0,0.0,0
51.405554,-2.819230,57,57,8.72,27,57,57,10.07,28,9070,2018-07-12 14:00:09.148,2018-07-12 15:00:09.148,21,0,0.00,11.680000,51.405509,-2.819328,0.00,0.00,-8.72,-1,-1,114,0,1,0,62,99,-12136,2313,11680,3148.50,16,P_GPS,1,0,0,0,660,0,0,1531404009147,3863,3859,3854,0,0,0,13,,,,,,,0,0,0,11,-11,1145,-30,0,1145,6,175,39.00,84.46,0,0,-39,0,,,100,100,0,1,0,0,0,2,0,,,,,0.0,0.0,0
51.405554,-2.819230,58,58,8.72,27,58,58,10.07,28,9157,2018-07-12 14:00:09.236,2018-07-12 15:00:09.237,21,0,0.00,11.680000,51.405509,-2.819328,0.00,0.00,-8.72,-1,-1,114,0,1,0,62,99,-12136,2313,11680,3148.50,16,P_GPS,1,0,0,0,657,0,0,1531404009234,3863,3859,3854,0,0,0,13,,,,,,,0,0,0,11,-13,1145,-30,0,1145,6,178,39.00,84.48,0,0,-39,0,,,100,100,0,1,0,0,0,2,0,,,,,0.0,0.0,0
51.405554,-2.819230,60,60,8.72,27,60,60,10.07,28,9259,2018-07-12 14:00:09.338,2018-07-12 15:00:09.338,21,0,0.00,11.680000,51.405509,-2.819328,0.00,0.00,-8.72,0,-1,114,0,1,0,62,99,-12136,2313,11680,3148.50,16,P_GPS,1,0,0,0,623,0,0,1531404009336,3762,3754,3744,0,0,0,13,,,,,,,0,0,0,9,-13,1145,-30,0,1145,6,182,39.00,84.51,0,0,-39,0,,,100,100,0,1,0,0,0,2,0,,,,,0.0,0.0,0
51.405554,-2.819230,61,61,8.50,27,61,61,10.07,28,9357,2018-07-12 14:00:09.434,2018-07-12 15:00:09.434,21,0,0.00,11.680000,51.405509,-2.819328,0.00,0.00,-8.50,0,-1,114,0,1,0,62,99,-12136,2313,11680,3148.50,16,P_GPS,1,0,0,0,515,0,0,1531404009434,3762,3754,3744,0,0,0,13,,,,,,,0,0,0,6,-13,1145,-30,0,1145,6,187,38.00,84.52,0,0,-37,0,,,100,100,0,1,0,0,0,2,0,,,,,0.0,0.0,0
51.405554,-2.819230,62,62,8.28,27,62,62,10.07,28,9462,2018-07-12 14:00:09.622,2018-07-12 15:00:09.623,21,0,0.00,11.680000,51.405509,-2.819328,0.00,0.00,-8.28,0,-1,114,0,1,0,62,99,-11800,2309,11680,3148.50,16,P_GPS,1,0,0,0,472,-240,0,1531404009539,3762,3754,3744,0,0,0,13,,,,,,,0,0,0,5,-17,1144,-30,0,1145,6,190,37.00,84.52,0,0,-37,0,,,100,100,0,1,0,0,0,2,0,,,,,0.0,0.0,0
51.405554,-2.819230,63,63,7.61,27,63,63,10.07,28,9574,2018-07-12 14:00:09.652,2018-07-12 15:00:09.652,21,0,0.00,11.680000,51.405509,-2.819328,0.00,0.00,-7.61,0,-2,114,0,1,0,62,99,-11800,2309,11680,3148.50,16,P_GPS,1,0,0,0,429,-373,0,1531404009651,3762,3754,3744,0,0,0,13,,,,,,,0,0,0,8,-22,1144,-30,0,1143,6,193,34.00,84.52,0,0,-34,0,,,100,100,0,1,0,0,0,2,0,,,,,0.0,0.0,0
51.405554,-2.819230,64,64,6.71,27,64,64,10.07,28,9657,2018-07-12 14:00:09.735,2018-07-12 15:00:09.735,21,0,0.00,11.680000,51.405509,-2.819328,0.00,0.00,-6.71,-1,-2,114,0,1,0,62,99,-11800,2309,11680,3148.50,16,P_GPS,1,0,0,0,397,-537,0,1531404009734,3762,3754,3744,0,0,0,13,,,,,,,0,0,0,10,-22,1140,-30,0,1126,6,197,30.00,84.54,0,0,-30,0,,,100,100,0,1,0,0,0,2,0,,,,,0.0,0.0,0
51.405554,-2.819230,65,65,5.59,27,65,65,10.07,28,9757,2018-07-12 14:00:09.835,2018-07-12 15:00:09.835,21,0,0.00,11.680000,51.405509,-2.819328,0.00,0.00,-5.59,-1,-2,113,0,1,0,62,99,-11800,2309,11680,3148.50,16,P_GPS,1,0,0,0,370,-579,0,1531404009834,3762,3754,3744,0,0,0,13,,,,,,,0,0,0,11,-22,1130,-30,0,1088,6,200,25.00,84.54,0,0,-25,0,,,100,100,0,1,0,0,0,2,0,,,,,0.0,0.0,0
51.405554,-2.819230,66,66,4.47,27,66,66,10.07,28,9857,2018-07-12 14:00:09.934,2018-07-12 15:00:09.934,21,0,0.00,11.680000,51.405509,-2.819328,0.00,0.00,-4.47,-1,-2,109,0,1,0,62,99,-11800,2309,11680,3148.50,16,P_GPS,1,0,0,0,362,-609,0,1531404009934,3762,3754,3744,0,0,0,13,,,,,,,0,0,0,13,-20,1098,-30,0,1024,6,202,20.00,84.55,0,0,-20,0,,,100,100,0,1,0,0,0,2,0,,,,,0.0,0.0,0
51.405554,-2.819230,66,66,3.58,27,66,66,10.07,28,9972,2018-07-12 14:00:10.049,2018-07-12 15:00:10.049,21,0,0.00,11.680000,51.405509,-2.819328,0.00,0.00,-3.58,-1,-1,104,0,1,0,62,99,-11800,2309,11680,3148.50,16,P_GPS,1,0,0,0,362,-212,0,1531404010049,3762,3754,3744,0,0,0,13,,,,,,,0,0,0,13,-18,1048,-30,0,954,6,203,16.00,84.58,0,0,-16,0,,,100,100,0,1,0,0,0,2,0,,,,,0.0,0.0,0
51.405554,-2.819230,67,67,2.68,27,67,67,10.07,28,10069,2018-07-12 14:00:10.147,2018-07-12 15:00:10.147,21,0,0.00,11.680000,51.405509,-2.819328,0.00,0.00,-2.68,-1,-1,98,0,1,0,62,99,-11800,2309,11680,3148.50,16,P_GPS,1,0,0,0,362,-212,0,1531404010146,3762,3754,3744,0,0,0,13,,,,,,,0,0,0,15,-13,987,-30,0,893,6,205,12.00,84.61,0,0,-12,0,,,100,100,0,1,0,0,0,2,0,,,,,0.0,0.0,0
51.405554,-2.819230,67,67,2.24,27,67,67,10.07,28,10155,2018-07-12 14:00:10.232,2018-07-12 15:00:10.232,21,0,0.00,11.680000,51.405509,-2.819328,0.00,0.00,-2.24,-1,-1,93,0,1,0,62,99,-11800,2309,11680,3148.50,16,P_GPS,1,0,0,0,0,0,0,1531404010232,3762,3754,3744,0,0,0,13,,,,,,,0,0,0,18,-11,932,-30,0,889,6,206,10.00,84.57,0,0,-10,0,,,100,100,0,1,0,0,0,2,0,,,,,0.0,0.0,0
51.405554,-2.819230,67,67,1.79,27,67,67,10.07,28,10248,2018-07-12 14:00:10.326,2018-07-12 15:00:10.326,21,0,0.00,11.680000,51.405509,-2.819328,0.00,0.00,-1.79,-2,-1,90,0,1,0,62,99,-11800,2309,11680,3148.50,16,P_GPS,1,0,0,0,0,0,0,1531404010325,3762,3754,3744,0,0,0,13,,,,,,,0,0,0,26,-16,909,-30,0,889,6,207,8.00,84.52,0,0,-8,0,,,100,100,0,1,0,0,0,2,0,,,,,0.0,0.0,0
51.405554,-2.819230,67,67,0.89,27,67,67,10.07,28,10353,2018-07-12 14:00:10.431,2018-07-12 15:00:10.431,20,0,0.00,11.680000,51.405509,-2.819328,0.00,0.00,-0.89,-3,-1,89,0,1,0,62,99,-11800,2309,11680,3148.50,16,P_GPS,1,0,0,0,0,0,0,1531404010430,3762,3754,3744,0,0,0,13,,,,,,,0,0,0,32,-17,897,-30,0,889,6,207,4.00,84.50,0,0,-4,0,,,100,100,0,1,0,0,0,2,0,,,,,0.0,0.0,0
51.405554,-2.819230,67,67,0.22,27,67,67,10.07,28,10454,2018-07-12 14:00:10.531,2018-07-12 15:00:10.532,20,0,0.00,11.680000,51.405509,-2.819328,0.00,0.00,-0.22,-3,-1,89,0,1,0,62,99,-11800,2309,11680,3148.50,16,P_GPS,1,0,0,0,0,0,0,1531404010531,3762,3754,3744,0,0,0,13,,,,,,,0,0,0,31,-11,892,-30,0,889,6,207,1.00,84.50,0,0,-1,0,,,100,100,0,1,0,0,0,2,0,,,,,0.0,0.0,0
51.405554,-2.819230,68,68,0.00,27,68,68,10.07,28,10555,2018-07-12 14:00:10.720,2018-07-12 15:00:10.720,21,0,0.00,11.375000,51.405509,-2.819328,0.00,0.00,0.00,-3,0,89,0,1,0,62,99,-11800,2309,11375,3148.50,16,P_GPS,1,0,0,0,0,0,0,1531404010632,3762,3754,3744,0,0,0,13,,,,,,,0,0,0,31,-6,890,-30,0,889,6,207,0.00,84.49,0,0,0,0,,,100,100,0,1,0,0,0,2,0,,,,,0.0,0.0,0
51.405554,-2.819230,67,67,0.00,27,68,68,10.07,28,10657,2018-07-12 14:00:10.735,2018-07-12 15:00:10.735,21,0,0.00,11.375000,51.405509,-2.819328,0.00,0.00,0.00,-3,0,89,0,1,0,62,99,-11800,2309,11375,3148.50,16,P_GPS,1,0,0,0,0,0,0,1531404010734,3762,3754,3744,0,0,0,13,,,,,,,0,0,0,32,-9,890,-30,0,889,6,207,0.00,84.48,0,0,0,0,,,100,100,0,1,0,0,0,2,0,,,,,0.0,0.0,0
51.405554,-2.819230,67,67,0.00,27,68,68,10.07,28,10758,2018-07-12 14:00:10.835,2018-07-12 15:00:10.835,21,0,0.00,11.375000,51.405509,-2.819328,0.00,0.00,0.00,-3,0,89,0,1,0,62,99,-11800,2309,11375,3148.50,16,P_GPS,1,0,0,0,0,0,0,1531404010835,3762,3754,3744,0,0,0,13,,,,,,,0,0,0,35,-8,890,-30,0,889,6,207,0.00,84.44,0,0,0,0,,,100,100,0,1,0,0,0,2,0,,,,,0.0,0.0,0
51.405554,-2.819230,68,68,0.00,27,68,68,10.07,28,10856,2018-07-12 14:00:10.934,2018-07-12 15:00:10.934,21,0,0.00,11.375000,51.405509,-2.819328,0.00,0.00,0.00,-3,-1,89,0,1,0,62,99,-11800,2309,11375,3148.50,16,P_GPS,1,0,0,0,0,0,0,1531404010933,3762,3754,3744,0,0,0,13,,,,,,,0,0,0,35,-11,890,-30,0,889,6,207,0.00,84.41,0,0,0,0,,,100,100,0,1,0,0,0,2,0,,,,,0.0,0.0,0
51.405554,-2.819230,68,68,0.00,27,68,68,10.07,28,10987,2018-07-12 14:00:11.064,2018-07-12 15:00:11.064,21,0,0.00,11.375000,51.405509,-2.819328,0.00,0.00,0.00,-3,-1,88,0,1,0,62,99,-11800,2309,11375,3148.50,16,P_GPS,1,0,0,0,0,0,0,1531404011064,3762,3754,3744,0,0,0,13,,,,,,,0,0,0,32,-16,889,-30,0,889,6,207,0.00,84.36,0,0,0,0,,,100,100,0,1,0,0,0,2,0,,,,,0.0,0.0,0
51.405554,-2.819230,68,68,0.22,27,68,68,10.07,28,11059,2018-07-12 14:00:11.137,2018-07-12 15:00:11.137,21,0,0.00,11.375000,51.405509,-2.819328,0.00,0.00,-0.22,-3,-2,88,0,1,0,62,99,-11800,2309,11375,3148.50,16,P_GPS,1,0,0,0,0,0,0,1531404011136,3762,3754,3744,0,0,0,13,,,,,,,0,0,0,31,-20,889,-30,0,889,6,207,1.00,84.33,0,0,-1,0,,,100,100,0,1,0,0,0,2,0,,,,,0.0,0.0,0
51.405554,-2.819230,68,68,0.22,27,68,68,10.07,28,11155,2018-07-12 14:00:11.232,2018-07-12 15:00:11.233,21,0,0.00,11.375000,51.405509,-2.819328,0.00,0.00,-0.22,-3,-2,88,0,1,0,62,99,-11800,2309,11375,3148.50,16,P_GPS,1,0,0,0,0,0,0,1531404011232,3762,3754,3744,0,0,0,13,,,,,,,0,0,0,31,-22,889,-30,0,889,6,207,1.00,84.31,0,0,-1,0,,,100,100,0,1,0,0,0,2,0,,,,,0.0,0.0,0
51.405554,-2.819230,68,68,0.22,27,68,68,10.07,28,11258,2018-07-12 14:00:11.336,2018-07-12 15:00:11.336,21,0,0.00,11.375000,51.405509,-2.819328,0.00,0.00,-0.22,-3,-2,88,0,1,0,62,99,-11800,2309,11375,3148.50,16,P_GPS,1,0,0,0,0,0,0,1531404011335,3762,3754,3744,0,0,0,13,,,,,,,0,0,0,31,-25,889,-30,0,889,6,208,1.00,84.31,0,0,-1,0,,,100,100,0,1,0,0,0,2,0,,,,,0.0,0.0,0
51.405554,-2.819230,68,68,0.22,27,68,68,10.07,28,11355,2018-07-12 14:00:11.433,2018-07-12 15:00:11.433,21,0,0.00,11.375000,51.405509,-2.819328,0.00,0.00,-0.22,-3,-2,88,0,1,0,62,99,-11800,2309,11375,3148.50,16,P_GPS,1,0,0,0,0,0,0,1531404011432,3762,3754,3744,0,0,0,13,,,,,,,0,0,0,31,-26,889,-30,0,889,6,208,1.00,84.33,0,0,-1,0,,,100,100,0,1,0,0,0,2,0,,,,,0.0,0.0,0
51.405553,-2.819229,68,68,0.22,27,68,68,10.07,28,11459,2018-07-12 14:00:11.536,2018-07-12 15:00:11.536,21,0,0.00,11.375000,51.405509,-2.819328,0.00,0.00,-0.22,-2,-2,89,0,1,0,62,99,-11800,2309,11375,3148.50,16,P_GPS,1,0,0,0,0,0,0,1531404011536,3762,3754,3744,0,0,0,13,,,,,,,0,0,0,28,-25,890,-30,0,889,6,208,1.00,84.36,0,0,-1,0,,,100,100,0,1,0,0,0,2,0,,,,,0.0,0.0,0
51.405553,-2.819229,68,68,0.00,27,68,68,10.07,28,11582,2018-07-12 14:00:11.746,2018-07-12 15:00:11.746,21,0,0.00,11.397000,51.405509,-2.819328,0.00,0.00,0.00,-3,-2,89,0,1,0,62,99,-7938,2304,11397,3148.50,16,P_GPS,1,0,0,0,0,0,0,1531404011659,3762,3754,3744,0,0,0,13,,,,,,,0,0,0,30,-22,890,-30,0,889,6,208,0.00,84.40,0,0,0,0,,,100,100,0,1,0,0,0,2,0,,,,,0.0,0.0,0
51.405553,-2.819229,68,68,0.00,27,68,68,10.07,28,11671,2018-07-12 14:00:11.748,2018-07-12 15:00:11.748,21,0,0.00,11.397000,51.405509,-2.819328,0.00,0.00,0.00,-2,-2,88,0,1,0,62,99,-7938,2304,11397,3148.50,16,P_GPS,1,0,0,0,0,0,0,1531404011748,3762,3754,3744,0,0,0,13,,,,,,,0,0,0,27,-25,889,-30,0,889,6,208,0.00,84.45,0,0,0,0,,,100,100,0,1,0,0,0,2,0,,,,,0.0,0.0,0
51.405553,-2.819229,68,68,0.00,27,68,68,10.07,28,11754,2018-07-12 14:00:11.832,2018-07-12 15:00:11.832,21,0,0.00,11.397000,51.405509,-2.819328,0.00,0.00,0.00,-2,-2,88,0,1,0,62,99,-7938,2304,11397,3148.50,16,P_GPS,1,0,0,0,0,0,0,1531404011831,3762,3754,3744,0,0,0,13,,,,,,,0,0,0,27,-26,889,-30,0,889,6,208,0.00,84.49,0,0,0,0,,,100,100,0,1,0,0,0,2,0,,,,,0.0,0.0,0
51.405553,-2.819229,68,68,0.00,27,68,68,10.07,28,11859,2018-07-12 14:00:11.936,2018-07-12 15:00:11.937,21,0,0.00,11.397000,51.405509,-2.819328,0.00,0.00,0.00,-2,-2,88,0,1,0,62,99,-7938,2304,11397,3148.50,16,P_GPS,1,0,0,0,0,0,0,1531404011936,3762,3754,3744,0,0,0,13,,,,,,,0,0,0,25,-25,889,-30,0,889,6,208,0.00,84.54,0,0,0,0,,,100,100,0,1,0,0,0,2,0,,,,,0.0,0.0,0
51.405553,-2.819229,68,68,0.00,27,68,68,10.07,28,11962,2018-07-12 14:00:12.039,2018-07-12 15:00:12.039,21,0,0.00,11.397000,51.405509,-2.819328,0.00,0.00,0.00,-2,-2,88,0,1,0,62,99,-7938,2304,11397,3148.50,16,P_GPS,1,0,0,0,0,0,0,1531404012039,3762,3754,3744,0,0,0,13,,,,,,,0,0,0,25,-22,889,-30,0,889,6,208,0.00,84.63,0,0,0,0,,,100,100,0,1,0,0,0,2,0,,,,,0.0,0.0,0
51.405553,-2.819229,68,68,0.00,27,68,68,10.07,28,12057,2018-07-12 14:00:12.135,2018-07-12 15:00:12.135,21,0,0.00,11.397000,51.405509,-2.819328,0.00,0.00,0.00,-2,-2,88,0,1,0,62,99,-7938,2304,11397,3148.50,16,P_GPS,1,0,0,0,0,0,0,1531404012134,3762,3754,3744,0,0,0,13,,,,,,,0,0,0,26,-23,889,-30,0,889,6,208,0.00,84.70,0,0,0,0,,,100,100,0,1,0,0,0,2,0,,,,,0.0,0.0,0
51.405553,-2.819229,68,68,0.00,27,68,68,10.07,28,12170,2018-07-12 14:00:12.248,2018-07-12 15:00:12.248,21,0,0.00,11.397000,51.405509,-2.819328,0.00,0.00,0.00,-2,-2,88,0,1,0,62,99,-7938,2304,11397,3148.50,16,P_GPS,1,0,0,0,0,0,0,1531404012247,3762,3754,3744,0,0,0,13,,,,,,,0,0,0,26,-25,889,-30,0,889,6,208,0.00,84.76,0,0,0,0,,,100,100,0,1,0,0,0,2,0,,,,,0.0,0.0,0
51.405553,-2.819229,68,68,0.00,27,68,68,10.07,28,12262,2018-07-12 14:00:12.339,2018-07-12 15:00:12.340,21,0,0.00,11.397000,51.405509,-2.819328,0.00,0.00,0.00,-2,-2,88,0,1,0,62,99,-7938,2304,11397,3148.50,16,P_GPS,1,0,0,0,0,0,539,1531404012339,3762,3754,3744,0,0,0,13,,,,,,,0,0,0,25,-23,889,-30,0,889,6,208,0.00,84.82,0,0,0,0,,,100,100,0,1,0,0,0,2,0,,,,,0.0,0.0,0
51.405553,-2.819228,68,68,0.00,27,68,68,10.07,28,12358,2018-07-12 14:00:12.435,2018-07-12 15:00:12.435,21,0,0.00,11.397000,51.405509,-2.819328,0.00,0.00,0.00,-2,-2,88,0,1,0,62,99,-7938,2304,11397,3148.50,16,P_GPS,1,0,0,0,0,0,539,1531404012435,3762,3754,3744,0,0,0,13,,,,,,,0,0,0,27,-23,889,-30,0,889,6,208,0.00,84.85,0,0,0,0,,,100,100,0,1,0,0,0,2,0,,,,,0.0,0.0,0
51.405553,-2.819228,68,68,0.00,27,68,68,10.07,28,12458,2018-07-12 14:00:12.535,2018-07-12 15:00:12.535,21,0,0.00,11.397000,51.405509,-2.819328,0.00,0.00,0.00,-2,-2,88,0,1,0,62,99,-7938,2304,11397,3148.50,16,P_GPS,1,0,0,0,0,0,660,1531404012535,3762,3754,3744,0,0,0,13,,,,,,,0,0,0,26,-23,889,-6,0,889,6,208,0.00,84.89,0,0,0,0,,,100,100,0,1,0,0,0,2,0,,,,,0.0,0.0,0
51.405553,-2.819228,68,68,0.00,27,68,68,10.07,28,12557,2018-07-12 14:00:12.635,2018-07-12 15:00:12.635,21,0,0.00,11.267000,51.405509,-2.819328,0.00,0.00,0.00,-2,-2,88,0,1,0,62,99,-8358,2304,11267,3149.50,16,P_GPS,1,0,0,0,0,0,660,1531404012634,3762,3754,3744,0,0,0,13,,,,,,,0,0,0,26,-23,889,0,0,889,6,208,0.00,84.93,0,0,0,0,,,100,100,0,1,0,0,0,2,0,,,,,0.0,0.0,0
51.405553,-2.819228,68,68,0.00,27,68,68,10.07,28,12671,2018-07-12 14:00:12.837,2018-07-12 15:00:12.837,21,0,0.00,11.267000,51.405509,-2.819328,0.00,0.00,0.00,-2,-2,88,0,1,0,62,99,-8358,2304,11267,3149.50,16,P_GPS,1,0,0,0,0,0,660,1531404012748,3762,3754,3744,0,0,0,13,,,,,,,0,0,0,26,-22,889,0,0,889,6,208,0.00,84.99,0,0,0,0,,,100,100,0,1,0,0,0,2,0,,,,,0.0,0.0,0
51.405553,-2.819228,68,68,0.00,27,68,68,10.07,28,12761,2018-07-12 14:00:12.838,2018-07-12 15:00:12.838,21,0,0.00,11.267000,51.405509,-2.819328,0.00,0.00,0.00,-2,-2,89,0,1,0,62,99,-8358,2304,11267,3149.50,16,P_GPS,1,0,0,0,0,0,660,1531404012838,3762,3754,3744,0,0,0,13,,,,,,,0,0,0,25,-21,890,0,0,889,6,208,0.00,85.03,0,0,0,0,,,100,100,0,1,0,0,0,2,0,,,,,0.0,0.0,0
51.405554,-2.819228,68,68,0.00,27,68,68,10.07,28,12850,2018-07-12 14:00:12.927,2018-07-12 15:00:12.928,21,0,0.00,11.267000,51.405509,-2.819328,0.00,0.00,0.00,-2,-1,89,0,1,0,62,99,-8358,2304,11267,3149.50,16,P_GPS,1,0,0,0,0,0,660,1531404012927,3762,3754,3744,0,0,0,13,,,,,,,0,0,0,25,-18,890,0,0,889,6,207,0.00,85.08,0,0,0,0,,,100,100,0,1,0,0,0,2,0,,,,,0.0,0.0,0
51.405554,-2.819228,68,68,0.00,27,68,68,10.07,28,12959,2018-07-12 14:00:13.037,2018-07-12 15:00:13.037,21,0,0.00,11.267000,51.405509,-2.819328,0.00,0.00,0.00,-2,-1,88,0,1,0,62,99,-8358,2304,11267,3149.50,16,P_GPS,1,0,0,0,0,0,0,1531404013036,3762,3754,3744,0,0,0,13,,,,,,,0,0,0,23,-18,889,0,0,889,6,207,0.00,85.13,0,0,0,0,,,100,100,0,1,0,0,0,2,0,,,,,0.0,0.0,0
51.405554,-2.819228,68,68,0.00,27,68,68,10.07,28,13060,2018-07-12 14:00:13.137,2018-07-12 15:00:13.138,21,0,0.00,11.267000,51.405509,-2.819328,0.00,0.00,0.00,-2,-1,88,0,1,0,62,99,-8358,2304,11267,3149.50,16,P_GPS,1,0,0,0,0,0,0,1531404013137,3762,3754,3744,0,0,0,13,,,,,,,0,0,0,22,-18,889,0,0,889,6,207,0.00,85.18,0,0,0,0,,,100,100,0,1,0,0,0,2,0,,,,,0.0,0.0,0
51.405554,-2.819228,68,68,0.00,27,68,68,10.07,28,13158,2018-07-12 14:00:13.235,2018-07-12 15:00:13.235,21,0,0.00,11.267000,51.405509,-2.819328,0.00,0.00,0.00,-2,-1,88,0,1,0,62,99,-8358,2304,11267,3149.50,16,P_GPS,1,0,0,0,0,0,0,1531404013235,3762,3754,3744,0,0,0,13,,,,,,,0,0,0,23,-18,889,0,0,889,6,207,0.00,85.25,0,0,0,0,,,100,100,0,1,0,0,0,2,0,,,,,0.0,0.0,0
51.405554,-2.819228,68,68,0.00,27,68,68,10.07,28,13256,2018-07-12 14:00:13.333,2018-07-12 15:00:13.334,21,0,0.00,11.267000,51.405509,-2.819328,0.00,0.00,0.00,-2,-2,88,0,1,0,62,99,-8358,2304,11267,3149.50,16,P_GPS,1,0,0,0,0,0,-500,1531404013333,3762,3754,3744,0,0,0,13,,,,,,,0,0,0,23,-20,889,0,0,889,6,207,0.00,85.32,0,0,0,0,,,100,100,0,1,0,0,0,2,0,,,,,0.0,0.0,0
51.405554,-2.819228,68,68,0.00,28,68,68,10.07,28,13359,2018-07-12 14:00:13.437,2018-07-12 15:00:13.437,21,0,0.00,11.267000,51.405509,-2.819328,0.00,0.00,0.00,-2,-2,88,0,1,0,62,99,-8358,2304,11267,3149.50,16,P_GPS,1,0,0,0,0,0,-500,1531404013436,3762,3754,3744,0,0,0,13,,,,,,,0,0,0,22,-20,889,0,0,889,6,207,0.00,85.39,0,0,0,0,,,100,100,0,1,0,0,0,2,0,,,,,0.0,0.0,0
51.405554,-2.819228,68,68,0.00,28,68,68,10.07,28,13458,2018-07-12 14:00:13.536,2018-07-12 15:00:13.536,21,0,0.00,11.267000,51.405509,-2.819328,0.00,0.00,0.00,-2,-1,88,0,1,0,62,99,-8358,2304,11267,3149.50,16,P_GPS,1,0,0,0,0,0,-660,1531404013535,3762,3754,3744,0,0,0,13,,,,,,,0,0,0,21,-18,889,-20,0,889,6,207,0.00,85.45,0,0,0,0,,,100,100,0,1,0,0,0,2,0,,,,,0.0,0.0,0
51.405554,-2.819228,68,68,0.00,28,68,68,10.07,28,13565,2018-07-12 14:00:13.643,2018-07-12 15:00:13.643,21,0,0.00,11.267000,51.405509,-2.819328,0.00,0.00,0.00,-2,-1,88,0,1,0,61,99,-8382,2298,11267,3149.50,16,P_GPS,1,0,0,0,0,0,-660,1531404013642,3762,3754,3744,0,0,0,13,,,,,,,0,0,0,23,-18,889,-53,0,889,6,207,0.00,85.48,0,0,0,0,,,100,100,0,1,0,0,0,2,0,,,,,0.0,0.0,0
51.405554,-2.819228,68,68,0.00,28,68,68,10.07,28,13651,2018-07-12 14:00:13.728,2018-07-12 15:00:13.728,21,0,0.00,11.267000,51.405509,-2.819328,0.00,0.00,0.00,-2,-1,88,0,1,0,61,99,-8382,2298,11267,3149.50,16,P_GPS,1,0,0,0,0,0,-660,1531404013728,3762,3754,3744,0,0,0,13,,,,,,,0,0,0,23,-18,889,-103,0,889,6,207,0.00,85.52,0,0,0,0,,,100,100,0,1,0,0,0,2,0,,,,,0.0,0.0,0
51.405554,-2.819228,68,68,0.00,28,68,68,10.07,28,13794,2018-07-12 14:00:13.974,2018-07-12 15:00:13.974,21,0,0.00,11.267000,51.405509,-2.819328,0.00,0.00,0.00,-2,-1,88,0,1,0,61,99,-8382,2298,11267,3149.50,16,P_GPS,1,0,0,0,0,0,-660,1531404013871,3762,3754,3744,0,0,0,13,,,,,,,0,0,0,22,-18,889,-161,0,889,6,207,0.00,85.54,0,0,0,0,,,100,100,0,1,0,0,0,2,0,,,,,0.0,0.0,0
51.405554,-2.819228,68,68,0.00,28,68,68,10.07,28,13900,2018-07-12 14:00:13.977,2018-07-12 15:00:13.977,21,0,0.00,11.267000,51.405509,-2.819328,0.00,0.00,0.00,-2,-1,89,0,1,0,61,99,-8382,2298,11267,3149.50,16,P_GPS,1,0,0,0,0,0,-660,1531404013977,3762,3754,3744,0,0,0,13,,,,,,,0,0,0,22,-15,890,-273,0,889,6,207,0.00,85.57,0,0,0,0,,,100,100,0,1,0,0,0,2,0,,,,,0.0,0.0,0
51.405554,-2.819228,68,68,0.00,28,68,68,10.07,28,14009,2018-07-12 14:00:14.087,2018-07-12 15:00:14.087,21,0,0.00,11.267000,51.405509,-2.819328,0.00,0.00,0.00,-2,-1,89,0,1,0,61,99,-8382,2298,11267,3149.50,16,P_GPS,1,0,0,0,0,0,-660,1531404014086,3762,3754,3744,0,0,0,13,,,,,,,0,0,0,22,-17,890,-273,0,889,6,207,0.00,85.57,0,0,0,0,,,100,100,0,1,0,0,0,2,0,,,,,0.0,0.0,0
51.405554,-2.819228,68,68,0.00,28,68,68,10.07,28,14060,2018-07-12 14:00:14.138,2018-07-12 15:00:14.138,21,0,0.00,11.267000,51.405509,-2.819328,0.00,0.00,0.00,-2,-1,89,0,1,0,61,99,-8382,2298,11267,3149.50,16,P_GPS,1,0,0,0,0,0,0,1531404014137,3762,3754,3744,0,0,0,13,,,,,,,0,0,0,22,-18,890,-330,0,889,6,207,0.00,85.58,0,0,0,0,,,100,100,0,1,0,0,0,2,0,,,,,0.0,0.0,0
51.405554,-2.819228,68,68,0.00,28,68,68,10.07,28,14158,2018-07-12 14:00:14.236,2018-07-12 15:00:14.236,21,0,0.00,11.267000,51.405509,-2.819328,0.00,0.00,0.00,-2,-1,88,0,1,0,61,99,-8382,2298,11267,3149.50,16,P_GPS,1,0,0,0,0,0,0,1531404014235,3762,3754,3744,0,0,0,13,,,,,,,0,0,0,21,-18,889,-385,0,889,6,207,0.00,85.62,0,0,0,0,,,100,100,0,1,0,0,0,2,0,,,,,0.0,0.0,0
51.405554,-2.819228,68,68,0.00,28,68,68,10.07,28,14257,2018-07-12 14:00:14.335,2018-07-12 15:00:14.335,21,0,0.00,11.267000,51.405509,-2.819328,0.00,0.00,0.00,-2,-1,88,0,1,0,61,99,-8382,2298,11267,3149.50,16,P_GPS,1,0,0,0,0,0,0,1531404014334,3762,3754,3744,0,0,0,13,,,,,,,0,0,0,21,-18,889,-414,0,889,6,207,0.00,85.66,0,0,0,0,,,100,100,0,1,0,0,0,2,0,,,,,0.0,0.0,0
51.405554,-2.819228,68,68,0.00,28,68,68,10.07,28,14349,2018-07-12 14:00:14.427,2018-07-12 15:00:14.427,21,0,0.00,11.267000,51.405509,-2.819328,0.00,0.00,0.00,-1,-1,88,0,1,0,61,99,-8382,2298,11267,3149.50,16,P_GPS,1,0,0,0,0,0,0,1531404014426,3762,3754,3744,0,0,0,13,,,,,,,0,0,0,18,-17,889,-415,0,889,6,207,0.00,85.69,0,0,0,0,,,100,100,0,1,0,0,0,2,0,,,,,0.0,0.0,0
51.405554,-2.819228,68,68,0.00,28,68,68,10.07,28,14460,2018-07-12 14:00:14.538,2018-07-12 15:00:14.538,21,0,0.00,11.267000,51.405509,-2.819328,0.00,0.00,0.00,-1,-1,88,0,1,0,61,99,-8382,2298,11267,3149.50,16,P_GPS,1,0,0,0,0,0,0,1531404014537,3762,3754,3744,0,0,0,13,,,,,,,0,0,0,18,-15,889,-415,0,889,6,207,0.00,85.71,0,0,0,0,,,100,100,0,1,0,0,0,2,0,,,,,0.0,0.0,0
51.405554,-2.819228,68,68,0.00,28,68,68,10.07,28,14553,2018-07-12 14:00:14.631,2018-07-12 15:00:14.631,21,0,0.00,11.375000,51.405509,-2.819328,0.00,0.00,0.00,-1,-1,88,0,1,0,61,99,-8382,2298,11375,3149.50,16,P_GPS,1,0,0,0,0,0,0,1531404014630,3762,3754,3744,0,0,0,13,,,,,,,0,0,0,18,-15,889,-415,0,889,6,207,0.00,85.71,0,0,0,0,,,100,100,0,1,0,0,0,2,0,,,,,0.0,0.0,0
51.405554,-2.819228,68,68,0.00,28,68,68,10.07,28,14658,2018-07-12 14:00:14.735,2018-07-12 15:00:14.735,21,0,0.00,11.375000,51.405509,-2.819328,0.00,0.00,0.00,-1,-1,88,0,1,0,61,99,-8382,2298,11375,3149.50,16,P_GPS,1,0,0,0,0,0,0,1531404014735,3762,3754,3744,0,0,0,13,,,,,,,0,0,0,18,-13,889,-415,0,889,6,207,0.00,85.71,0,0,0,0,,,100,100,0,1,0,0,0,2,0,,,,,0.0,0.0,0
51.405554,-2.819228,68,68,0.00,28,68,68,10.07,28,14778,2018-07-12 14:00:14.856,2018-07-12 15:00:14.856,21,0,0.00,11.375000,51.405509,-2.819328,0.00,0.00,0.00,-2,-1,88,0,1,0,61,99,-8382,2298,11375,3149.50,16,P_GPS,1,0,0,0,0,0,0,1531404014855,3762,3754,3744,0,0,0,13,,,,,,,0,0,0,20,-13,889,-415,0,889,6,207,0.00,85.69,0,0,0,0,,,100,100,0,1,0,0,0,2,0,,,,,0.0,0.0,0
51.405554,-2.819228,68,68,0.00,28,68,68,10.07,28,14858,2018-07-12 14:00:15.024,2018-07-12 15:00:15.024,21,0,0.00,11.375000,51.405509,-2.819328,0.00,0.00,0.00,-2,-1,88,0,1,0,61,99,-8382,2298,11375,3149.50,16,P_GPS,1,0,0,0,0,0,239,1531404014935,3762,3754,3744,0,0,0,13,,,,,,,0,0,0,21,-13,889,-415,0,889,6,207,0.00,85.67,0,0,0,0,,,100,100,0,1,0,0,0,2,0,,,,,0.0,0.0,0
51.405554,-2.819228,68,68,0.00,28,68,68,10.07,28,14978,2018-07-12 14:00:15.055,2018-07-12 15:00:15.056,21,0,0.00,11.375000,51.405509,-2.819328,0.00,0.00,0.00,-2,-1,88,0,1,0,61,99,-8382,2298,11375,3149.50,16,P_GPS,1,0,0,0,0,0,239,1531404015055,3762,3754,3744,0,0,0,13,,,,,,,0,0,0,21,-15,889,-414,0,889,6,207,0.00,85.63,0,0,0,0,,,100,100,0,1,0,0,0,2,0,,,,,0.0,0.0,0
51.405554,-2.819228,68,68,0.00,28,68,68,10.07,28,15057,2018-07-12 14:00:15.135,2018-07-12 15:00:15.135,21,0,0.00,11.375000,51.405509,-2.819328,0.00,0.00,0.00,-2,-1,88,0,1,0,61,99,-8382,2298,11375,3149.50,16,P_GPS,1,0,0,0,0,0,660,1531404015134,3762,3754,3744,0,0,0,13,,,,,,,0,0,0,21,-15,889,-407,0,889,6,207,0.00,85.61,0,0,0,0,,,100,100,0,1,0,0,0,2,0,,,,,0.0,0.0,0
51.405554,-2.819228,68,68,0.00,28,68,68,10.07,28,15157,2018-07-12 14:00:15.234,2018-07-12 15:00:15.234,21,0,0.00,11.375000,51.405509,-2.819328,0.00,0.00,0.00,-2,-1,88,0,1,0,61,99,-8382,2298,11375,3149.50,16,P_GPS,1,0,0,0,0,0,660,1531404015234,3762,3754,3744,0,0,0,13,,,,,,,0,0,0,22,-15,889,-400,0,889,6,207,0.00,85.58,0,0,0,0,,,100,100,0,1,0,0,0,2,0,,,,,0.0,0.0,0
51.405554,-2.819228,68,68,0.00,28,68,68,10.07,28,15257,2018-07-12 14:00:15.335,2018-07-12 15:00:15.335,21,0,0.00,11.375000,51.405509,-2.819328,0.00,0.00,0.00,-2,-1,88,0,1,0,61,99,-8382,2298,11375,3149.50,16,P_GPS,1,0,0,0,0,0,660,1531404015334,3762,3754,3744,0,0,0,13,,,,,,,0,0,0,22,-15,889,-369,0,889,6,207,0.00,85.55,0,0,0,0,,,100,100,0,1,0,0,0,2,0,,,,,0.0,0.0,0
51.405554,-2.819228,68,68,0.00,28,68,68,10.07,28,15348,2018-07-12 14:00:15.426,2018-07-12 15:00:15.426,21,0,0.00,11.375000,51.405509,-2.819328,0.00,0.00,0.00,-2,-1,88,0,1,0,61,99,-8382,2298,11375,3149.50,16,P_GPS,1,0,0,0,0,0,660,1531404015425,3762,3754,3744,0,0,0,13,,,,,,,0,0,0,22,-13,889,-312,0,889,6,207,0.00,85.53,0,0,0,0,,,100,100,0,1,0,0,0,2,0,,,,,0.0,0.0,0
51.405554,-2.819228,68,68,0.00,28,68,68,10.07,28,15470,2018-07-12 14:00:15.547,2018-07-12 15:00:15.548,21,0,0.00,11.375000,51.405509,-2.819328,0.00,0.00,0.00,-2,-1,88,0,1,0,61,99,-8382,2298,11375,3149.50,16,P_GPS,1,0,0,0,0,0,660,1531404015547,3762,3754,3744,0,0,0,13,,,,,,,0,0,0,23,-16,889,-257,0,889,6,207,0.00,85.51,0,0,0,0,,,100,100,0,1,0,0,0,2,0,,,,,0.0,0.0,0
51.405554,-2.819228,68,68,0.00,28,68,68,10.07,28,15561,2018-07-12 14:00:15.639,2018-07-12 15:00:15.639,21,0,0.00,11.506000,51.405509,-2.819328,0.00,0.00,0.00,-2,-1,88,0,1,0,61,99,-8392,2294,11506,3149.50,16,P_GPS,1,0,0,0,0,0,660,1531404015638,3762,3754,3744,0,0,0,13,,,,,,,0,0,0,23,-17,889,-200,0,889,6,207,0.00,85.48,0,0,0,0,,,100,100,0,1,0,0,0,2,0,,,,,0.0,0.0,0
51.405554,-2.819228,68,68,0.00,28,68,68,10.07,28,15659,2018-07-12 14:00:15.736,2018-07-12 15:00:15.736,21,0,0.00,11.506000,51.405509,-2.819328,0.00,0.00,0.00,-2,-1,88,0,1,0,61,99,-8392,2294,11506,3149.50,16,P_GPS,1,0,0,0,0,0,660,1531404015736,3762,3754,3744,0,0,0,13,,,,,,,0,0,0,23,-18,889,-143,0,889,6,207,0.00,85.46,0,0,0,0,,,100,100,0,1,0,0,0,2,0,,,,,0.0,0.0,0
51.405554,-2.819228,68,68,0.00,28,68,68,10.07,28,15752,2018-07-12 14:00:15.829,2018-07-12 15:00:15.829,21,0,0.00,11.506000,51.405509,-2.819328,0.00,0.00,0.00,-2,-1,88,0,1,0,61,99,-8392,2294,11506,3149.50,16,P_GPS,1,0,0,0,0,0,660,1531404015829,3762,3754,3744,0,0,0,13,,,,,,,0,0,0,22,-17,889,-86,0,889,6,207,0.00,85.41,0,0,0,0,,,100,100,0,1,0,0,0,2,0,,,,,0.0,0.0,0
51.405554,-2.819229,68,68,0.00,28,68,68,10.07,28,15852,2018-07-12 14:00:15.929,2018-07-12 15:00:15.929,21,0,0.00,11.506000,51.405509,-2.819328,0.00,0.00,0.00,-2,-1,88,0,1,0,61,99,-8392,2294,11506,3149.50,16,P_GPS,1,0,0,0,0,0,660,1531404015929,3762,3754,3744,0,0,0,13,,,,,,,0,0,0,22,-17,889,-30,0,889,6,207,0.00,85.37,0,0,0,0,,,100,100,0,1,0,0,0,2,0,,,,,0.0,0.0,0
51.405554,-2.819229,68,68,0.00,28,68,68,10.07,28,15951,2018-07-12 14:00:16.150,2018-07-12 15:00:16.150,21,0,0.00,11.506000,51.405509,-2.819328,0.00,0.00,0.00,-2,-1,88,0,1,0,61,99,-8392,2294,11506,3149.50,16,P_GPS,1,0,0,0,0,0,660,1531404016028,3762,3754,3744,0,0,0,13,,,,,,,0,0,0,22,-17,889,-1,0,889,6,207,0.00,85.35,0,0,0,0,,,100,100,0,1,0,0,0,2,0,,,,,0.0,0.0,0
