,,altitude(feet),ascent(feet),speed(mph),distance(feet),max_altitude(feet),max_ascent(feet),max_speed(mph),max_distance(feet),time(millisecond),datetime(utc),datetime(local),satellites,pressure(Pa),temperature(F),voltage(v),home_latitude,home_longitude,velocityX(mph),velocityY(mph),velocityZ(mph),pitch(deg),roll(deg),yaw(deg),powerlevel,isflying,istakingphoto,remainPowerPercent,remainLifePercent,currentCurrent,currentElectricity,currentVoltage,batteryTemperature,dischargeCount,flightmode,isMotorsOn,isTakingVideo,Rc_elevator,Rc_aileron,Rc_throttle,Rc_rudder,Rc_gyro,timestamp,Battery_Cell1,Battery_Cell2,Battery_Cell3,Battery_Cell4,Battery_Cell5,Battery_Cell6,Dronetype,AppVersion,Planename,FlyControllerSerialNumber,RemoteSerialNumber,BatterySerialNumber,CENTER_BATTERY.productDate,CENTER_BATTERY.serialNo,CENTER_BATTERY.fullCapacity,CENTER_BATTERY.productDateRaw,pitchRaw,rollRaw,yawRaw,gimbalPitchRaw,gimbalRollRaw,gimbalYawRaw,flyState,altitudeRaw,speedRaw,distanceRaw,velocityXRaw,velocityYRaw,velocityZRaw,data_reuse,App_Tip,App_Warning,downlinkSignalQuality,uplinkSignalQuality,transmissionChannel,rcModeSwitch,rcHome,rcPause,rcTransform,rcJoystickMode,appMode,FlyControllerSerialNumber_legacy,RemoteSerialNumber_legacy,BatterySerialNumber_legacy,Battery2SerialNumber,frontAvoidDist,backAvoidDist,isBrakingToAvoid
51.4055,-2.8192,0,0,0.67,0,0,0,0.67,0,0,35:22.9,35:22.9,9,0,0,12.011,41.779605,-8.528486,0,0,-0.67,0,0,68,0,1,0,75,100,-3023,1690,12011,2980.5,13,TAKE_OFF,1,0,0,0,0,0,0,1.53E+12,4032,4029,4032,0,0,0,22,Litchi_4.6.1-g,rogerio...-Mavic Air,0K1DF133AD0586,0RKCECL0061D5U,0K4AF24A340CD4,,0,0,0,-9,-1,689,0,0,694,11,3,3,1.57,0,0,-3,0,,,97,97,0,1,0,0,0,2,1,,,,,8.9,1.9,0
51.4055,-2.8192,0,0,0.89,0,0,0,0.89,0,86,35:23.0,35:23.0,9,0,0,12.011,41.779605,-8.528486,0,0,-0.89,0,0,68,0,1,0,75,100,-3023,1690,12011,2980.5,13,TAKE_OFF,1,0,0,0,0,0,0,1.53E+12,4032,4029,4032,0,0,0,22,,,,,,,0,0,0,-9,-2,689,0,0,694,11,3,4,2.04,0,0,-4,0,,,97,97,0,1,0,0,0,2,1,,,,,8.9,1.9,0
51.4055,-2.8192,1,1,0.89,0,1,1,0.89,0,168,35:23.0,35:23.0,9,0,0,12.011,41.779605,-8.528486,0,0,-0.89,0,0,68,0,1,0,75,100,-3023,1690,12011,2980.5,13,TAKE_OFF,1,0,0,0,0,0,0,1.53E+12,4032,4029,4032,0,0,0,22,,,,,,,0,0,0,-8,-2,689,0,0,694,11,4,4,2.18,0,0,-4,0,,,94,94,0,1,0,0,0,2,1,,,,,8.9,1.9,0
51.4055,-2.8192,1,1,0.89,0,1,1,0.89,0,312,35:23.2,35:23.2,9,0,0,12.011,41.779605,-8.528486,0,0,-0.89,0,0,68,0,1,0,75,100,-3023,1690,12011,2980.5,13,TAKE_OFF,1,0,0,0,0,0,0,1.53E+12,4032,4029,4032,0,0,0,22,,,,,,,0,0,0,-8,-2,689,0,0,694,11,4,4,2.4,0,0,-4,0,,,94,94,0,1,0,0,0,2,1,,,,,8.9,1.9,0
51.4055,-2.8192,1,1,0.89,0,1,1,0.89,0,385,35:23.3,35:23.3,9,0,0,12.011,41.779605,-8.528486,0,0,-0.89,0,0,68,0,1,0,75,100,-3023,1690,12011,2980.5,13,TAKE_OFF,1,0,0,0,0,0,0,1.53E+12,4032,4029,4032,0,0,0,22,,,,,,,0,0,0,-9,-1,689,0,0,694,11,5,4,2.55,0,0,-4,0,,,94,94,0,1,0,0,0,2,1,,,,,8.9,1.9,0
51.4055,-2.8192,1,1,0.89,0,1,1,0.89,0,493,35:23.4,35:23.4,9,0,0,12.011,41.779605,-8.528486,0,0,-0.89,0,0,68,0,1,0,75,100,-3023,1690,12011,2980.5,13,TAKE_OFF,1,0,0,0,0,0,0,1.53E+12,4032,4029,4032,0,0,0,22,,,,,,,0,0,0,-8,0,687,0,0,693,11,5,4,2.47,0,0,-4,0,,,94,94,0,1,0,0,0,2,1,,,,,8.9,1.9,0
51.4055,-2.8192,1,1,1.12,0,1,1,1.12,0,620,35:23.5,35:23.5,9,0,0,12.011,41.779605,-8.528486,0,0,-1.12,0,0,68,0,1,0,75,100,-3023,1690,12011,2980.5,13,TAKE_OFF,1,0,0,0,0,0,0,1.53E+12,4032,4029,4032,0,0,0,22,,,,,,,0,0,0,-9,-1,687,0,0,693,11,6,5,2.61,0,0,-5,0,,,94,94,0,1,0,0,0,2,1,,,,,8.9,1.9,0
51.4055,-2.8192,1,1,1.12,0,1,1,1.12,0,704,35:23.6,35:23.6,9,0,0,12.011,41.779605,-8.528486,0,0,-1.12,0,0,68,0,1,0,75,100,-3023,1690,12011,2980.5,13,TAKE_OFF,1,0,0,0,0,0,0,1.53E+12,4032,4029,4032,0,0,0,22,,,,,,,0,0,0,-9,0,689,0,0,693,11,6,5,2.29,0,0,-5,0,,,94,94,0,1,0,0,0,2,1,,,,,8.9,1.9,0
51.4055,-2.8192,2,2,0.89,0,2,2,1.12,0,811,35:23.7,35:23.7,9,0,0,12.011,41.779605,-8.528486,0,0,-0.89,1,0,68,0,1,0,75,100,-3023,1690,12011,2980.5,13,TAKE_OFF,1,0,0,0,0,0,0,1.53E+12,4032,4029,4032,0,0,0,22,,,,,,,0,0,0,-11,0,689,0,0,693,11,6,4,2.39,0,0,-4,0,,,94,94,0,1,0,0,0,2,1,,,,,8.9,1.9,0
51.4055,-2.8192,2,2,0.89,0,2,2,1.12,0,916,35:23.8,35:23.8,9,0,0,11.746,41.779605,-8.528486,0,0,-0.89,1,0,68,0,1,0,75,100,-4513,1689,11746,2980.5,13,TAKE_OFF,1,0,0,0,0,0,0,1.53E+12,4032,4029,4032,0,0,0,22,,,,,,,0,0,0,-11,0,689,0,0,693,11,6,4,2.39,0,0,-4,0,,,94,94,0,1,0,0,0,2,1,,,,,8.9,1.9,0
51.4055,-2.8192,2,2,0.89,0,2,2,1.12,0,1022,35:23.9,35:23.9,9,0,0,11.746,41.779605,-8.528486,0,0,-0.89,1,0,68,0,1,0,75,100,-4513,1689,11746,2980.5,13,TAKE_OFF,1,0,0,0,0,0,0,1.53E+12,4032,4029,4032,0,0,0,22,,,,,,,0,0,0,-10,-1,689,0,0,693,11,8,4,2.5,0,0,-4,0,,,94,94,0,1,0,0,0,2,1,,,,,8.9,1.9,0
51.4055,-2.8192,2,2,0.89,0,2,2,1.12,0,1106,35:24.0,35:24.0,9,0,0,11.746,41.779605,-8.528486,0,0,-0.89,0,0,68,0,1,0,75,100,-4513,1689,11746,2980.5,13,TAKE_OFF,1,0,0,0,0,0,0,1.53E+12,4032,4029,4032,0,0,0,22,,,,,,,0,0,0,-9,-4,689,0,0,693,11,8,4,2.65,0,0,-4,0,,,94,94,0,1,0,0,0,2,1,,,,,8.9,1.9,0
51.4055,-2.8192,2,2,0.89,0,2,2,1.12,0,1199,35:24.1,35:24.1,9,0,0,11.746,41.779605,-8.528486,0,0,-0.89,1,0,68,0,1,0,75,100,-4513,1689,11746,2980.5,13,TAKE_OFF,1,0,0,0,0,0,0,1.53E+12,4032,4029,4032,0,0,0,22,,,,,,,0,0,0,-11,-5,689,0,0,693,11,8,4,2.74,0,0,-4,0,,,94,94,0,1,0,0,0,2,1,,,,,8.9,1.9,0
51.4055,-2.8192,2,2,0.89,0,2,2,1.12,0,1323,35:24.2,35:24.2,9,0,0,11.746,41.779605,-8.528486,0,0,-0.89,1,0,68,0,1,0,75,100,-4513,1689,11746,2980.5,13,TAKE_OFF,1,0,0,0,0,0,0,1.53E+12,4032,4029,4032,0,0,0,22,,,,,,,0,0,0,-10,-2,689,0,0,693,11,8,4,2.8,0,0,-4,0,,,100,100,0,1,0,0,0,2,1,,,,,8.9,1.9,0
51.4055,-2.8192,3,3,0.89,0,3,3,1.12,0,1418,35:24.3,35:24.3,9,0,0,11.746,41.779605,-8.528486,0,0,-0.89,0,0,68,0,1,0,75,100,-4513,1689,11746,2980.5,13,TAKE_OFF,1,0,0,0,0,0,0,1.53E+12,4032,4029,4032,0,0,0,22,,,,,,,0,0,0,-8,0,687,0,0,693,11,10,4,2.89,0,0,-4,0,,,100,100,0,1,0,0,0,2,1,,,,,8.9,1.9,0
51.4055,-2.8192,3,3,1.12,0,3,3,1.12,0,1502,35:24.4,35:24.4,9,0,0,11.746,41.779605,-8.528486,0,0,-1.12,0,0,68,0,1,0,75,100,-4513,1689,11746,2980.5,13,TAKE_OFF,1,0,0,0,0,0,0,1.53E+12,4032,4029,4032,0,0,0,22,,,,,,,0,0,0,-5,2,689,0,0,693,11,10,5,2.97,0,0,-5,0,,,100,100,0,1,0,0,0,2,1,,,,,8.9,1.9,0
51.4055,-2.8192,3,3,1.12,1,3,3,1.12,1,1624,35:24.5,35:24.5,9,0,0,11.746,41.779605,-8.528486,0,0,-1.12,0,0,68,0,1,0,75,100,-4513,1689,11746,2980.5,13,TAKE_OFF,1,0,0,0,0,0,0,1.53E+12,4032,4029,4032,0,0,0,22,,,,,,,0,0,0,-5,0,689,0,0,693,11,11,5,3.06,0,0,-5,0,,,100,100,0,1,0,0,0,2,1,,,,,9.1,1.9,0
51.4055,-2.8192,3,3,1.12,1,3,3,1.12,1,1713,35:24.6,35:24.6,9,0,0,11.746,41.779605,-8.528486,0,0,-1.12,0,0,68,0,1,0,75,100,-4513,1689,11746,2980.5,13,P_GPS,1,0,0,0,0,0,0,1.53E+12,4032,4029,4032,0,0,0,22,,,,,,,0,0,0,-4,-1,689,0,0,693,6,11,5,3.07,0,0,-5,0,,,100,100,0,1,0,0,0,2,1,,,,,9.2,1.9,0
51.4055,-2.8192,3,3,0.89,1,3,3,1.12,1,1804,35:24.7,35:24.7,9,0,0,11.746,41.779605,-8.528486,0,0,-0.89,0,0,68,0,1,0,75,100,-4513,1689,11746,2980.5,13,NAVI,1,0,0,0,0,0,0,1.53E+12,4032,4029,4032,0,0,0,22,,,,,,,0,0,0,-2,0,689,0,0,693,14,12,4,3.13,0,0,-4,0,,,100,100,0,1,0,0,0,2,1,,,,,9.2,1.9,0
51.4055,-2.8192,3,3,0.89,0,3,3,1.12,1,1899,35:24.8,35:24.8,9,0,0,11.634,41.779605,-8.528486,0,0,-0.89,0,0,68,0,1,0,75,100,-7254,1688,11634,2980.5,13,NAVI,1,0,0,0,0,0,0,1.53E+12,4032,4029,4032,0,0,0,22,,,,,,,0,0,0,-2,2,689,0,0,693,14,12,4,3.03,0,0,-4,0,,,100,100,0,1,0,0,0,2,1,,,,,9.2,1.9,0
51.4055,-2.8192,3,3,0.89,1,3,3,1.12,1,2024,35:24.9,35:24.9,9,0,0,11.634,41.779605,-8.528486,0,0,-0.89,0,0,68,0,1,0,75,100,-7254,1688,11634,2980.5,13,NAVI,1,0,0,0,0,0,0,1.53E+12,4032,4029,4032,0,0,0,22,,,,,,,0,0,0,-4,2,689,0,0,693,14,12,4,3.05,0,0,-4,0,,,100,100,0,1,0,0,0,2,1,,,,,9.2,1.9,0
51.4055,-2.8192,4,4,0.89,0,4,4,1.12,1,2112,35:25.0,35:25.0,9,0,0,11.634,41.779605,-8.528486,0,0,-0.89,0,0,68,0,1,0,75,100,-7254,1688,11634,2980.5,13,NAVI,1,0,0,0,0,0,0,1.53E+12,4032,4029,4032,0,0,0,22,,,,,,,0,0,0,-5,5,687,0,0,693,14,12,4,2.66,0,0,-4,0,,,100,100,0,1,0,0,0,2,1,,,,,9.2,1.9,0
51.4055,-2.8192,4,4,0.89,0,4,4,1.12,1,2206,35:25.1,35:25.1,9,0,0,11.634,41.779605,-8.528486,0,0,-0.89,0,0,68,0,1,0,75,100,-7254,1688,11634,2980.5,13,NAVI,1,0,0,0,0,0,0,1.53E+12,4032,4029,4032,0,0,0,22,,,,,,,0,0,0,-6,4,689,0,0,693,14,12,4,2.63,0,0,-4,0,,,100,100,0,1,0,0,0,2,1,,,,,9.3,1.9,0
51.4055,-2.8192,4,4,0.89,0,4,4,1.12,1,2278,35:25.1,35:25.1,9,0,0,11.634,41.779605,-8.528486,0,0,-0.89,0,0,68,0,1,0,75,100,-7254,1688,11634,2980.5,13,NAVI,1,0,0,0,0,0,0,1.53E+12,4032,4029,4032,0,0,0,22,,,,,,,0,0,0,-8,4,689,0,0,693,14,13,4,2.84,0,0,-4,0,,,100,100,0,1,0,0,0,2,1,,,,,9.3,1.9,0
51.4055,-2.8192,4,4,0.89,0,4,4,1.12,1,2420,35:25.3,35:25.3,9,0,0,11.634,41.779605,-8.528486,0,0,-0.89,0,0,68,0,1,0,75,100,-7254,1688,11634,2980.5,13,NAVI,1,0,0,0,0,0,0,1.53E+12,4032,4029,4032,0,0,0,22,,,,,,,0,0,0,-9,2,689,0,0,691,14,13,4,2.83,0,0,-4,0,,,100,100,0,1,0,0,0,2,1,,,,,9.4,1.9,0
51.4055,-2.8192,4,4,0.89,0,4,4,1.12,1,2511,35:25.4,35:25.4,9,0,0,11.634,41.779605,-8.528486,0,0,-0.89,0,0,68,0,1,0,75,100,-7254,1688,11634,2980.5,13,NAVI,1,0,0,0,0,0,0,1.53E+12,4032,4029,4032,0,0,0,22,,,,,,,0,0,0,-9,1,689,0,0,691,14,15,4,2.81,0,0,-4,0,,,100,100,0,1,0,0,0,2,1,,,,,9.4,1.9,0
51.4055,-2.8192,4,4,0.89,0,4,4,1.12,1,2593,35:25.5,35:25.5,9,0,0,11.634,41.779605,-8.528486,0,0,-0.89,0,0,68,0,1,0,75,100,-7254,1688,11634,2980.5,13,NAVI,1,0,0,0,0,0,0,1.53E+12,4032,4029,4032,0,0,0,22,,,,,,,0,0,0,-9,1,689,0,0,691,14,15,4,2.79,0,0,-4,0,,,100,100,0,1,0,0,0,2,1,,,,,9.4,1.9,0
51.4055,-2.8192,5,5,1.12,0,5,5,1.12,1,2723,35:25.6,35:25.6,9,0,0,11.634,41.779605,-8.528486,0,0,-1.12,0,0,68,0,1,0,75,100,-7254,1688,11634,2980.5,13,NAVI,1,0,0,0,0,0,0,1.53E+12,4032,4029,4032,0,0,0,22,,,,,,,0,0,0,-9,2,689,0,0,691,14,16,5,2.62,0,0,-5,0,,,100,100,0,1,0,0,0,2,1,,,,,9.6,1.9,0
51.4055,-2.8192,5,5,1.12,0,5,5,1.12,1,2802,35:25.7,35:25.7,9,0,0,11.634,41.779605,-8.528486,0,0,-1.12,1,0,68,0,1,0,75,100,-7254,1688,11634,2980.5,13,NAVI,1,0,0,0,0,0,0,1.53E+12,4032,4029,4032,0,0,0,22,,,,,,,0,0,0,-10,2,689,0,0,691,14,16,5,2.58,0,0,-5,0,,,100,100,0,1,0,0,0,2,1,,,,,9.6,1.9,0
51.4055,-2.8192,5,5,0.89,0,5,5,1.12,1,2903,35:25.8,35:25.8,9,0,0,11.623,41.779605,-8.528486,0,0,-0.89,1,0,68,0,1,0,75,100,-7151,1686,11623,2981.5,13,NAVI,1,0,0,0,0,0,0,1.53E+12,4032,4029,4032,0,0,0,22,,,,,,,0,0,0,-11,5,689,0,0,691,14,17,4,2.31,0,0,-4,0,,,100,100,0,1,0,0,0,2,1,,,,,9.7,1.9,0
51.4055,-2.8192,5,5,0.89,0,5,5,1.12,1,3013,35:25.9,35:25.9,9,0,0,11.623,41.779605,-8.528486,0,0,-0.89,1,0,68,0,1,0,75,100,-7151,1686,11623,2981.5,13,NAVI,1,0,0,0,0,0,0,1.53E+12,4032,4029,4032,0,0,0,22,,,,,,,0,0,0,-11,4,689,0,0,691,14,17,4,2.25,0,0,-4,0,,,100,100,0,1,0,0,0,2,1,,,,,9.7,1.9,0
51.4055,-2.8192,5,5,0.67,0,5,5,1.12,1,3113,35:26.0,35:26.0,9,0,0,11.623,41.779605,-8.528486,0,0,-0.67,1,0,68,0,1,0,75,100,-7151,1686,11623,2981.5,13,NAVI,1,0,0,0,0,0,0,1.53E+12,4032,4029,4032,0,0,0,22,,,,,,,0,0,0,-10,2,689,0,0,691,14,17,3,2.47,0,0,-3,0,,,100,100,0,1,0,0,0,2,1,,,,,9.7,1.9,0
51.4055,-2.8192,5,5,0.67,0,5,5,1.12,1,3204,35:26.1,35:26.1,9,0,0,11.623,41.779605,-8.528486,0,0,-0.67,1,1,68,0,1,0,75,100,-7151,1686,11623,2981.5,13,NAVI,1,0,0,0,0,0,0,1.53E+12,4032,4029,4032,0,0,0,22,,,,,,,0,0,0,-17,13,689,0,0,691,14,17,3,2.44,0,0,-3,0,,,100,100,0,1,0,0,0,2,1,,,,,9.7,1.9,0
51.4055,-2.8192,5,5,0.67,0,5,5,1.12,1,3323,35:26.2,35:26.2,9,0,0,11.623,41.779605,-8.528486,0,0,-0.67,1,1,68,0,1,0,75,100,-7151,1686,11623,2981.5,13,NAVI,1,0,0,0,0,0,0,1.53E+12,4032,4029,4032,0,0,0,22,,,,,,,0,0,0,-16,13,689,0,0,691,14,17,3,2.44,0,0,-3,0,,,100,100,0,1,0,0,0,2,1,,,,,9.7,1.9,0
51.4055,-2.8192,6,6,0.67,0,6,6,1.12,1,3416,35:26.3,35:26.3,9,0,0,11.623,41.779605,-8.528486,0,0,-0.67,1,0,68,0,1,0,75,100,-7151,1686,11623,2981.5,13,NAVI,1,0,0,0,0,0,0,1.53E+12,4032,4029,4032,0,0,0,22,,,,,,,0,0,0,-15,9,689,0,0,691,14,18,3,2.43,0,0,-3,0,,,100,100,0,1,0,0,0,2,1,,,,,9.7,1.9,0
51.4055,-2.8192,6,6,0.67,0,6,6,1.12,1,3506,35:26.4,35:26.4,9,0,0,11.623,41.779605,-8.528486,0,0,-0.67,1,0,68,0,1,0,75,100,-7151,1686,11623,2981.5,13,NAVI,1,0,0,0,0,0,0,1.53E+12,4032,4029,4032,0,0,0,22,,,,,,,0,0,0,-13,5,689,0,0,691,14,18,3,2.61,0,0,-3,0,,,100,100,0,1,0,0,0,2,1,,,,,9.6,1.9,0
51.4055,-2.8192,6,6,0.67,0,6,6,1.12,1,3598,35:26.5,35:26.5,9,0,0,11.623,41.779605,-8.528486,0,0,-0.67,1,0,68,0,1,0,75,100,-7151,1686,11623,2981.5,13,NAVI,1,0,0,0,0,0,0,1.53E+12,4032,4029,4032,0,0,0,22,,,,,,,0,0,0,-11,0,689,0,0,691,14,18,3,2.63,0,0,-3,0,,,100,100,0,1,0,0,0,2,1,,,,,9.6,1.9,0
51.4055,-2.8192,6,6,0.67,0,6,6,1.12,1,3721,35:26.6,35:26.6,9,0,0,11.623,41.779605,-8.528486,0,0,-0.67,1,0,68,0,1,0,75,100,-7151,1686,11623,2981.5,13,NAVI,1,0,0,0,0,0,0,1.53E+12,4032,4029,4032,0,0,0,22,,,,,,,0,0,0,-11,0,689,0,0,691,14,20,3,2.67,0,0,-3,0,,,100,100,0,1,0,0,0,2,1,,,,,9.6,1.9,0
51.4055,-2.8192,6,6,0.45,0,6,6,1.12,1,3812,35:26.7,35:26.7,9,0,0,11.623,41.779605,-8.528486,0,0,-0.45,1,0,68,0,1,0,75,100,-7151,1686,11623,2981.5,13,NAVI,1,0,0,0,0,0,0,1.53E+12,4032,4029,4032,0,0,0,22,,,,,,,0,0,0,-11,-1,687,0,0,691,14,20,2,2.7,0,0,-2,0,,,100,100,0,1,0,0,0,2,1,,,,,9.5,1.9,0
51.4055,-2.8192,6,6,0.45,0,6,6,1.12,1,3905,35:26.8,35:26.8,9,0,0,11.613,41.779605,-8.528486,0,0,-0.45,1,0,68,0,1,0,74,100,-7012,1684,11613,2981.5,13,NAVI,1,0,0,0,0,0,0,1.53E+12,4032,4029,4032,0,0,0,22,,,,,,,0,0,0,-13,-1,689,0,0,691,14,20,2,2.67,0,0,-2,0,,,100,100,0,1,0,0,0,2,1,,,,,9.5,1.9,0
51.4055,-2.8192,6,6,0.45,0,6,6,1.12,1,4038,35:26.9,35:26.9,9,0,0,11.613,41.779605,-8.528486,0,0,-0.45,1,0,68,0,1,0,74,100,-7012,1684,11613,2981.5,13,NAVI,1,0,0,0,0,0,0,1.53E+12,4032,4029,4032,0,0,0,22,,,,,,,0,0,0,-13,-1,689,0,0,691,14,20,2,2.7,0,0,-2,0,,,100,100,0,1,0,0,0,2,1,,,,,9.5,1.9,0
51.4055,-2.8192,6,6,0.45,0,6,6,1.12,1,4104,35:27.0,35:27.0,9,0,0,11.613,41.779605,-8.528486,0,0,-0.45,1,0,68,0,1,0,74,100,-7012,1684,11613,2981.5,13,NAVI,1,0,0,0,0,0,0,1.53E+12,4032,4029,4032,0,0,0,22,,,,,,,0,0,0,-11,0,687,0,0,691,14,20,2,2.82,0,0,-2,0,,,100,100,0,1,0,0,0,2,1,,,,,9.5,1.9,0
51.4055,-2.8192,6,6,0.22,0,6,6,1.12,1,4224,35:27.1,35:27.1,9,0,0,11.613,41.779605,-8.528486,0,0,-0.22,1,0,68,0,1,0,74,100,-7012,1684,11613,2981.5,13,NAVI,1,0,0,0,0,0,0,1.53E+12,4032,4029,4032,0,0,0,22,,,,,,,0,0,0,-10,5,687,0,0,691,14,20,1,2.85,0,0,-1,0,,,100,100,0,1,0,0,0,2,1,,,,,9.5,3.3,0
51.4055,-2.8192,6,6,0.22,0,6,6,1.12,1,4313,35:27.2,35:27.2,9,0,0,11.613,41.779605,-8.528486,0,0,-0.22,1,0,68,0,1,0,74,100,-7012,1684,11613,2981.5,13,NAVI,1,0,0,0,0,0,0,1.53E+12,4032,4029,4032,0,0,0,22,,,,,,,0,0,0,-10,5,687,0,0,691,14,20,1,2.62,0,0,-1,0,,,100,100,0,1,0,0,0,2,1,,,,,9.5,3.3,0
51.4055,-2.8192,6,6,0.22,0,6,6,1.12,1,4407,35:27.3,35:27.3,9,0,0,11.613,41.779605,-8.528486,0,0,-0.22,1,0,68,0,1,0,74,100,-7012,1684,11613,2981.5,13,NAVI,1,0,0,0,0,0,0,1.53E+12,4032,4029,4032,0,0,0,22,,,,,,,0,0,0,-13,4,687,0,0,691,14,20,1,2.62,0,0,-1,0,,,100,100,0,1,0,0,0,2,1,,,,,9.5,4.2,0
51.4055,-2.8192,6,6,0.22,0,6,6,1.12,1,4526,35:27.4,35:27.4,9,0,0,11.613,41.779605,-8.528486,0,0,-0.22,1,0,68,0,1,0,74,100,-7012,1684,11613,2981.5,13,NAVI,1,0,0,0,0,0,0,1.53E+12,4032,4029,4032,0,0,0,22,,,,,,,0,0,0,-15,2,687,0,0,691,14,20,1,2.56,0,0,-1,0,,,100,100,0,1,0,0,0,2,1,,,,,9.5,4.4,0
51.4055,-2.8192,6,6,0,0,6,6,1.12,1,4618,35:27.5,35:27.5,9,0,0,11.613,41.779605,-8.528486,0,0,0,1,0,68,0,1,0,74,100,-7012,1684,11613,2981.5,13,NAVI,1,0,0,0,0,0,0,1.53E+12,4032,4029,4032,0,0,0,22,,,,,,,0,0,0,-17,1,687,0,0,691,14,20,0,2.56,0,0,0,0,,,100,100,0,1,0,0,0,2,1,,,,,9.5,4.4,0
51.4055,-2.8192,6,6,0,0,6,6,1.12,1,4697,35:27.6,35:27.6,9,0,0,11.613,41.779605,-8.528486,0,0,0,1,0,68,0,1,0,74,100,-7012,1684,11613,2981.5,13,NAVI,1,0,0,0,0,0,0,1.53E+12,4032,4029,4032,0,0,0,22,,,,,,,0,0,0,-17,2,687,0,0,691,14,20,0,2.49,0,0,0,0,,,100,100,0,1,0,0,0,2,1,,,,,9.5,4.4,0
51.4055,-2.8192,6,6,0,0,6,6,1.12,1,4798,35:27.7,35:27.7,9,0,0,11.613,41.779605,-8.528486,0,0,0,1,0,68,0,1,0,74,100,-7012,1684,11613,2981.5,13,NAVI,1,0,0,0,0,0,0,1.53E+12,4032,4029,4032,0,0,0,22,,,,,,,0,0,0,-16,2,687,0,0,691,14,20,0,2.49,0,0,0,0,,,100,100,0,1,0,0,0,2,1,,,,,9.5,4.4,0
51.4055,-2.8192,6,6,0,0,6,6,1.12,1,4919,35:27.8,35:27.8,9,0,0,11.6,41.779605,-8.528486,0,0,0,1,0,68,0,1,0,74,100,-6800,1682,11600,2981.5,13,NAVI,1,0,0,0,0,0,0,1.53E+12,4032,4029,4032,0,0,0,22,,,,,,,0,0,0,-13,2,687,0,0,691,14,20,0,2.65,0,0,0,0,,,100,100,0,1,0,0,0,2,1,,,,,9.5,4.4,0
51.4055,-2.8192,6,6,0,0,6,6,1.12,1,5010,35:27.9,35:27.9,9,0,0,11.6,41.779605,-8.528486,0,0,0,1,0,68,0,1,0,74,100,-6800,1682,11600,2981.5,13,NAVI,1,0,0,0,0,0,0,1.53E+12,4032,4029,4032,0,0,0,22,,,,,,,0,0,0,-11,1,687,0,0,691,14,20,0,2.68,0,0,0,0,,,100,100,0,1,0,0,0,2,1,,,,,9.5,4.4,0
51.4055,-2.8192,7,7,0,0,7,7,1.12,1,5124,35:28.0,35:28.0,9,0,0,11.6,41.779605,-8.528486,0,0,0,1,0,68,0,1,0,74,100,-6800,1682,11600,2981.5,13,NAVI,1,0,0,0,0,0,0,1.53E+12,4032,4029,4032,0,0,0,22,,,,,,,0,0,0,-11,0,687,0,0,691,14,22,0,2.66,0,0,0,0,,,100,100,0,1,0,0,0,2,1,,,,,9.5,4.4,0
51.4055,-2.8192,7,7,0,0,7,7,1.12,1,5212,35:28.1,35:28.1,9,0,0,11.6,41.779605,-8.528486,0,0,0,1,0,68,0,1,0,74,100,-6800,1682,11600,2981.5,13,NAVI,1,0,0,0,0,0,0,1.53E+12,3878,3863,3873,0,0,0,22,,,,,,,0,0,0,-13,1,687,0,0,690,14,22,0,2.68,0,0,0,0,,,100,100,0,1,0,0,0,2,1,,,,,9.5,4.4,0
51.4055,-2.8192,7,7,0,0,7,7,1.12,1,5303,35:28.2,35:28.2,9,0,0,11.6,41.779605,-8.528486,0,0,0,1,0,68,0,1,0,74,100,-6800,1682,11600,2981.5,13,NAVI,1,0,0,0,0,0,0,1.53E+12,3878,3863,3873,0,0,0,22,,,,,,,0,0,0,-13,1,689,0,0,690,14,22,0,2.56,0,0,0,0,,,100,100,0,1,0,0,0,2,1,,,,,9.5,4.4,0
51.4055,-2.8192,7,7,0,0,7,7,1.12,1,5424,35:28.3,35:28.3,9,0,0,11.6,41.779605,-8.528486,0,0,0,1,0,68,0,1,0,74,100,-6800,1682,11600,2981.5,13,NAVI,1,0,0,0,0,0,0,1.53E+12,3878,3863,3873,0,0,0,22,,,,,,,0,0,0,-16,0,689,0,0,690,14,22,0,2.57,0,0,0,0,,,100,100,0,1,0,0,0,2,1,,,,,9.5,4.4,0
51.4055,-2.8192,7,7,0,0,7,7,1.12,1,5513,35:28.4,35:28.4,9,0,0,11.6,41.779605,-8.528486,0,0,0,1,0,68,0,1,0,74,100,-6800,1682,11600,2981.5,13,NAVI,1,0,0,0,0,0,0,1.53E+12,3878,3863,3873,0,0,0,22,,,,,,,0,0,0,-18,0,689,0,0,690,14,22,0,2.41,0,0,0,0,,,100,100,0,1,0,0,0,2,1,,,,,9.5,4.4,0
51.4055,-2.8192,7,7,0,0,7,7,1.12,1,5605,35:28.5,35:28.5,9,0,0,11.6,41.779605,-8.528486,0,0,0,2,0,68,0,1,0,74,100,-6800,1682,11600,2981.5,13,NAVI,1,0,0,0,0,0,0,1.53E+12,3878,3863,3873,0,0,0,22,,,,,,,0,0,0,-20,0,689,0,0,690,14,22,0,2.41,0,0,0,0,,,100,100,0,1,0,0,0,2,1,,,,,9.5,4.4,0
51.4055,-2.8192,7,7,0,0,7,7,1.12,1,5727,35:28.6,35:28.6,9,0,0,11.6,41.779605,-8.528486,0,0,0,1,0,68,0,1,0,74,100,-6800,1682,11600,2981.5,13,NAVI,1,0,0,0,0,0,0,1.53E+12,3878,3863,3873,0,0,0,22,,,,,,,0,0,0,-18,-1,689,0,0,690,14,22,0,2.37,0,0,0,0,,,100,100,0,1,0,0,0,2,1,,,,,9.4,4.4,0
51.4055,-2.8192,7,7,0,0,7,7,1.12,1,5819,35:28.7,35:28.7,9,0,0,11.6,41.779605,-8.528486,0,0,0,1,0,68,0,1,0,74,100,-6800,1682,11600,2981.5,13,NAVI,1,0,0,0,0,0,0,1.53E+12,3878,3863,3873,0,0,0,22,,,,,,,0,0,0,-18,1,689,0,0,690,14,22,0,2.37,0,0,0,0,,,100,100,0,1,0,0,0,2,1,,,,,9.4,4.4,0
51.4055,-2.8192,7,7,0,0,7,7,1.12,1,5923,35:28.8,35:28.8,9,0,0,11.614,41.779605,-8.528486,0,0,0,1,0,68,0,1,0,74,100,-6621,1680,11614,2982.5,13,NAVI,1,0,0,0,0,0,0,1.53E+12,3878,3863,3873,0,0,0,22,,,,,,,0,0,0,-18,1,689,0,0,690,14,22,0,2.42,0,0,0,0,,,100,100,0,1,0,0,0,2,1,,,,,9.4,4.4,0
51.4055,-2.8192,7,7,0,0,7,7,1.12,1,6013,35:28.9,35:28.9,9,0,0,11.614,41.779605,-8.528486,0,0,0,1,0,68,0,1,0,74,100,-6621,1680,11614,2982.5,13,NAVI,1,0,0,0,0,0,0,1.53E+12,3878,3863,3873,0,0,0,22,,,,,,,0,0,0,-18,-1,689,0,0,690,14,22,0,2.43,0,0,0,0,,,100,100,0,1,0,0,0,2,1,,,,,9.4,4.4,0
51.4055,-2.8192,7,7,0,0,7,7,1.12,1,6137,35:29.0,35:29.0,9,0,0,11.614,41.779605,-8.528486,0,0,0,1,0,68,0,1,0,74,100,-6621,1680,11614,2982.5,13,NAVI,1,0,0,0,0,0,0,1.53E+12,3878,3863,3873,0,0,0,22,,,,,,,0,0,0,-18,-1,689,0,0,690,14,22,0,2.37,0,0,0,0,,,100,100,0,1,0,0,0,2,1,,,,,9.4,4.4,0
51.4055,-2.8192,7,7,0.22,0,7,7,1.12,1,6225,35:29.1,35:29.1,9,0,0,11.614,41.779605,-8.528486,0,0,-0.22,1,0,68,0,1,0,74,100,-6621,1680,11614,2982.5,13,NAVI,1,0,0,0,0,0,0,1.53E+12,3878,3863,3873,0,0,0,22,,,,,,,0,0,0,-18,0,689,0,0,690,14,22,1,2.38,0,0,-1,0,,,100,100,0,1,0,0,0,2,1,,,,,9.4,4.4,0
51.4055,-2.8192,7,7,0.22,0,7,7,1.12,1,6315,35:29.2,35:29.2,9,0,0,11.614,41.779605,-8.528486,0,0,-0.22,1,0,68,0,1,0,74,100,-6621,1680,11614,2982.5,13,NAVI,1,0,0,0,0,0,0,1.53E+12,3878,3863,3873,0,0,0,22,,,,,,,0,0,0,-18,1,689,0,0,690,14,22,1,2.32,0,0,-1,0,,,100,100,0,1,0,0,0,2,1,,,,,9.4,4.4,0
51.4055,-2.8192,7,7,0.22,0,7,7,1.12,1,6436,35:29.3,35:29.3,9,0,0,11.614,41.779605,-8.528486,0,0,-0.22,1,0,68,0,1,0,74,100,-6621,1680,11614,2982.5,13,NAVI,1,0,0,0,0,0,0,1.53E+12,3878,3863,3873,0,0,0,22,,,,,,,0,0,0,-18,1,689,0,0,690,14,22,1,2.32,0,0,-1,0,,,100,100,0,1,0,0,0,2,1,,,,,9.4,4.4,0
51.4055,-2.8192,7,7,0.22,0,7,7,1.12,1,6527,35:29.4,35:29.4,9,0,0,11.614,41.779605,-8.528486,0,0,-0.22,1,0,68,0,1,0,74,100,-6621,1680,11614,2982.5,13,NAVI,1,0,0,0,0,0,0,1.53E+12,3878,3863,3873,0,0,0,22,,,,,,,0,0,0,-17,2,689,0,0,690,14,22,1,2.43,0,0,-1,0,,,100,100,0,1,0,0,0,2,1,,,,,9.4,4.4,0
51.4055,-2.8192,7,7,0.22,0,7,7,1.12,1,6629,35:29.5,35:29.5,9,0,0,11.614,41.779605,-8.528486,0,0,-0.22,1,0,68,0,1,0,74,100,-6621,1680,11614,2982.5,13,NAVI,1,0,0,0,0,0,0,1.53E+12,3878,3863,3873,0,0,0,22,,,,,,,0,0,0,-16,0,689,0,0,690,14,22,1,2.45,0,0,-1,0,,,100,100,0,1,0,0,0,2,1,,,,,9.4,4.4,0
51.4055,-2.8192,7,7,0.45,0,7,7,1.12,1,6741,35:29.6,35:29.6,9,0,0,11.614,41.779605,-8.528486,0,0,-0.45,1,0,68,0,1,0,74,100,-6621,1680,11614,2982.5,13,NAVI,1,0,0,0,0,0,0,1.53E+12,3878,3863,3873,0,0,0,22,,,,,,,0,0,0,-17,-1,689,0,0,690,14,22,2,2.4,0,0,-2,0,,,100,100,0,1,0,0,0,2,1,,,,,9.5,4.4,0
51.4055,-2.8192,7,7,0.45,0,7,7,1.12,1,6873,35:29.7,35:29.7,9,0,0,11.592,41.779605,-8.528486,0,0,-0.45,1,0,68,0,1,0,74,100,-6735,1678,11592,2982.5,13,NAVI,1,0,0,0,0,0,0,1.53E+12,3878,3863,3873,0,0,0,22,,,,,,,0,0,0,-17,0,689,0,0,690,14,22,2,2.4,0,0,-2,0,,,100,100,0,1,0,0,0,2,1,,,,,9.5,4.4,0
51.4055,-2.8192,7,7,0.45,0,7,7,1.12,1,6934,35:29.8,35:29.8,9,0,0,11.592,41.779605,-8.528486,0,0,-0.45,1,0,68,0,1,0,74,100,-6735,1678,11592,2982.5,13,NAVI,1,0,0,0,0,0,0,1.53E+12,3878,3863,3873,0,0,0,22,,,,,,,0,0,0,-15,1,689,0,0,690,14,22,2,2.34,0,0,-2,0,,,100,100,0,1,0,0,0,2,1,,,,,9.5,4.4,0
51.4055,-2.8192,7,7,0.45,0,7,7,1.12,1,7056,35:29.9,35:29.9,9,0,0,11.592,41.779605,-8.528486,0,0,-0.45,1,0,68,0,1,0,74,100,-6735,1678,11592,2982.5,13,NAVI,1,0,0,0,0,0,0,1.53E+12,3878,3863,3873,0,0,0,22,,,,,,,0,0,0,-16,4,687,0,0,690,14,22,2,2.34,0,0,-2,0,,,100,100,0,1,0,0,0,2,1,,,,,9.5,4.4,0
51.4055,-2.8192,7,7,0.45,0,7,7,1.12,1,7145,35:30.0,35:30.0,9,0,0,11.592,41.779605,-8.528486,0,0,-0.45,1,0,68,0,1,0,74,100,-6735,1678,11592,2982.5,13,NAVI,1,0,0,0,0,0,0,1.53E+12,3878,3863,3873,0,0,0,22,,,,,,,0,0,0,-17,2,687,0,0,690,14,22,2,2.32,0,0,-2,0,,,100,100,0,1,0,0,0,2,1,,,,,9.5,4.4,0
51.4055,-2.8192,7,7,0.45,0,7,7,1.12,1,7240,35:30.1,35:30.1,9,0,0,11.592,41.779605,-8.528486,0,0,-0.45,1,0,68,0,1,0,74,100,-6735,1678,11592,2982.5,13,NAVI,1,0,0,0,0,0,0,1.53E+12,3878,3863,3873,0,0,0,22,,,,,,,0,0,0,-17,2,687,0,0,690,14,24,2,2.31,0,0,-2,0,,,100,100,0,1,0,0,0,2,1,,,,,9.5,4.4,0
51.4055,-2.8192,7,7,0.45,0,7,7,1.12,1,7360,35:30.2,35:30.2,9,0,0,11.592,41.779605,-8.528486,0,0,-0.45,1,0,68,0,1,0,74,100,-6735,1678,11592,2982.5,13,NAVI,1,0,0,0,0,0,0,1.53E+12,3878,3863,3873,0,0,0,22,,,,,,,0,0,0,-18,5,687,0,0,690,14,24,2,2.44,0,0,-2,0,,,100,100,0,1,0,0,0,2,1,,,,,9.5,4.4,0
51.4055,-2.8192,7,7,0.45,0,7,7,1.12,1,7453,35:30.3,35:30.3,9,0,0,11.592,41.779605,-8.528486,0,0,-0.45,1,0,68,0,1,0,74,100,-6735,1678,11592,2982.5,13,NAVI,1,0,0,0,0,0,0,1.53E+12,3878,3863,3873,0,0,0,22,,,,,,,0,0,0,-18,2,687,0,0,690,14,24,2,2.45,0,0,-2,0,,,100,100,0,1,0,0,0,2,1,,,,,9.4,4.4,0
51.4055,-2.8192,7,7,0.45,0,7,7,1.12,1,7536,35:30.4,35:30.4,9,0,0,11.592,41.779605,-8.528486,0,0,-0.45,1,0,68,0,1,0,74,100,-6735,1678,11592,2982.5,13,NAVI,1,0,0,0,0,0,0,1.53E+12,3878,3863,3873,0,0,0,22,,,,,,,0,0,0,-17,2,689,0,0,690,14,24,2,2.37,0,0,-2,0,,,100,100,0,1,0,0,0,2,1,,,,,9.4,4.4,0
51.4055,-2.8192,8,8,0.45,0,8,8,1.12,1,7668,35:30.6,35:30.6,9,0,0,11.592,41.779605,-8.528486,0,0,-0.45,1,0,68,0,1,0,74,100,-6735,1678,11592,2982.5,13,NAVI,1,0,0,0,0,0,0,1.53E+12,3878,3863,3873,0,0,0,22,,,,,,,0,0,0,-13,6,689,0,0,690,14,25,2,2.38,0,0,-2,0,,,100,100,0,1,0,0,0,2,1,,,,,9.4,4.4,0
51.4055,-2.8192,8,8,0.45,0,8,8,1.12,1,7778,35:30.6,35:30.6,9,0,0,11.592,41.779605,-8.528486,0,0,-0.45,1,0,68,0,1,0,74,100,-6735,1678,11592,2982.5,13,NAVI,1,0,0,0,0,0,0,1.53E+12,3878,3863,3873,0,0,0,22,,,,,,,0,0,0,-13,5,689,0,0,690,14,25,2,2.44,0,0,-2,0,,,100,100,0,1,0,0,0,2,1,,,,,9.4,4.4,0
51.4055,-2.8192,8,8,0.45,0,8,8,1.12,1,7845,35:30.7,35:30.7,9,0,0,11.565,41.779605,-8.528486,0,0,-0.45,1,0,68,0,1,0,74,100,-7037,1674,11565,2983.5,13,NAVI,1,0,0,0,0,0,0,1.53E+12,3878,3863,3873,0,0,0,22,,,,,,,0,0,0,-11,5,689,0,0,690,14,25,2,2.46,0,0,-2,0,,,100,100,0,1,0,0,0,2,1,,,,,9.4,4.4,0
51.4055,-2.8192,8,8,0.45,0,8,8,1.12,1,7955,35:30.8,35:30.8,9,0,0,11.565,41.779605,-8.528486,0,0,-0.45,1,0,68,0,1,0,74,100,-7037,1674,11565,2983.5,13,NAVI,1,0,0,0,0,0,0,1.53E+12,3878,3863,3873,0,0,0,22,,,,,,,0,0,0,-11,2,689,0,0,690,14,25,2,2.4,0,0,-2,0,,,100,100,0,1,0,0,0,2,1,,,,,9.4,4.4,0
51.4055,-2.8192,8,8,0.45,0,8,8,1.12,1,8055,35:30.9,35:30.9,9,0,0,11.565,41.779605,-8.528486,0,0,-0.45,1,0,68,0,1,0,74,100,-7037,1674,11565,2983.5,13,NAVI,1,0,0,0,0,0,0,1.53E+12,3878,3863,3873,0,0,0,22,,,,,,,0,0,0,-17,0,689,0,0,690,14,25,2,2.41,0,0,-2,0,,,100,100,0,1,0,0,0,2,1,,,,,9.4,4.4,0
51.4055,-2.8192,8,8,0.45,0,8,8,1.12,1,8145,35:31.0,35:31.0,9,0,0,11.565,41.779605,-8.528486,0,0,-0.45,1,0,68,0,1,0,74,100,-7037,1674,11565,2983.5,13,NAVI,1,0,0,0,0,0,0,1.53E+12,3878,3863,3873,0,0,0,22,,,,,,,0,0,0,-18,-1,689,0,0,690,14,25,2,2.47,0,0,-2,0,,,100,100,0,1,0,0,0,2,1,,,,,9.4,4.4,0
51.4055,-2.8192,8,8,0.45,0,8,8,1.12,1,8235,35:31.1,35:31.1,9,0,0,11.565,41.779605,-8.528486,0,0,-0.45,1,0,68,0,1,0,74,100,-7037,1674,11565,2983.5,13,NAVI,1,0,0,0,0,0,0,1.53E+12,3878,3863,3873,0,0,0,22,,,,,,,0,0,0,-13,0,689,0,0,690,14,25,2,2.48,0,0,-2,0,,,100,100,0,1,0,0,0,2,1,,,,,9.4,4.4,0
51.4055,-2.8192,8,8,0.45,0,8,8,1.12,1,8359,35:31.2,35:31.2,9,0,0,11.565,41.779605,-8.528486,0,0,-0.45,1,0,68,0,1,0,74,100,-7037,1674,11565,2983.5,13,NAVI,1,0,0,0,0,0,0,1.53E+12,3878,3863,3873,0,0,0,22,,,,,,,0,0,0,-11,0,689,0,0,690,14,25,2,2.35,0,0,-2,0,,,100,100,0,1,0,0,0,2,1,,,,,9.5,4.4,0
51.4055,-2.8192,8,8,0.45,0,8,8,1.12,1,8450,35:31.3,35:31.3,9,0,0,11.565,41.779605,-8.528486,0,0,-0.45,1,0,68,0,1,0,74,100,-7037,1674,11565,2983.5,13,NAVI,1,0,0,0,0,0,0,1.53E+12,3878,3863,3873,0,0,0,22,,,,,,,0,0,0,-15,1,689,0,0,690,14,27,2,2.33,0,0,-2,0,,,100,100,0,1,0,0,0,2,1,,,,,9.5,4.4,0
51.4055,-2.8192,8,8,0.45,0,8,8,1.12,1,8542,35:31.4,35:31.4,9,0,0,11.565,41.779605,-8.528486,0,0,-0.45,1,0,68,0,1,0,74,100,-7037,1674,11565,2983.5,13,NAVI,1,0,0,0,0,0,0,1.53E+12,3878,3863,3873,0,0,0,22,,,,,,,0,0,0,-17,1,689,0,0,690,14,27,2,2.25,0,0,-2,0,,,100,100,0,1,0,0,0,2,1,,,,,9.5,4.4,0
51.4055,-2.8192,8,8,0.45,0,8,8,1.12,1,8646,35:31.5,35:31.5,9,0,0,11.565,41.779605,-8.528486,0,0,-0.45,1,0,68,0,1,0,74,100,-7037,1674,11565,2983.5,13,NAVI,1,0,0,0,0,0,0,1.53E+12,3878,3863,3873,0,0,0,22,,,,,,,0,0,0,-16,5,689,0,0,690,14,27,2,2.22,0,0,-2,0,,,100,100,0,1,0,0,0,2,1,,,,,9.5,4.4,0
51.4055,-2.8192,9,9,0.67,0,9,9,1.12,1,8739,35:31.6,35:31.6,9,0,0,11.565,41.779605,-8.528486,0,0,-0.67,1,1,68,0,1,0,74,100,-7037,1674,11565,2983.5,13,NAVI,1,0,0,0,0,0,0,1.53E+12,3878,3863,3873,0,0,0,22,,,,,,,0,0,0,-16,10,689,0,0,690,14,27,3,2.16,0,0,-3,0,,,100,100,0,1,0,0,0,2,1,,,,,9.5,4.4,0
51.4055,-2.8192,9,9,0.67,0,9,9,1.12,1,8864,35:31.7,35:31.7,9,0,0,11.558,41.779605,-8.528486,0,0,-0.67,1,1,68,0,1,0,74,100,-6987,1672,11558,2983.5,13,NAVI,1,0,0,0,0,0,0,1.53E+12,3878,3863,3873,0,0,0,22,,,,,,,0,0,0,-15,11,689,0,0,690,14,27,3,2.13,0,0,-3,0,,,100,100,0,1,0,0,0,2,1,,,,,9.6,4.4,0
51.4055,-2.8192,9,9,0.67,0,9,9,1.12,1,8951,35:31.8,35:31.8,9,0,0,11.558,41.779605,-8.528486,0,0,-0.67,1,1,68,0,1,0,74,100,-6987,1672,11558,2983.5,13,NAVI,1,0,0,0,0,0,0,1.53E+12,3878,3863,3873,0,0,0,22,,,,,,,0,0,0,-15,11,689,0,0,690,14,27,3,2.19,0,0,-3,0,,,100,100,0,1,0,0,0,2,1,,,,,9.6,4.4,0
51.4055,-2.8192,9,9,0.67,0,9,9,1.12,1,9044,35:31.9,35:31.9,9,0,0,11.558,41.779605,-8.528486,0,0,-0.67,1,0,68,0,1,0,74,100,-6987,1672,11558,2983.5,13,NAVI,1,0,0,0,0,0,0,1.53E+12,3878,3863,3873,0,0,0,22,,,,,,,0,0,0,-15,9,689,0,0,690,14,27,3,2.18,0,0,-3,0,,,100,100,0,1,0,0,0,2,1,,,,,9.6,4.4,0
51.4055,-2.8192,9,9,0.67,0,9,9,1.12,1,9164,35:32.0,35:32.0,9,0,0,11.558,41.779605,-8.528486,0,0,-0.67,1,0,68,0,1,0,74,100,-6987,1672,11558,2983.5,13,NAVI,1,0,0,0,0,0,0,1.53E+12,3878,3863,3873,0,0,0,22,,,,,,,0,0,0,-13,9,689,0,0,690,14,29,3,2.23,0,0,-3,0,,,100,100,0,1,0,0,0,2,1,,,,,9.6,4.4,0
51.4055,-2.8192,9,9,0.67,0,9,9,1.12,1,9246,35:32.1,35:32.1,9,0,0,11.558,41.779605,-8.528486,0,0,-0.67,1,0,68,0,1,0,74,100,-6987,1672,11558,2983.5,13,NAVI,1,0,0,0,0,0,0,1.53E+12,3878,3863,3873,0,0,0,22,,,,,,,0,0,0,-13,8,689,0,0,690,14,29,3,2.23,0,0,-3,0,,,100,100,0,1,0,0,0,2,1,,,,,9.6,4.8,0
51.4055,-2.8192,9,9,0.67,0,9,9,1.12,1,9346,35:32.2,35:32.2,9,0,0,11.558,41.779605,-8.528486,0,0,-0.67,1,0,68,0,1,0,74,100,-6987,1672,11558,2983.5,13,NAVI,1,0,0,0,0,0,0,1.53E+12,3878,3863,3873,0,0,0,22,,,,,,,0,0,0,-13,8,689,0,0,690,14,29,3,2.32,0,0,-3,0,,,100,100,0,1,0,0,0,2,1,,,,,9.6,4.8,0
51.4055,-2.8192,9,9,0.67,0,9,9,1.12,1,9430,35:32.3,35:32.3,9,0,0,11.558,41.779605,-8.528486,0,0,-0.67,1,0,68,0,1,0,74,100,-6987,1672,11558,2983.5,13,NAVI,1,0,0,0,0,0,0,1.53E+12,3878,3863,3873,0,0,0,22,,,,,,,0,0,0,-13,4,689,0,0,690,14,30,3,2.33,0,0,-3,0,,,100,100,0,1,0,0,0,2,1,,,,,9.6,5.1,0
51.4055,-2.8192,9,9,0.67,0,9,9,1.12,1,9562,35:32.4,35:32.4,9,0,0,11.558,41.779605,-8.528486,0,0,-0.67,1,0,68,0,1,0,74,100,-6987,1672,11558,2983.5,13,NAVI,1,0,0,0,0,0,0,1.53E+12,3878,3863,3873,0,0,0,22,,,,,,,0,0,0,-13,2,689,0,0,690,14,30,3,2.39,0,0,-3,0,,,100,100,0,1,0,0,0,2,1,,,,,9.6,5.1,0
51.4055,-2.8192,9,9,0.67,0,9,9,1.12,1,9664,35:32.5,35:32.5,9,0,0,11.558,41.779605,-8.528486,0,0,-0.67,1,0,68,0,1,0,74,100,-6987,1672,11558,2983.5,13,NAVI,1,0,0,0,0,0,0,1.53E+12,3878,3863,3873,0,0,0,22,,,,,,,0,0,0,-11,6,689,0,0,690,14,30,3,2.39,0,0,-3,0,,,100,100,0,1,0,0,0,2,1,,,,,9.6,5.1,0
51.4055,-2.8192,10,10,0.45,0,10,10,1.12,1,9747,35:32.7,35:32.7,9,0,0,11.558,41.779605,-8.528486,0,0,-0.45,1,1,68,0,1,0,74,100,-6987,1672,11558,2983.5,13,NAVI,1,0,0,0,0,0,0,1.53E+12,3878,3863,3873,0,0,0,22,,,,,,,0,0,0,-11,10,689,0,0,690,14,30,2,2.48,0,0,-2,0,,,100,100,0,1,0,0,0,2,1,,,,,10,5.1,0
51.4055,-2.8192,10,10,0.45,0,10,10,1.12,1,9849,35:32.7,35:32.7,9,0,0,11.544,41.779605,-8.528486,0,0,-0.45,1,0,68,0,1,0,74,100,-7050,1670,11544,2983.5,13,NAVI,1,0,0,0,0,0,0,1.53E+12,3878,3863,3873,0,0,0,22,,,,,,,0,0,0,-15,5,689,0,0,690,14,30,2,2.49,0,0,-2,0,,,100,100,0,1,0,0,0,2,1,,,,,10.1,5.1,0
51.4055,-2.8192,10,10,0.45,0,10,10,1.12,1,9942,35:32.8,35:32.8,9,0,0,11.544,41.779605,-8.528486,0,0,-0.45,1,0,68,0,1,0,74,100,-7050,1670,11544,2983.5,13,NAVI,1,0,0,0,0,0,0,1.53E+12,3878,3863,3873,0,0,0,22,,,,,,,0,0,0,-15,6,687,0,0,690,14,30,2,2.65,0,0,-2,0,,,100,100,0,1,0,0,0,2,1,,,,,10.1,5.1,0
51.4055,-2.8192,10,10,0.45,0,10,10,1.12,1,9947,35:32.8,35:32.8,9,0,0,11.544,41.779605,-8.528486,0,0,-0.45,0,1,68,0,1,0,74,100,-7050,1670,11544,2983.5,13,NAVI,1,0,0,0,0,0,0,1.53E+12,3878,3863,3873,0,0,0,22,,,,,,,0,0,0,-9,10,687,0,0,690,14,30,2,2.67,0,0,-2,0,,,100,100,0,1,0,0,0,2,1,,,,,10.1,5.1,0
51.4055,-2.8192,10,10,0.45,0,10,10,1.12,1,10069,35:32.9,35:32.9,9,0,0,11.544,41.779605,-8.528486,0,0,-0.45,0,1,68,0,1,0,74,100,-7050,1670,11544,2983.5,13,NAVI,1,0,0,0,0,0,0,1.53E+12,3878,3863,3873,0,0,0,22,,,,,,,0,0,0,-8,11,687,0,0,690,14,32,2,2.51,0,0,-2,0,,,100,100,0,1,0,0,0,2,1,,,,,10.1,5.1,0
51.4055,-2.8192,10,10,0.45,0,10,10,1.12,1,10158,35:33.0,35:33.0,9,0,0,11.544,41.779605,-8.528486,0,0,-0.45,1,1,68,0,1,0,74,100,-7050,1670,11544,2983.5,13,NAVI,1,0,0,0,0,0,0,1.53E+12,3878,3863,3873,0,0,0,22,,,,,,,0,0,0,-11,11,687,0,0,690,14,32,2,2.51,0,0,-2,0,,,100,100,0,1,0,0,0,2,1,,,,,10.2,5.1,0
51.4055,-2.8192,10,10,0.45,0,10,10,1.12,1,10251,35:33.1,35:33.1,9,0,0,11.544,41.779605,-8.528486,0,0,-0.45,1,0,68,0,1,0,74,100,-7050,1670,11544,2983.5,13,NAVI,1,0,0,0,0,0,0,1.53E+12,3878,3863,3873,0,0,0,22,,,,,,,0,0,0,-11,9,689,0,0,690,14,32,2,2.72,0,0,-2,0,,,98,98,0,1,0,0,0,2,1,,,,,10.3,5.3,0
51.4055,-2.8192,10,10,0.67,0,10,10,1.12,1,10369,35:33.2,35:33.2,9,0,0,11.544,41.779605,-8.528486,0,0,-0.67,0,0,68,0,1,0,74,100,-7050,1670,11544,2983.5,13,NAVI,1,0,0,0,0,0,0,1.53E+12,3878,3863,3873,0,0,0,22,,,,,,,0,0,0,-9,6,689,0,0,690,14,32,3,2.74,0,0,-3,0,,,98,98,0,1,0,0,0,2,1,,,,,10.3,5.4,0
51.4055,-2.8192,10,10,0.45,0,10,10,1.12,1,10460,35:33.3,35:33.3,9,0,0,11.544,41.779605,-8.528486,0,0,-0.45,1,0,68,0,1,0,74,100,-7050,1670,11544,2983.5,13,NAVI,1,0,0,0,0,0,0,1.53E+12,3878,3863,3873,0,0,0,22,,,,,,,0,0,0,-11,8,689,0,0,690,14,32,2,2.77,0,0,-2,0,,,98,98,0,1,0,0,0,2,1,,,,,10.3,5.4,0
51.4055,-2.8192,10,10,0.45,0,10,10,1.12,1,10557,35:33.4,35:33.4,9,0,0,11.544,41.779605,-8.528486,0,0,-0.45,1,0,68,0,1,0,74,100,-7050,1670,11544,2983.5,13,NAVI,1,0,0,0,0,0,0,1.53E+12,3878,3863,3873,0,0,0,22,,,,,,,0,0,0,-11,9,689,0,0,690,14,32,2,2.78,0,0,-2,0,,,98,98,0,1,0,0,0,2,1,,,,,10.3,5.4,0
51.4055,-2.8192,10,10,0.45,0,10,10,1.12,1,10657,35:33.5,35:33.5,9,0,0,11.544,41.779605,-8.528486,0,0,-0.45,1,1,68,0,1,0,74,100,-7050,1670,11544,2983.5,13,NAVI,1,0,0,0,0,0,0,1.53E+12,3878,3863,3873,0,0,0,22,,,,,,,0,0,0,-11,11,689,0,0,690,14,32,2,2.61,0,0,-2,0,,,98,98,0,1,0,0,0,2,1,,,,,10.3,5.4,0
51.4055,-2.8192,11,11,0.45,0,11,11,1.12,1,10747,35:33.6,35:33.6,9,0,0,11.544,41.779605,-8.528486,0,0,-0.45,1,1,68,0,1,0,74,100,-7050,1670,11544,2983.5,13,NAVI,1,0,0,0,0,0,0,1.53E+12,3878,3863,3873,0,0,0,22,,,,,,,0,0,0,-11,13,689,0,0,690,14,34,2,2.61,0,0,-2,0,,,98,98,0,1,0,0,0,2,1,,,,,10.1,5.4,0
51.4055,-2.8192,11,11,0.45,0,11,11,1.12,1,10867,35:33.8,35:33.8,9,0,0,11.545,41.779605,-8.528486,0,0,-0.45,1,1,68,0,1,0,74,100,-6987,1668,11545,2984.5,13,NAVI,1,0,0,0,0,0,0,1.53E+12,3878,3863,3873,0,0,0,22,,,,,,,0,0,0,-11,13,687,0,0,690,14,34,2,2.88,0,0,-2,0,,,98,98,0,1,0,0,0,2,1,,,,,10.1,5.4,0
51.4055,-2.8192,11,11,0.45,0,11,11,1.12,1,10966,35:33.8,35:33.8,9,0,0,11.545,41.779605,-8.528486,0,0,-0.45,0,1,68,0,1,0,74,100,-6987,1668,11545,2984.5,13,NAVI,1,0,0,0,0,0,0,1.53E+12,3878,3863,3873,0,0,0,22,,,,,,,0,0,0,-6,13,687,0,0,690,14,34,2,2.9,0,0,-2,0,,,98,98,0,1,0,0,0,2,1,,,,,10.1,5.4,0
51.4055,-2.8192,11,11,0.45,0,11,11,1.12,1,11049,35:33.9,35:33.9,9,0,0,11.545,41.779605,-8.528486,0,0,-0.45,0,1,68,0,1,0,74,100,-6987,1668,11545,2984.5,13,NAVI,1,0,0,0,0,0,0,1.53E+12,3878,3863,3873,0,0,0,22,,,,,,,0,0,0,-6,11,687,0,0,690,14,35,2,2.81,0,0,-2,0,,,98,98,0,1,0,0,0,2,1,,,,,10.1,5.4,0
51.4055,-2.8192,11,11,0.45,0,11,11,1.12,1,11169,35:34.0,35:34.0,9,0,0,11.545,41.779605,-8.528486,0,0,-0.45,1,0,68,0,1,0,74,100,-6987,1668,11545,2984.5,13,NAVI,1,0,0,0,0,0,0,1.53E+12,3878,3863,3873,0,0,0,22,,,,,,,0,0,0,-11,6,687,0,0,690,14,35,2,2.82,0,0,-2,0,,,98,98,0,1,0,0,0,2,1,,,,,10.3,5.4,0
51.4055,-2.8192,11,11,0.45,1,11,11,1.12,1,11263,35:34.1,35:34.1,9,0,0,11.545,41.779605,-8.528486,0,0,-0.45,1,0,68,0,1,0,74,100,-6987,1668,11545,2984.5,13,NAVI,1,0,0,0,0,0,0,1.53E+12,3878,3863,3873,0,0,0,22,,,,,,,0,0,0,-11,5,687,0,0,690,14,35,2,3.12,0,0,-2,0,,,95,95,0,1,0,0,0,2,1,,,,,10.3,5.4,0
51.4055,-2.8192,11,11,0.45,1,11,11,1.12,1,11364,35:34.2,35:34.2,9,0,0,11.545,41.779605,-8.528486,0,0,-0.45,0,0,68,0,1,0,74,100,-6987,1668,11545,2984.5,13,NAVI,1,0,0,0,0,0,0,1.53E+12,3878,3863,3873,0,0,0,22,,,,,,,0,0,0,-5,5,687,0,0,690,14,35,2,3.15,0,0,-2,0,,,95,95,0,1,0,0,0,2,1,,,,,10.4,5.4,0
51.4055,-2.8192,11,11,0.45,1,11,11,1.12,1,11438,35:34.3,35:34.3,9,0,0,11.545,41.779605,-8.528486,0,0,-0.45,0,0,68,0,1,0,74,100,-6987,1668,11545,2984.5,13,NAVI,1,0,0,0,0,0,0,1.53E+12,3878,3863,3873,0,0,0,22,,,,,,,0,0,0,-9,2,689,0,0,690,14,35,2,3.07,0,0,-2,0,,,95,95,0,1,0,0,0,2,1,,,,,10.4,5.4,0
51.4055,-2.8192,11,11,0.45,1,11,11,1.12,1,11579,35:34.4,35:34.4,9,0,0,11.545,41.779605,-8.528486,0,0,-0.45,1,0,68,0,1,0,74,100,-6987,1668,11545,2984.5,13,NAVI,1,0,0,0,0,0,0,1.53E+12,3878,3863,3873,0,0,0,22,,,,,,,0,0,0,-11,1,689,0,0,690,14,35,2,3.08,0,0,-2,0,,,95,95,0,1,0,0,0,2,1,,,,,10.4,5.4,0
51.4055,-2.8192,11,11,0.45,1,11,11,1.12,1,11668,35:34.5,35:34.5,9,0,0,11.545,41.779605,-8.528486,0,0,-0.45,1,0,68,0,1,0,74,100,-6987,1668,11545,2984.5,13,NAVI,1,0,0,0,0,0,0,1.53E+12,3878,3863,3873,0,0,0,22,,,,,,,0,0,0,-11,2,689,0,0,690,14,35,2,3.19,0,0,-2,0,,,95,95,0,1,0,0,0,2,1,,,,,10.5,5.4,0
51.4055,-2.8192,11,11,0.45,1,11,11,1.12,1,11755,35:34.6,35:34.6,9,0,0,11.545,41.779605,-8.528486,0,0,-0.45,0,0,68,0,1,0,74,100,-6987,1668,11545,2984.5,13,NAVI,1,0,0,0,0,0,0,1.53E+12,3878,3863,3873,0,0,0,22,,,,,,,0,0,0,-8,6,689,0,0,690,14,35,2,3.2,0,0,-2,0,,,95,95,0,1,0,0,0,2,1,,,,,10.6,5.4,0
51.4055,-2.8192,12,12,0.45,1,12,12,1.12,1,11851,35:34.7,35:34.7,9,0,0,11.535,41.779605,-8.528486,0,0,-0.45,0,0,68,0,1,0,74,100,-6981,1666,11535,2984.5,13,NAVI,1,0,0,0,0,0,0,1.53E+12,3878,3863,3873,0,0,0,22,,,,,,,0,0,0,-6,9,689,0,0,690,14,37,2,3.18,0,0,-2,0,,,95,95,0,1,0,0,0,2,1,,,,,10.6,5.4,0
51.4055,-2.8192,12,12,0.45,1,12,12,1.12,1,11972,35:34.9,35:34.9,9,0,0,11.535,41.779605,-8.528486,0,0,-0.45,1,0,68,0,1,0,74,100,-6981,1666,11535,2984.5,13,NAVI,1,0,0,0,0,0,0,1.53E+12,3878,3863,3873,0,0,0,22,,,,,,,0,0,0,-11,2,689,0,0,690,14,37,2,3.18,0,0,-2,0,,,95,95,0,1,0,0,0,2,1,,,,,10.6,5.4,0
51.4055,-2.8192,12,12,0.45,1,12,12,1.12,1,12068,35:34.9,35:34.9,9,0,0,11.535,41.779605,-8.528486,0,0,-0.45,1,0,68,0,1,0,74,100,-6981,1666,11535,2984.5,13,NAVI,1,0,0,0,0,0,0,1.53E+12,3878,3863,3873,0,0,0,22,,,,,,,0,0,0,-13,2,689,0,0,690,14,37,2,3.1,0,0,-2,0,,,95,95,0,1,0,0,0,2,1,,,,,10.6,5.4,0
51.4055,-2.8192,12,12,0.45,1,12,12,1.12,1,12155,35:35.0,35:35.0,9,0,0,11.535,41.779605,-8.528486,0,0,-0.45,1,1,68,0,1,0,74,100,-6981,1666,11535,2984.5,13,NAVI,1,0,0,0,0,0,0,1.53E+12,3878,3863,3873,0,0,0,22,,,,,,,0,0,0,-11,13,689,0,0,690,14,37,2,3.09,0,0,-2,0,,,95,95,0,1,0,0,0,2,1,,,,,10.9,5.4,0
51.4055,-2.8192,12,12,0.45,1,12,12,1.12,1,12280,35:35.2,35:35.2,9,0,0,11.535,41.779605,-8.528486,0,0,-0.45,1,1,68,0,1,0,74,100,-6981,1666,11535,2984.5,13,NAVI,1,0,0,0,0,0,0,1.53E+12,3878,3863,3873,0,0,0,22,,,,,,,0,0,0,-11,15,689,0,0,690,14,37,2,3.1,0,0,-2,0,,,92,92,0,1,0,0,0,2,1,,,,,11.1,5.4,0
51.4055,-2.8192,12,12,0.45,1,12,12,1.12,1,12371,35:35.2,35:35.2,9,0,0,11.535,41.779605,-8.528486,0,0,-0.45,1,0,68,0,1,0,74,100,-6981,1666,11535,2984.5,13,NAVI,1,0,0,0,0,0,0,1.53E+12,3878,3863,3873,0,0,0,22,,,,,,,0,0,0,-11,5,689,0,0,690,14,37,2,3.1,0,0,-2,0,,,92,92,0,1,0,0,0,2,1,,,,,11.2,5.4,0
51.4055,-2.8192,12,12,0.45,0,12,12,1.12,1,12481,35:35.4,35:35.4,9,0,0,11.535,41.779605,-8.528486,0,0,-0.45,1,0,68,0,1,0,74,100,-6981,1666,11535,2984.5,13,NAVI,1,0,0,0,0,0,0,1.53E+12,3878,3863,3873,0,0,0,22,,,,,,,0,0,0,-13,1,689,0,0,690,14,37,2,3.04,0,0,-2,0,,,92,92,0,1,0,0,0,2,1,,,,,11.2,5.4,0
51.4055,-2.8192,12,12,0.45,0,12,12,1.12,1,12573,35:35.4,35:35.4,9,0,0,11.535,41.779605,-8.528486,0,0,-0.45,1,0,68,0,1,0,74,100,-6981,1666,11535,2984.5,13,NAVI,1,0,0,0,0,0,0,1.53E+12,3878,3863,3873,0,0,0,22,,,,,,,0,0,0,-13,1,689,0,0,690,14,39,2,3.03,0,0,-2,0,,,92,92,0,1,0,0,0,2,1,,,,,11.2,5.4,0
51.4055,-2.8192,12,12,0.45,1,12,12,1.12,1,12666,35:35.5,35:35.5,9,0,0,11.535,41.779605,-8.528486,0,0,-0.45,1,0,68,0,1,0,74,100,-6981,1666,11535,2984.5,13,NAVI,1,0,0,0,0,0,0,1.53E+12,3878,3863,3873,0,0,0,22,,,,,,,0,0,0,-11,5,689,0,0,690,14,39,2,3.22,0,0,-2,0,,,92,92,0,1,0,0,0,2,1,,,,,0,5.4,0
51.4055,-2.8192,12,12,0.45,1,12,12,1.12,1,12757,35:35.6,35:35.6,9,0,0,11.535,41.779605,-8.528486,0,0,-0.45,0,1,68,0,1,0,74,100,-6981,1666,11535,2984.5,13,NAVI,1,0,0,0,0,0,0,1.53E+12,3878,3863,3873,0,0,0,22,,,,,,,0,0,0,-9,10,689,0,0,690,14,39,2,3.22,0,0,-2,0,,,92,92,0,1,0,0,0,2,1,,,,,0,5.4,0
51.4055,-2.8192,13,13,0.45,0,13,13,1.12,1,12881,35:35.8,35:35.8,9,0,0,11.518,41.779605,-8.528486,0,0,-0.45,0,1,68,0,1,0,74,100,-7099,1664,11518,2985.5,13,NAVI,1,0,0,0,0,0,0,1.53E+12,3878,3863,3873,0,0,0,22,,,,,,,0,0,0,-9,11,689,0,0,690,14,40,2,3.03,0,0,-2,0,,,92,92,0,1,0,0,0,2,1,,,,,0,5.7,0
51.4055,-2.8192,13,13,0.45,0,13,13,1.12,1,12967,35:35.8,35:35.8,9,0,0,11.518,41.779605,-8.528486,0,0,-0.45,1,0,68,0,1,0,74,100,-7099,1664,11518,2985.5,13,NAVI,1,0,0,0,0,0,0,1.53E+12,3878,3863,3873,0,0,0,22,,,,,,,0,0,0,-13,6,689,0,0,690,14,40,2,3,0,0,-2,0,,,92,92,0,1,0,0,0,2,1,,,,,0,5.7,0
51.4055,-2.8192,13,13,0.45,1,13,13,1.12,1,13061,35:36.0,35:36.0,9,0,0,11.518,41.779605,-8.528486,0,0,-0.45,1,0,68,0,1,0,74,100,-7099,1664,11518,2985.5,13,NAVI,1,0,0,0,0,0,0,1.53E+12,3878,3863,3873,0,0,0,22,,,,,,,0,0,0,-13,2,689,0,0,690,14,40,2,3.28,0,0,-2,0,,,92,92,0,1,0,0,0,2,1,,,,,0,5.7,0
51.4055,-2.8192,13,13,0.67,1,13,13,1.12,1,13181,35:36.1,35:36.1,9,0,0,11.518,41.779605,-8.528486,0,0,-0.67,0,1,68,0,1,0,74,100,-7099,1664,11518,2985.5,13,NAVI,1,0,0,0,0,0,0,1.53E+12,3878,3863,3873,0,0,0,22,,,,,,,0,0,0,-6,10,687,0,0,690,14,40,3,3.28,0,0,-3,0,,,92,92,0,1,0,0,0,2,1,,,,,0,5.7,0
51.4055,-2.8192,13,13,0.67,1,13,13,1.12,1,13274,35:36.1,35:36.1,9,0,0,11.518,41.779605,-8.528486,0,0,-0.67,0,1,68,0,1,0,74,100,-7099,1664,11518,2985.5,13,NAVI,1,0,0,0,0,0,0,1.53E+12,3878,3863,3873,0,0,0,22,,,,,,,0,0,0,-8,10,687,0,0,690,14,40,3,3.27,0,0,-3,0,,,88,88,0,1,0,0,0,2,1,,,,,0,6.1,0
51.4055,-2.8192,13,13,0.67,1,13,13,1.12,1,13399,35:36.3,35:36.3,9,0,0,11.518,41.779605,-8.528486,0,0,-0.67,1,0,68,0,1,0,74,100,-7099,1664,11518,2985.5,13,NAVI,1,0,0,0,0,0,0,1.53E+12,3878,3863,3873,0,0,0,22,,,,,,,0,0,0,-11,6,687,0,0,690,14,40,3,3.26,0,0,-3,0,,,88,88,0,1,0,0,0,2,1,,,,,0,6.8,0
51.4055,-2.8192,13,13,0.45,1,13,13,1.12,1,13482,35:36.4,35:36.4,9,0,0,11.518,41.779605,-8.528486,0,0,-0.45,1,0,68,0,1,0,74,100,-7099,1664,11518,2985.5,13,NAVI,1,0,0,0,0,0,0,1.53E+12,3878,3863,3873,0,0,0,22,,,,,,,0,0,0,-13,9,687,0,0,690,14,40,2,3.23,0,0,-2,0,,,88,88,0,1,0,0,0,2,1,,,,,0,6.8,0
51.4055,-2.8192,13,13,0.45,1,13,13,1.12,1,13603,35:36.5,35:36.5,9,0,0,11.518,41.779605,-8.528486,0,0,-0.45,1,1,68,0,1,0,74,100,-7099,1664,11518,2985.5,13,NAVI,1,0,0,0,0,0,0,1.53E+12,3878,3863,3873,0,0,0,22,,,,,,,0,0,0,-13,10,687,0,0,690,14,41,2,3.22,0,0,-2,0,,,88,88,0,1,0,0,0,2,1,,,,,0,6.8,0
51.4055,-2.8192,13,13,0.45,1,13,13,1.12,1,13694,35:36.6,35:36.6,9,0,0,11.518,41.779605,-8.528486,0,0,-0.45,1,1,68,0,1,0,74,100,-7099,1664,11518,2985.5,13,NAVI,1,0,0,0,0,0,0,1.53E+12,3878,3863,3873,0,0,0,22,,,,,,,0,0,0,-11,10,687,0,0,690,14,41,2,3.26,0,0,-2,0,,,88,88,0,1,0,0,0,2,1,,,,,0,6.8,0
51.4055,-2.8192,13,13,0.45,1,13,13,1.12,1,13792,35:36.7,35:36.7,9,0,0,11.518,41.779605,-8.528486,0,0,-0.45,1,0,68,0,1,0,74,100,-7099,1664,11518,2985.5,13,NAVI,1,0,0,0,0,0,0,1.53E+12,3878,3863,3873,0,0,0,22,,,,,,,0,0,0,-11,2,689,0,0,690,14,41,2,3.26,0,0,-2,0,,,88,88,0,1,0,0,0,2,1,,,,,0,6.8,0
51.4055,-2.8192,13,13,0.45,0,13,13,1.12,1,13879,35:36.7,35:36.8,9,0,0,11.513,41.779605,-8.528486,0,0,-0.45,1,0,68,0,1,0,73,100,-7141,1662,11513,2986.5,13,NAVI,1,0,0,0,0,0,0,1.53E+12,3878,3863,3873,0,0,0,22,,,,,,,0,0,0,-11,-5,689,0,0,690,14,41,2,3,0,0,-2,0,,,88,88,0,1,0,0,0,2,1,,,,,0,6.8,0
51.4055,-2.8192,14,14,0.45,0,14,14,1.12,1,14002,35:36.9,35:36.9,9,0,0,11.513,41.779605,-8.528486,0,0,-0.45,1,0,68,0,1,0,73,100,-7141,1662,11513,2986.5,13,NAVI,1,0,0,0,0,0,0,1.53E+12,3878,3863,3873,0,0,0,22,,,,,,,0,0,0,-17,-2,689,0,0,690,14,43,2,2.97,0,0,-2,0,,,88,88,0,1,0,0,0,2,1,,,,,0,6.8,0
51.4055,-2.8192,14,14,0.45,0,14,14,1.12,1,14094,35:37.0,35:37.0,9,0,0,11.513,41.779605,-8.528486,0,0,-0.45,1,0,68,0,1,0,73,100,-7141,1662,11513,2986.5,13,NAVI,1,0,0,0,0,0,0,1.53E+12,3878,3863,3873,0,0,0,22,,,,,,,0,0,0,-17,4,689,0,0,690,14,43,2,3,0,0,-2,0,,,88,88,0,1,0,0,0,2,1,,,,,0,6.8,0
51.4055,-2.8192,14,14,0.67,0,14,14,1.12,1,14168,35:37.0,35:37.0,9,0,0,11.513,41.779605,-8.528486,0,0,-0.67,1,1,68,0,1,0,73,100,-7141,1662,11513,2986.5,13,NAVI,1,0,0,0,0,0,0,1.53E+12,3878,3863,3873,0,0,0,22,,,,,,,0,0,0,-13,11,689,0,0,690,14,43,3,2.97,0,0,-3,0,,,88,88,0,1,0,0,0,2,1,,,,,0,6.8,0
51.4055,-2.8192,14,14,0.67,0,14,14,1.12,1,14300,35:37.2,35:37.2,9,0,0,11.513,41.779605,-8.528486,0,0,-0.67,1,1,68,0,1,0,73,100,-7141,1662,11513,2986.5,13,NAVI,1,0,0,0,0,0,0,1.53E+12,3878,3863,3873,0,0,0,22,,,,,,,0,0,0,-13,11,689,0,0,690,14,44,3,2.84,0,0,-3,0,,,91,91,0,1,0,0,0,2,1,,,,,0,6.8,0
51.4055,-2.8192,14,14,0.67,0,14,14,1.12,1,14375,35:37.2,35:37.2,9,0,0,11.513,41.779605,-8.528486,0,0,-0.67,1,0,68,0,1,0,73,100,-7141,1662,11513,2986.5,13,NAVI,1,0,0,0,0,0,0,1.53E+12,3878,3863,3873,0,0,0,22,,,,,,,0,0,0,-17,9,689,0,0,690,14,44,3,2.8,0,0,-3,0,,,91,91,0,1,0,0,0,2,1,,,,,0,6.8,0
51.4055,-2.8192,14,14,0.67,0,14,14,1.12,1,14486,35:37.4,35:37.4,9,0,0,11.513,41.779605,-8.528486,0,0,-0.67,1,0,68,0,1,0,73,100,-7141,1662,11513,2986.5,13,NAVI,1,0,0,0,0,0,0,1.53E+12,3878,3863,3873,0,0,0,22,,,,,,,0,0,0,-18,5,689,0,0,690,14,44,3,2.76,0,0,-3,0,,,91,91,0,1,0,0,0,2,1,,,,,0,6.8,0
51.4055,-2.8192,14,14,0.67,0,14,14,1.12,1,14573,35:37.4,35:37.4,9,0,0,11.513,41.779605,-8.528486,0,0,-0.67,1,0,68,0,1,0,73,100,-7141,1662,11513,2986.5,13,NAVI,1,0,0,0,0,0,0,1.53E+12,3878,3863,3873,0,0,0,22,,,,,,,0,0,0,-17,6,689,0,0,690,14,45,3,2.73,0,0,-3,0,,,91,91,0,1,0,0,0,2,1,,,,,0,6.8,0
51.4055,-2.8192,14,14,0.45,0,14,14,1.12,1,14693,35:37.6,35:37.6,9,0,0,11.513,41.779605,-8.528486,0,0,-0.45,2,0,68,0,1,0,73,100,-7141,1662,11513,2986.5,13,NAVI,1,0,0,0,0,0,0,1.53E+12,3878,3863,3873,0,0,0,22,,,,,,,0,0,0,-20,5,689,0,0,690,14,45,2,2.76,0,0,-2,0,,,91,91,0,1,0,0,0,2,1,,,,,0,6.8,0
51.4055,-2.8192,14,14,0.45,0,14,14,1.12,1,14787,35:37.7,35:37.7,9,0,0,11.513,41.779605,-8.528486,0,0,-0.45,2,0,68,0,1,0,73,100,-7141,1662,11513,2986.5,13,NAVI,1,0,0,0,0,0,0,1.53E+12,3878,3863,3873,0,0,0,22,,,,,,,0,0,0,-21,-1,687,0,0,690,14,45,2,2.73,0,0,-2,0,,,91,91,0,1,0,0,0,2,1,,,,,0,6.8,0
51.4055,-2.8192,14,14,0.45,0,14,14,1.12,1,14900,35:37.8,35:37.8,9,0,0,11.507,41.779605,-8.528486,0,0,-0.45,2,0,68,0,1,0,73,100,-7091,1660,11507,2986.5,13,NAVI,1,0,0,0,0,0,0,1.53E+12,3878,3863,3873,0,0,0,22,,,,,,,0,0,0,-21,-2,687,0,0,690,14,45,2,2.84,0,0,-2,0,,,91,91,0,1,0,0,0,2,1,,,,,0,6.8,0
51.4055,-2.8192,15,15,0.45,0,15,15,1.12,1,14999,35:37.9,35:37.9,9,0,0,11.507,41.779605,-8.528486,0,0,-0.45,2,0,68,0,1,0,73,100,-7091,1660,11507,2986.5,13,NAVI,1,0,0,0,0,0,0,1.53E+12,3878,3863,3873,0,0,0,22,,,,,,,0,0,0,-21,-5,687,0,0,690,14,45,2,2.83,0,0,-2,0,,,91,91,0,1,0,0,0,2,1,,,,,0,6.8,0
51.4055,-2.8192,15,15,0.45,0,15,15,1.12,1,15099,35:38.0,35:38.0,9,0,0,11.507,41.779605,-8.528486,0,0,-0.45,2,0,68,0,1,0,73,100,-7091,1660,11507,2986.5,13,NAVI,1,0,0,0,0,0,0,1.53E+12,3878,3863,3873,0,0,0,22,,,,,,,0,0,0,-20,-1,689,0,0,690,14,45,2,2.85,0,0,-2,0,,,91,91,0,1,0,0,0,2,1,,,,,0,6.8,0
51.4055,-2.8192,15,15,0.45,0,15,15,1.12,1,15183,35:38.1,35:38.1,9,0,0,11.507,41.779605,-8.528486,0,0,-0.45,1,0,68,0,1,0,73,100,-7091,1660,11507,2986.5,13,NAVI,1,0,0,0,0,0,0,1.53E+12,3878,3863,3873,0,0,0,22,,,,,,,0,0,0,-18,0,689,0,0,690,14,45,2,2.83,0,0,-2,0,,,91,91,0,1,0,0,0,2,1,,,,,0,6.8,0
51.4055,-2.8192,15,15,0.45,0,15,15,1.12,1,15303,35:38.2,35:38.2,9,0,0,11.507,41.779605,-8.528486,0,0,-0.45,1,0,68,0,1,0,73,100,-7091,1660,11507,2986.5,13,NAVI,1,0,0,0,0,0,0,1.53E+12,3844,3828,3836,0,0,0,22,,,,,,,0,0,0,-18,2,689,0,0,690,14,46,2,2.84,0,0,-2,0,,,87,87,0,1,0,0,0,2,1,,,,,0,6.8,0
51.4055,-2.8192,15,15,0.45,0,15,15,1.12,1,15395,35:38.3,35:38.3,9,0,0,11.507,41.779605,-8.528486,0,0,-0.45,2,0,68,0,1,0,73,100,-7091,1660,11507,2986.5,13,NAVI,1,0,0,0,0,0,0,1.53E+12,3844,3828,3836,0,0,0,22,,,,,,,0,0,0,-20,2,689,0,0,690,14,46,2,2.82,0,0,-2,0,,,87,87,0,1,0,0,0,2,1,,,,,0,7,0
51.4055,-2.8192,15,15,0.45,0,15,15,1.12,1,15495,35:38.4,35:38.4,9,0,0,11.507,41.779605,-8.528486,0,0,-0.45,1,0,68,0,1,0,73,100,-7091,1660,11507,2986.5,13,NAVI,1,0,0,0,0,0,0,1.53E+12,3844,3828,3836,0,0,0,22,,,,,,,0,0,0,-18,2,689,0,0,690,14,46,2,2.73,0,0,-2,0,,,87,87,0,1,0,0,0,2,1,,,,,0,7,0
51.4055,-2.8192,15,15,0.45,0,15,15,1.12,1,15578,35:38.4,35:38.4,9,0,0,11.507,41.779605,-8.528486,0,0,-0.45,2,0,68,0,1,0,73,100,-7091,1660,11507,2986.5,13,NAVI,1,0,0,0,0,0,0,1.53E+12,3844,3828,3836,0,0,0,22,,,,,,,0,0,0,-21,0,689,0,0,690,14,46,2,2.72,0,0,-2,0,,,87,87,0,1,0,0,0,2,1,,,,,0,7,0
51.4055,-2.8192,15,15,0.45,0,15,15,1.12,1,15700,35:38.6,35:38.6,9,0,0,11.507,41.779605,-8.528486,0,0,-0.45,2,0,68,0,1,0,73,100,-7091,1660,11507,2986.5,13,NAVI,1,0,0,0,0,0,0,1.53E+12,3844,3828,3836,0,0,0,22,,,,,,,0,0,0,-20,0,689,0,0,690,14,48,2,2.91,0,0,-2,0,,,87,87,0,1,0,0,0,2,1,,,,,0,7,0
51.4055,-2.8192,15,15,0.67,0,15,15,1.12,1,15807,35:38.7,35:38.7,9,0,0,11.507,41.779605,-8.528486,0,0,-0.67,1,0,68,0,1,0,73,100,-7091,1660,11507,2986.5,13,NAVI,1,0,0,0,0,0,0,1.53E+12,3844,3828,3836,0,0,0,22,,,,,,,0,0,0,-16,-1,689,0,0,690,14,48,3,2.91,0,0,-3,0,,,87,87,0,1,0,0,0,2,1,,,,,0,7.2,0
51.4055,-2.8192,15,15,0.67,0,15,15,1.12,1,15882,35:38.8,35:38.8,9,0,0,11.507,41.779605,-8.528486,0,0,-0.67,1,0,68,0,1,0,73,100,-7003,1658,11507,2987.5,13,NAVI,1,0,0,0,0,0,0,1.53E+12,3844,3828,3836,0,0,0,22,,,,,,,0,0,0,-16,0,689,0,0,690,14,48,3,2.9,0,0,-3,0,,,87,87,0,1,0,0,0,2,1,,,,,0,7.2,0
51.4055,-2.8192,16,16,0.67,0,16,16,1.12,1,15977,35:38.8,35:38.8,9,0,0,11.507,41.779605,-8.528486,0,0,-0.67,1,0,68,0,1,0,73,100,-7003,1658,11507,2987.5,13,NAVI,1,0,0,0,0,0,0,1.53E+12,3844,3828,3836,0,0,0,22,,,,,,,0,0,0,-16,2,687,0,0,690,14,49,3,2.89,0,0,-3,0,,,87,87,0,1,0,0,0,2,1,,,,,0,7.2,0
51.4055,-2.8192,16,16,0.45,0,16,16,1.12,1,16100,35:39.0,35:39.0,9,0,0,11.507,41.779605,-8.528486,0,0,-0.45,1,0,68,0,1,0,73,100,-7003,1658,11507,2987.5,13,NAVI,1,0,0,0,0,0,0,1.53E+12,3844,3828,3836,0,0,0,22,,,,,,,0,0,0,-16,5,687,0,0,690,14,49,2,3.01,0,0,-2,0,,,87,87,0,1,0,0,0,2,1,,,,,0,7.2,0
51.4055,-2.8192,16,16,0.45,0,16,16,1.12,1,16190,35:39.1,35:39.1,9,0,0,11.507,41.779605,-8.528486,0,0,-0.45,1,0,68,0,1,0,73,100,-7003,1658,11507,2987.5,13,NAVI,1,0,0,0,0,0,0,1.53E+12,3844,3828,3836,0,0,0,22,,,,,,,0,0,0,-16,1,687,0,0,690,14,49,2,3.02,0,0,-2,0,,,87,87,0,1,0,0,0,2,1,,,,,0,7.2,0
51.4055,-2.8192,16,16,0.45,0,16,16,1.12,1,16318,35:39.2,35:39.2,9,0,0,11.507,41.779605,-8.528486,0,0,-0.45,1,0,68,0,1,0,73,100,-7003,1658,11507,2987.5,13,NAVI,1,0,0,0,0,0,0,1.53E+12,3844,3828,3836,0,0,0,22,,,,,,,0,0,0,-16,2,687,0,0,690,14,49,2,2.85,0,0,-2,0,,,87,87,0,1,0,0,0,2,1,,,,,0,7.2,0
51.4055,-2.8192,16,16,0.45,0,16,16,1.12,1,16406,35:39.3,35:39.3,9,0,0,11.507,41.779605,-8.528486,0,0,-0.45,1,0,68,0,1,0,73,100,-7003,1658,11507,2987.5,13,NAVI,1,0,0,0,0,0,0,1.53E+12,3844,3828,3836,0,0,0,22,,,,,,,0,0,0,-17,6,687,0,0,690,14,50,2,2.84,0,0,-2,0,,,87,87,0,1,0,0,0,2,1,,,,,0,7.2,0
51.4055,-2.8192,16,16,0.45,0,16,16,1.12,1,16498,35:39.4,35:39.4,9,0,0,11.507,41.779605,-8.528486,0,0,-0.45,1,0,68,0,1,0,73,100,-7003,1658,11507,2987.5,13,NAVI,1,0,0,0,0,0,0,1.53E+12,3844,3828,3836,0,0,0,22,,,,,,,0,0,0,-18,5,687,0,0,690,14,50,2,2.97,0,0,-2,0,,,87,87,0,1,0,0,0,2,1,,,,,0,7.2,0
51.4055,-2.8192,16,16,0.45,0,16,16,1.12,1,16586,35:39.5,35:39.5,9,0,0,11.507,41.779605,-8.528486,0,0,-0.45,1,0,68,0,1,0,73,100,-7003,1658,11507,2987.5,13,NAVI,1,0,0,0,0,0,0,1.53E+12,3844,3828,3836,0,0,0,22,,,,,,,0,0,0,-18,-2,687,0,0,690,14,50,2,2.98,0,0,-2,0,,,87,87,0,1,0,0,0,2,1,,,,,0,7.2,0
51.4055,-2.8192,16,16,0.45,1,16,16,1.12,1,16678,35:39.5,35:39.5,9,0,0,11.507,41.779605,-8.528486,0,0,-0.45,1,0,68,0,1,0,73,100,-7003,1658,11507,2987.5,13,NAVI,1,0,0,0,0,0,0,1.53E+12,3844,3828,3836,0,0,0,22,,,,,,,0,0,0,-18,-5,689,0,0,690,14,50,2,3.16,0,0,-2,0,,,87,87,0,1,0,0,0,2,1,,,,,0,7.2,0
51.4055,-2.8192,16,16,0.45,1,16,16,1.12,1,16802,35:39.7,35:39.7,9,0,0,11.507,41.779605,-8.528486,0,0,-0.45,1,0,68,0,1,0,73,100,-7003,1658,11507,2987.5,13,NAVI,1,0,0,0,0,0,0,1.53E+12,3844,3828,3836,0,0,0,22,,,,,,,0,0,0,-16,-8,689,0,0,690,14,50,2,3.19,0,0,-2,0,,,87,87,0,1,0,0,0,2,1,,,,,0,7.2,0
51.4055,-2.8192,16,16,0.45,1,16,16,1.12,1,16899,35:39.8,35:39.8,9,0,0,11.5,41.779605,-8.528486,0,0,-0.45,1,0,68,0,1,0,73,100,-7063,1656,11500,2987.5,13,NAVI,1,0,0,0,0,0,0,1.53E+12,3844,3828,3836,0,0,0,22,,,,,,,0,0,0,-16,-9,689,0,0,690,14,50,2,3.24,0,0,-2,0,,,87,87,0,1,0,0,0,2,1,,,,,0,7.2,0
51.4055,-2.8192,16,16,0.45,1,16,16,1.12,1,16985,35:39.9,35:39.9,9,0,0,11.5,41.779605,-8.528486,0,0,-0.45,1,-1,68,0,1,0,73,100,-7063,1656,11500,2987.5,13,NAVI,1,0,0,0,0,0,0,1.53E+12,3844,3828,3836,0,0,0,22,,,,,,,0,0,0,-18,-11,689,0,0,690,14,50,2,3.26,0,0,-2,0,,,87,87,0,1,0,0,0,2,1,,,,,0,7.2,0
51.4055,-2.8192,17,17,0.45,1,17,17,1.12,1,17106,35:40.0,35:40.0,9,0,0,11.5,41.779605,-8.528486,0,0,-0.45,1,-1,68,0,1,0,73,100,-7063,1656,11500,2987.5,13,NAVI,1,0,0,0,0,0,0,1.53E+12,3844,3828,3836,0,0,0,22,,,,,,,0,0,0,-18,-11,689,0,0,690,14,51,2,3.34,0,0,-2,0,,,87,87,0,1,0,0,0,2,1,,,,,0,7.2,0
51.4055,-2.8192,17,17,0.45,1,17,17,1.12,1,17214,35:40.1,35:40.1,9,0,0,11.5,41.779605,-8.528486,0,0,-0.45,1,0,68,0,1,0,73,100,-7063,1656,11500,2987.5,13,NAVI,1,0,0,0,0,0,0,1.53E+12,3844,3828,3836,0,0,0,22,,,,,,,0,0,0,-13,-5,689,0,0,690,14,51,2,3.34,0,0,-2,0,,,87,87,0,1,0,0,0,2,1,,,,,0,7.2,0
51.4055,-2.8192,17,17,0.45,1,17,17,1.12,1,17288,35:40.2,35:40.2,9,0,0,11.5,41.779605,-8.528486,0,0,-0.45,1,0,68,0,1,0,73,100,-7063,1656,11500,2987.5,13,NAVI,1,0,0,0,0,0,0,1.53E+12,3844,3828,3836,0,0,0,22,,,,,,,0,0,0,-15,-1,689,0,0,690,14,51,2,3.46,0,0,-2,0,,,88,88,0,1,0,0,0,2,1,,,,,0,7.2,0
51.4055,-2.8192,17,17,0.45,1,17,17,1.12,1,17379,35:40.2,35:40.3,9,0,0,11.5,41.779605,-8.528486,0,0,-0.45,1,0,68,0,1,0,73,100,-7063,1656,11500,2987.5,13,NAVI,1,0,0,0,0,0,0,1.53E+12,3844,3828,3836,0,0,0,22,,,,,,,0,0,0,-18,-5,689,0,0,690,14,53,2,3.46,0,0,-2,0,,,88,88,0,1,0,0,0,2,1,,,,,0,7.2,0
51.4055,-2.8192,17,17,0.45,1,17,17,1.12,1,17501,35:40.4,35:40.4,9,0,0,11.5,41.779605,-8.528486,0,0,-0.45,1,0,68,0,1,0,73,100,-7063,1656,11500,2987.5,13,NAVI,1,0,0,0,0,0,0,1.53E+12,3844,3828,3836,0,0,0,22,,,,,,,0,0,0,-18,-5,689,0,0,690,14,53,2,3.49,0,0,-2,0,,,88,88,0,1,0,0,0,2,1,,,,,0,7.2,0
51.4055,-2.8192,17,17,0.45,1,17,17,1.12,1,17591,35:40.5,35:40.5,9,0,0,11.5,41.779605,-8.528486,0,0,-0.45,0,0,68,0,1,0,73,100,-7063,1656,11500,2987.5,13,NAVI,1,0,0,0,0,0,0,1.53E+12,3844,3828,3836,0,0,0,22,,,,,,,0,0,0,-8,2,689,0,0,690,14,53,2,3.49,0,0,-2,0,,,88,88,0,1,0,0,0,2,1,,,,,0,7.2,0
51.4055,-2.8192,17,17,0.45,1,17,17,1.12,1,17681,35:40.6,35:40.6,9,0,0,11.5,41.779605,-8.528486,0,0,-0.45,0,0,68,0,1,0,73,100,-7063,1656,11500,2987.5,13,NAVI,1,0,0,0,0,0,0,1.53E+12,3844,3828,3836,0,0,0,22,,,,,,,0,0,0,-9,2,689,0,0,690,14,53,2,3.76,0,0,-2,0,,,88,88,0,1,0,0,0,2,1,,,,,0,7.2,0
51.4055,-2.8192,17,17,0.45,1,17,17,1.12,1,17805,35:40.7,35:40.7,9,0,0,11.5,41.779605,-8.528486,0,0,-0.45,1,0,68,0,1,0,73,100,-7063,1656,11500,2987.5,13,NAVI,1,0,0,0,0,0,0,1.53E+12,3844,3828,3836,0,0,0,22,,,,,,,0,0,0,-10,-6,689,0,0,690,14,54,2,3.77,0,0,-2,0,,,88,88,0,1,0,0,0,2,1,,,,,0,7.2,0
51.4055,-2.8192,17,17,0.67,1,17,17,1.12,1,17905,35:40.8,35:40.8,9,0,0,11.492,41.779605,-8.528486,0,0,-0.67,1,0,68,0,1,0,73,100,-7063,1655,11492,2988.5,13,NAVI,1,0,0,0,0,0,0,1.53E+12,3844,3828,3836,0,0,0,22,,,,,,,0,0,0,-11,-5,689,0,0,690,14,54,3,3.66,0,0,-3,0,,,88,88,0,1,0,0,0,2,1,,,,,0,7.2,0
51.4055,-2.8192,17,17,0.67,1,17,17,1.12,1,17989,35:40.9,35:40.9,9,0,0,11.492,41.779605,-8.528486,0,0,-0.67,1,0,68,0,1,0,73,100,-7063,1655,11492,2988.5,13,NAVI,1,0,0,0,0,0,0,1.53E+12,3844,3828,3836,0,0,0,22,,,,,,,0,0,0,-11,2,689,0,0,690,14,54,3,3.64,0,0,-3,0,,,88,88,0,1,0,0,0,2,1,,,,,0,7.2,0
51.4055,-2.8192,18,18,0.67,1,18,18,1.12,1,18116,35:41.0,35:41.0,9,0,0,11.492,41.779605,-8.528486,0,0,-0.67,1,0,68,0,1,0,73,100,-7063,1655,11492,2988.5,13,NAVI,1,0,0,0,0,0,0,1.53E+12,3844,3828,3836,0,0,0,22,,,,,,,0,0,0,-13,4,689,0,0,690,14,55,3,3.6,0,0,-3,0,,,88,88,0,1,0,0,0,2,1,,,,,0,7.2,0
51.4055,-2.8192,18,18,0.45,1,18,18,1.12,1,18200,35:41.1,35:41.1,9,0,0,11.492,41.779605,-8.528486,0,0,-0.45,1,0,68,0,1,0,73,100,-7063,1655,11492,2988.5,13,NAVI,1,0,0,0,0,0,0,1.53E+12,3844,3828,3836,0,0,0,22,,,,,,,0,0,0,-16,4,689,0,0,690,14,55,2,3.58,0,0,-2,0,,,88,88,0,1,0,0,0,2,1,,,,,0,7.2,0
51.4055,-2.8192,18,18,0.45,1,18,18,1.12,1,18293,35:41.2,35:41.2,9,0,0,11.492,41.779605,-8.528486,0,0,-0.45,1,0,68,0,1,0,73,100,-7063,1655,11492,2988.5,13,NAVI,1,0,0,0,0,0,0,1.53E+12,3844,3828,3836,0,0,0,22,,,,,,,0,0,0,-15,2,689,0,0,690,14,55,2,3.38,0,0,-2,0,,,87,87,0,1,0,0,0,2,1,,,,,0,7.2,0
51.4055,-2.8192,18,18,0.45,1,18,18,1.12,1,18415,35:41.3,35:41.3,9,0,0,11.492,41.779605,-8.528486,0,0,-0.45,1,1,68,0,1,0,73,100,-7063,1655,11492,2988.5,13,NAVI,1,0,0,0,0,0,0,1.53E+12,3844,3828,3836,0,0,0,22,,,,,,,0,0,0,-11,11,689,0,0,690,14,55,2,3.37,0,0,-2,0,,,87,87,0,1,0,0,0,2,1,,,,,0,7.2,0
51.4055,-2.8192,18,18,0.45,1,18,18,1.12,1,18504,35:41.4,35:41.4,9,0,0,11.492,41.779605,-8.528486,0,0,-0.45,1,0,68,0,1,0,73,100,-7063,1655,11492,2988.5,13,NAVI,1,0,0,0,0,0,0,1.53E+12,3844,3828,3836,0,0,0,22,,,,,,,0,0,0,-11,9,689,0,0,690,14,55,2,3.31,0,0,-2,0,,,87,87,0,1,0,0,0,2,1,,,,,0,7.2,0
51.4055,-2.8192,18,18,0.45,1,18,18,1.12,1,18580,35:41.4,35:41.4,9,0,0,11.492,41.779605,-8.528486,0,0,-0.45,1,0,68,0,1,0,73,100,-7063,1655,11492,2988.5,13,NAVI,1,0,0,0,0,0,0,1.53E+12,3844,3828,3836,0,0,0,22,,,,,,,0,0,0,-15,5,689,0,0,690,14,55,2,3.29,0,0,-2,0,,,87,87,0,1,0,0,0,2,1,,,,,0,7.2,0
51.4055,-2.8192,18,18,0.45,1,18,18,1.12,1,18683,35:41.6,35:41.6,9,0,0,11.492,41.779605,-8.528486,0,0,-0.45,1,0,68,0,1,0,73,100,-7063,1655,11492,2988.5,13,NAVI,1,0,0,0,0,0,0,1.53E+12,3844,3828,3836,0,0,0,22,,,,,,,0,0,0,-15,2,687,0,0,690,14,55,2,3.43,0,0,-2,0,,,87,87,0,1,0,0,0,2,1,,,,,0,7.2,0
51.4055,-2.8192,18,18,0.67,1,18,18,1.12,1,18807,35:41.7,35:41.7,9,0,0,11.492,41.779605,-8.528486,0,0,-0.67,1,0,68,0,1,0,73,100,-7063,1655,11492,2988.5,13,NAVI,1,0,0,0,0,0,0,1.53E+12,3844,3828,3836,0,0,0,22,,,,,,,0,0,0,-17,-2,687,0,0,690,14,56,3,3.43,0,0,-3,0,,,87,87,0,1,0,0,0,2,1,,,,,0,7.2,0
51.4055,-2.8192,18,18,0.67,1,18,18,1.12,1,18893,35:41.8,35:41.8,9,0,0,11.495,41.779605,-8.528486,0,0,-0.67,1,0,68,0,1,0,73,100,-7030,1653,11495,2989.5,13,NAVI,1,0,0,0,0,0,0,1.53E+12,3844,3828,3836,0,0,0,22,,,,,,,0,0,0,-16,-2,687,0,0,690,14,56,3,3.2,0,0,-3,0,,,87,87,0,1,0,0,0,2,1,,,,,0,7.7,0
51.4055,-2.8192,18,18,0.67,1,18,18,1.12,1,18989,35:41.9,35:41.9,9,0,0,11.495,41.779605,-8.528486,0,0,-0.67,1,0,68,0,1,0,73,100,-7030,1653,11495,2989.5,13,NAVI,1,0,0,0,0,0,0,1.53E+12,3844,3828,3836,0,0,0,22,,,,,,,0,0,0,-13,9,689,0,0,690,14,56,3,3.18,0,0,-3,0,,,87,87,0,1,0,0,0,2,1,,,,,0,7.7,0
51.4055,-2.8192,19,19,0.45,1,19,19,1.12,1,19106,35:42.0,35:42.0,9,0,0,11.495,41.779605,-8.528486,0,0,-0.45,1,1,68,0,1,0,73,100,-7030,1653,11495,2989.5,13,NAVI,1,0,0,0,0,0,0,1.53E+12,3844,3828,3836,0,0,0,22,,,,,,,0,0,0,-15,11,689,0,0,690,14,58,2,3.2,0,0,-2,0,,,87,87,0,1,0,0,0,2,1,,,,,0,7.8,0
51.4055,-2.8192,19,19,0.45,1,19,19,1.12,1,19206,35:42.1,35:42.1,9,0,0,11.495,41.779605,-8.528486,0,0,-0.45,1,0,68,0,1,0,73,100,-7030,1653,11495,2989.5,13,NAVI,1,0,0,0,0,0,0,1.53E+12,3844,3828,3836,0,0,0,22,,,,,,,0,0,0,-17,2,687,0,0,690,14,58,2,3.2,0,0,-2,0,,,87,87,0,1,0,0,0,2,1,,,,,0,8.7,0
51.4055,-2.8192,19,19,0.45,1,19,19,1.12,1,19297,35:42.2,35:42.2,9,0,0,11.495,41.779605,-8.528486,0,0,-0.45,1,0,68,0,1,0,73,100,-7030,1653,11495,2989.5,13,NAVI,1,0,0,0,0,0,0,1.53E+12,3844,3828,3836,0,0,0,22,,,,,,,0,0,0,-17,-1,689,0,0,690,14,58,2,3.09,0,0,-2,0,,,87,87,0,1,0,0,0,2,1,,,,,0,8.7,0
51.4055,-2.8192,19,19,0.45,1,19,19,1.12,1,19420,35:42.3,35:42.3,9,0,0,11.495,41.779605,-8.528486,0,0,-0.45,1,0,68,0,1,0,73,100,-7030,1653,11495,2989.5,13,NAVI,1,0,0,0,0,0,0,1.53E+12,3844,3828,3836,0,0,0,22,,,,,,,0,0,0,-13,8,689,0,0,690,14,58,2,3.09,0,0,-2,0,,,87,87,0,1,0,0,0,2,1,,,,,0,8.9,0
51.4055,-2.8192,19,19,0.45,0,19,19,1.12,1,19514,35:42.4,35:42.4,9,0,0,11.495,41.779605,-8.528486,0,0,-0.45,1,0,68,0,1,0,73,100,-7030,1653,11495,2989.5,13,NAVI,1,0,0,0,0,0,0,1.53E+12,3844,3828,3836,0,0,0,22,,,,,,,0,0,0,-13,5,689,0,0,690,14,59,2,2.96,0,0,-2,0,,,87,87,0,1,0,0,0,2,1,,,,,0,8.9,0
51.4055,-2.8192,19,19,0.45,0,19,19,1.12,1,19631,35:42.5,35:42.5,9,0,0,11.495,41.779605,-8.528486,0,0,-0.45,2,0,68,0,1,0,73,100,-7030,1653,11495,2989.5,13,NAVI,1,0,0,0,0,0,0,1.53E+12,3844,3828,3836,0,0,0,22,,,,,,,0,0,0,-21,-6,689,0,0,690,14,59,2,2.95,0,0,-2,0,,,87,87,0,1,0,0,0,2,1,,,,,0,8.9,0
51.4055,-2.8192,19,19,0.45,1,19,19,1.12,1,19725,35:42.6,35:42.6,9,0,0,11.495,41.779605,-8.528486,0,0,-0.45,2,0,68,0,1,0,73,100,-7030,1653,11495,2989.5,13,NAVI,1,0,0,0,0,0,0,1.53E+12,3844,3828,3836,0,0,0,22,,,,,,,0,0,0,-21,-4,689,0,0,690,14,59,2,3.39,0,0,-2,0,,,87,87,0,1,0,0,0,2,1,,,,,0,8.9,0
51.4055,-2.8192,19,19,0.67,1,19,19,1.12,1,19819,35:42.7,35:42.7,9,0,0,11.495,41.779605,-8.528486,0,0,-0.67,0,0,68,0,1,0,73,100,-7030,1653,11495,2989.5,13,NAVI,1,0,0,0,0,0,0,1.53E+12,3844,3828,3836,0,0,0,22,,,,,,,0,0,0,-9,4,689,0,0,690,14,59,3,3.41,0,0,-3,0,,,87,87,0,1,0,0,0,2,1,,,,,0,9.3,0
51.4055,-2.8192,19,19,0.45,1,19,19,1.12,1,19938,35:42.8,35:42.8,9,0,0,11.495,41.779605,-8.528486,0,0,-0.45,0,0,68,0,1,0,73,100,-7021,1651,11495,2990.5,13,NAVI,1,0,0,0,0,0,0,1.53E+12,3844,3828,3836,0,0,0,22,,,,,,,0,0,0,-8,4,689,0,0,690,14,60,2,3.12,0,0,-2,0,,,87,87,0,1,0,0,0,2,1,,,,,0,9.6,0
51.4055,-2.8192,19,19,0.67,1,19,19,1.12,1,20042,35:42.9,35:42.9,9,0,0,11.495,41.779605,-8.528486,0,0,-0.67,1,0,68,0,1,0,73,100,-7021,1651,11495,2990.5,13,NAVI,1,0,0,0,0,0,0,1.53E+12,3844,3828,3836,0,0,0,22,,,,,,,0,0,0,-13,9,689,0,0,690,14,60,3,3.1,0,0,-3,0,,,87,87,0,1,0,0,0,2,1,,,,,0,9.6,0
